$GPVTG,160.3920,T,160.3920,M,0.087,N,0.162,K,D*2C
$GPVTG,148.8823,T,148.8823,M,0.112,N,0.207,K,D*21
$GPVTG,157.0287,T,157.0287,M,0.075,N,0.140,K,D*21
$GPVTG,150.5904,T,150.5904,M,0.126,N,0.233,K,D*21
$GPVTG,158.5750,T,158.5750,M,0.087,N,0.162,K,D*2C
$GPVTG,145.9721,T,145.9721,M,0.158,N,0.292,K,D*23
$GPVTG,147.5873,T,147.5873,M,0.158,N,0.293,K,D*22
$GPVTG,148.9178,T,148.9178,M,0.154,N,0.286,K,D*2A
$GPVTG,154.1251,T,154.1251,M,0.137,N,0.254,K,D*20
$GPVTG,144.8257,T,144.8257,M,0.140,N,0.260,K,D*27
$GPVTG,166.8150,T,166.8150,M,0.108,N,0.200,K,D*2D
$GPVTG,162.9965,T,162.9965,M,0.139,N,0.257,K,D*2D
$GPVTG,149.5775,T,149.5775,M,0.143,N,0.264,K,D*20
$GPVTG,136.4710,T,136.4710,M,0.181,N,0.336,K,D*28
$RDENS,8771,5644284,PC
$GPVTG,142.3685,T,142.3685,M,0.174,N,0.322,K,D*27
$GPVTG,137.3001,T,137.3001,M,0.200,N,0.371,K,D*21
$GPVTG,156.1198,T,156.1198,M,0.150,N,0.279,K,D*2E
$GPVTG,152.8633,T,152.8633,M,0.138,N,0.255,K,D*2E
$GPVTG,155.5173,T,155.5173,M,0.144,N,0.267,K,D*24
$GPVTG,147.7243,T,147.7243,M,0.173,N,0.320,K,D*22
$GPVTG,154.4077,T,154.4077,M,0.156,N,0.289,K,D*27
$GPVTG,149.4843,T,149.4843,M,0.159,N,0.294,K,D*24
$GPVTG,157.6164,T,157.6164,M,0.172,N,0.319,K,D*29
$GPVTG,150.6830,T,150.6830,M,0.195,N,0.361,K,D*2F
$GPVTG,159.5787,T,159.5787,M,0.169,N,0.313,K,D*29
$RDENS,8772,5644372,PC
$GPVTG,152.8636,T,152.8636,M,0.148,N,0.275,K,D*2B
$GPVTG,154.3070,T,154.3070,M,0.174,N,0.323,K,D*26
$GPVTG,148.9812,T,148.9812,M,0.152,N,0.281,K,D*2B
$GPVTG,153.6313,T,153.6313,M,0.151,N,0.279,K,D*2F
$RDENS,8773,5644460,PC
$GPVTG,166.2155,T,166.2155,M,0.128,N,0.237,K,D*2B
$GPVTG,158.5234,T,158.5234,M,0.162,N,0.299,K,D*21
$GPVTG,152.1772,T,152.1772,M,0.158,N,0.292,K,D*23
$GPVTG,158.9552,T,158.9552,M,0.236,N,0.438,K,D*2E
$RDENS,8774,5644548,PC
$GPVTG,163.4917,T,163.4917,M,0.153,N,0.284,K,D*2F
$GPVTG,158.3585,T,158.3585,M,0.181,N,0.336,K,D*28
$GPVTG,178.0793,T,178.0793,M,0.140,N,0.259,K,D*2D
$GPVTG,190.0444,T,190.0444,M,0.112,N,0.208,K,D*2E
$GPVTG,150.2937,T,150.2937,M,0.182,N,0.336,K,D*2B
$RDENS,8775,5644636,PC
$GPVTG,157.3318,T,157.3318,M,0.175,N,0.325,K,D*21
$GPVTG,147.4130,T,147.4130,M,0.242,N,0.448,K,D*2A
$GPVTG,157.8527,T,157.8527,M,0.219,N,0.406,K,D*2E
$GPVTG,140.3971,T,140.3971,M,0.282,N,0.522,K,D*2B
$RDENS,8776,5644724,PC
$GPVTG,122.0887,T,122.0887,M,0.267,N,0.494,K,D*2C
$GPVTG,112.0141,T,112.0141,M,0.412,N,0.763,K,D*23
$GPVTG,109.5534,T,109.5534,M,0.466,N,0.864,K,D*28
$GPVTG,88.0512,T,88.0512,M,0.376,N,0.697,K,D*2C
$GPVTG,95.6618,T,95.6618,M,0.567,N,1.050,K,D*26
$RDENS,8777,5644812,PC
$GPVTG,96.6217,T,96.6217,M,0.568,N,1.053,K,D*2A
$GPVTG,94.1220,T,94.1220,M,0.776,N,1.437,K,D*21
$GPVTG,86.7037,T,86.7037,M,0.660,N,1.223,K,D*24
$GPVTG,100.6851,T,100.6851,M,0.939,N,1.740,K,D*27
$RDENS,8778,5644900,PC
$GPVTG,85.8037,T,85.8037,M,0.769,N,1.424,K,D*2D
$GPVTG,99.2343,T,99.2343,M,1.123,N,2.081,K,D*2C
$GPVTG,92.5604,T,92.5604,M,0.986,N,1.828,K,D*22
$GPVTG,92.0683,T,92.0683,M,0.917,N,1.699,K,D*2E
$GPVTG,92.3597,T,92.3597,M,1.143,N,2.119,K,D*2A
$RDENS,8779,5644988,PC
$GPVTG,96.0870,T,96.0870,M,1.345,N,2.493,K,D*29
$GPVTG,101.1994,T,101.1994,M,1.403,N,2.599,K,D*27
$GPVTG,99.2125,T,99.2125,M,1.323,N,2.452,K,D*24
$GPVTG,96.7110,T,96.7110,M,1.243,N,2.303,K,D*20
$RDENS,8780,5645076,PC
$GPVTG,103.4780,T,103.4780,M,1.626,N,3.013,K,D*24
$GPVTG,100.0033,T,100.0033,M,1.383,N,2.563,K,D*2D
$GPVTG,100.3845,T,100.3845,M,1.567,N,2.905,K,D*2D
$GPVTG,104.0913,T,104.0913,M,1.564,N,2.899,K,D*2A
$RDENS,8781,5645164,PC
$GPVTG,105.7317,T,105.7317,M,1.617,N,2.998,K,D*2D
$GPVTG,108.0685,T,108.0685,M,1.737,N,3.219,K,D*2D
$GPVTG,111.2326,T,111.2326,M,1.760,N,3.261,K,D*20
$GPVTG,109.5569,T,109.5569,M,1.800,N,3.336,K,D*2A
$GPVTG,113.9445,T,113.9445,M,1.873,N,3.471,K,D*2A
$RDENS,8782,5645252,PC
$GPVTG,113.0746,T,113.0746,M,1.746,N,3.236,K,D*26
$GPVTG,116.4016,T,116.4016,M,1.746,N,3.236,K,D*26
$GPVTG,118.8644,T,118.8644,M,1.846,N,3.421,K,D*29
$GPVTG,120.5097,T,120.5097,M,2.106,N,3.902,K,D*2B
$RDENS,8783,5645340,PC
$GPVTG,120.4407,T,120.4407,M,2.026,N,3.755,K,D*24
$GPVTG,124.9467,T,124.9467,M,2.044,N,3.787,K,D*2F
$GPVTG,125.7535,T,125.7535,M,2.086,N,3.867,K,D*20
$GPVTG,128.1239,T,128.1239,M,1.939,N,3.594,K,D*2F
$GPVTG,129.9542,T,129.9542,M,2.046,N,3.792,K,D*29
$RDENS,8784,5645429,PC
$GPGGA,154056.00,4612.5475362,N,00605.0947840,E,2,11,1.0,365.511,M,49.521,M,0.47,0195*73
$GPVTG,130.1824,T,130.1824,M,2.132,N,3.951,K,D*2A
$GPGGA,154056.20,4612.5474764,N,00605.0948680,E,2,11,1.0,365.418,M,49.521,M,0.67,0195*75
$GPVTG,133.7392,T,133.7392,M,2.098,N,3.889,K,D*2F
$GPGGA,154056.60,4612.5472894,N,00605.0951816,E,2,11,1.0,365.549,M,49.521,M,1.07,0195*7C
$GPVTG,132.8187,T,132.8187,M,2.172,N,4.026,K,D*20
$RDENS,8785,5645518,PC
$GPGGA,154056.80,4612.5472213,N,00605.0952569,E,2,11,1.0,365.468,M,49.521,M,1.27,0195*71
$GPVTG,137.1229,T,137.1229,M,2.137,N,3.961,K,D*2C
$GPGGA,154057.20,4612.5470451,N,00605.0955046,E,2,11,1.0,365.489,M,49.521,M,1.67,0195*7C
$GPVTG,134.3323,T,134.3323,M,2.191,N,4.060,K,D*2F
$GPGGA,154057.40,4612.5469366,N,00605.0956647,E,2,11,1.0,365.591,M,49.521,M,0.17,0195*7B
$GPVTG,141.1833,T,141.1833,M,2.286,N,4.237,K,D*2A
$RDENS,8786,5645607,PC
$GPGGA,154057.80,4612.5468660,N,00605.0957939,E,2,11,1.0,365.069,M,49.521,M,0.23,0195*77
$GPVTG,135.5220,T,135.5220,M,2.197,N,4.071,K,D*29
$GPGGA,154058.00,4612.5467660,N,00605.0959081,E,2,11,1.0,365.085,M,49.521,M,0.43,0195*7F
$GPVTG,137.7355,T,137.7355,M,2.222,N,4.118,K,D*2A
$GPGGA,154058.40,4612.5464563,N,00605.0962578,E,2,11,1.0,365.629,M,49.521,M,0.83,0195*7F
$GPVTG,142.0402,T,142.0402,M,2.216,N,4.106,K,D*22
$RDENS,8787,5645696,PC
$GPGGA,154058.60,4612.5463721,N,00605.0963310,E,2,11,1.0,365.547,M,49.521,M,1.03,0195*75
$GPVTG,140.9279,T,140.9279,M,2.201,N,4.079,K,D*2D
$GPGGA,154059.00,4612.5461978,N,00605.0965082,E,2,11,1.0,365.446,M,49.521,M,1.43,0195*78
$GPVTG,142.4024,T,142.4024,M,2.236,N,4.144,K,D*26
$GPGGA,154059.20,4612.5460986,N,00605.0966235,E,2,11,1.0,365.441,M,49.521,M,1.63,0195*72
$GPVTG,139.7946,T,139.7946,M,2.309,N,4.279,K,D*26
$RDENS,8788,5645785,PC
$GPGGA,154059.60,4612.5458987,N,00605.0968633,E,2,11,1.0,365.487,M,49.521,M,2.03,0195*7F
$GPVTG,141.0020,T,141.0020,M,2.343,N,4.342,K,D*21
$GPGGA,154059.80,4612.5457964,N,00605.0969833,E,2,11,1.0,365.488,M,49.521,M,0.12,0195*71
$GPVTG,139.2283,T,139.2283,M,2.353,N,4.362,K,D*22
$GPGGA,154100.20,4612.5452863,N,00605.0973123,E,4,07,1.1,367.752,M,49.521,M,0.28,0195*79
$GPVTG,142.1487,T,142.1487,M,2.278,N,4.222,K,D*2F
$RDENS,8789,5645874,PC
$GPGGA,154100.40,4612.5451877,N,00605.0974403,E,4,07,1.1,367.778,M,49.521,M,0.09,0195*72
$GPVTG,139.1244,T,139.1244,M,2.382,N,4.414,K,D*28
$GPGGA,154100.80,4612.5449931,N,00605.0976860,E,4,07,1.1,367.768,M,49.521,M,0.14,0195*72
$GPVTG,138.4725,T,138.4725,M,2.298,N,4.259,K,D*2D
$GPGGA,154101.00,4612.5448961,N,00605.0978090,E,4,07,1.1,367.763,M,49.521,M,0.34,0195*7F
$GPVTG,137.0000,T,137.0000,M,2.414,N,4.474,K,D*26
$RDENS,8790,5645963,PC
$GPGGA,154101.20,4612.5447961,N,00605.0979421,E,4,07,1.1,367.769,M,49.521,M,0.54,0195*71
$GPVTG,138.2482,T,138.2482,M,2.358,N,4.369,K,D*22
$GPGGA,154101.60,4612.5445992,N,00605.0982040,E,4,07,1.1,367.770,M,49.521,M,0.94,0195*78
$GPVTG,136.6277,T,136.6277,M,2.420,N,4.485,K,D*2F
$GPGGA,154101.80,4612.5445042,N,00605.0983323,E,4,07,1.1,367.764,M,49.521,M,0.10,0195*7C
$GPVTG,136.2543,T,136.2543,M,2.340,N,4.336,K,D*21
$RDENS,8791,5646052,PC
$GPGGA,154102.20,4612.5443137,N,00605.0986007,E,4,07,1.1,367.761,M,49.521,M,0.50,0195*71
$GPVTG,135.1057,T,135.1057,M,2.427,N,4.497,K,D*2B
$GPGGA,154102.40,4612.5442202,N,00605.0987345,E,4,07,1.1,367.747,M,49.521,M,0.11,0195*76
$GPVTG,134.6986,T,134.6986,M,2.474,N,4.586,K,D*2C
$GPGGA,154102.80,4612.5440236,N,00605.0990168,E,4,07,1.1,367.750,M,49.521,M,0.29,0195*79
$GPVTG,135.7306,T,135.7306,M,2.540,N,4.707,K,D*21
$RDENS,8792,5646141,PC
$GPGGA,154103.00,4612.5439284,N,00605.0991554,E,4,07,1.1,367.754,M,49.521,M,0.49,0195*7F
$GPVTG,135.3665,T,135.3665,M,2.471,N,4.580,K,D*2F
$GPGGA,154103.40,4612.5437325,N,00605.0994355,E,4,07,1.1,367.753,M,49.521,M,0.89,0195*76
$GPVTG,134.8620,T,134.8620,M,2.508,N,4.649,K,D*26
$GPGGA,154103.60,4612.5436346,N,00605.0995811,E,4,07,1.1,367.750,M,49.521,M,1.09,0195*70
$GPVTG,135.3747,T,135.3747,M,2.602,N,4.822,K,D*2C
$RDENS,8793,5646230,PC
$GPGGA,154104.00,4612.5434323,N,00605.0998707,E,4,07,1.1,367.752,M,49.521,M,1.49,0195*73
$GPVTG,134.5143,T,134.5143,M,2.562,N,4.747,K,D*25
$GPGGA,154104.20,4612.5433282,N,00605.1000149,E,4,07,1.1,367.739,M,49.521,M,1.69,0195*76
$GPVTG,137.2349,T,137.2349,M,2.663,N,4.935,K,D*2C
$GPGGA,154104.60,4612.5431100,N,00605.1003129,E,4,07,1.1,367.771,M,49.521,M,2.09,0195*75
$GPVTG,135.6748,T,135.6748,M,2.652,N,4.915,K,D*2C
$RDENS,8794,5646319,PC
$GPGGA,154104.80,4612.5430055,N,00605.1004542,E,4,07,1.1,367.756,M,49.521,M,2.29,0195*72
$GPVTG,136.0495,T,136.0495,M,2.673,N,4.954,K,D*2A
$GPGGA,154105.20,4612.5427907,N,00605.1007368,E,4,07,1.1,367.736,M,49.521,M,2.69,0195*7E
$GPVTG,139.0687,T,139.0687,M,2.580,N,4.781,K,D*23
$GPGGA,154105.40,4612.5426783,N,00605.1008787,E,4,06,1.5,367.727,M,49.521,M,2.89,0195*7A
$GPVTG,139.9224,T,139.9224,M,2.650,N,4.911,K,D*2A
$RDENS,8795,5646408,PC
$GPGGA,154105.60,4612.5425603,N,00605.1010187,E,4,06,1.5,367.743,M,49.521,M,3.09,0195*76
$GPVTG,139.5226,T,139.5226,M,2.678,N,4.962,K,D*24
$GPGGA,154106.00,4612.5423300,N,00605.1012974,E,4,06,1.5,367.737,M,49.521,M,3.49,0195*72
$GPVTG,140.5724,T,140.5724,M,2.764,N,5.122,K,D*25
$GPGGA,154106.20,4612.5422134,N,00605.1014351,E,4,06,1.5,367.741,M,49.521,M,3.69,0195*7C
$GPVTG,142.2581,T,142.2581,M,2.720,N,5.042,K,D*22
$RDENS,8796,5646497,PC
$GPGGA,154106.60,4612.5419759,N,00605.1016965,E,4,06,1.5,367.738,M,49.521,M,4.09,0195*7D
$GPVTG,143.7584,T,143.7584,M,2.707,N,5.016,K,D*26
$GPGGA,154106.80,4612.5418507,N,00605.1018281,E,4,06,1.5,367.748,M,49.521,M,4.29,0195*71
$GPVTG,145.5760,T,145.5760,M,2.768,N,5.129,K,D*22
$GPGGA,154107.20,4612.5416047,N,00605.1020796,E,4,06,1.5,367.733,M,49.521,M,4.69,0195*75
$GPVTG,144.6017,T,144.6017,M,2.735,N,5.068,K,D*2E
$RDENS,8797,5646586,PC
$GPGGA,154107.40,4612.5414766,N,00605.1022054,E,4,06,1.5,367.735,M,49.521,M,4.89,0195*76
$GPVTG,145.7532,T,145.7532,M,2.714,N,5.030,K,D*20
$GPGGA,154107.80,4612.5412216,N,00605.1024485,E,4,06,1.5,367.730,M,49.521,M,5.29,0195*7E
$GPVTG,147.5444,T,147.5444,M,2.764,N,5.122,K,D*25
$GPGGA,154108.00,4612.5410904,N,00605.1025690,E,4,06,1.5,367.727,M,49.520,M,0.08,0195*75
$GPVTG,148.2440,T,148.2440,M,2.740,N,5.078,K,D*2D
$RDENS,8798,5646675,PC
$GPGGA,154108.40,4612.5408227,N,00605.1028003,E,4,07,1.1,367.750,M,49.520,M,0.11,0195*7E
$GPVTG,148.6162,T,148.6162,M,2.788,N,5.167,K,D*26
$GPGGA,154108.60,4612.5406906,N,00605.1029171,E,4,07,1.1,367.753,M,49.520,M,0.31,0195*7E
$GPVTG,149.2520,T,149.2520,M,2.773,N,5.138,K,D*28
$GPGGA,154109.00,4612.5404269,N,00605.1031431,E,4,07,1.1,367.752,M,49.520,M,0.25,0195*75
$GPVTG,149.3489,T,149.3489,M,2.754,N,5.103,K,D*25
$RDENS,8799,5646764,PC
$GPGGA,154109.20,4612.5402940,N,00605.1032515,E,4,07,1.1,367.753,M,49.520,M,0.45,0195*72
$GPVTG,150.4471,T,150.4471,M,2.829,N,5.242,K,D*26
$GPGGA,154109.60,4612.5400241,N,00605.1034709,E,4,07,1.1,367.757,M,49.520,M,0.85,0195*7F
$GPVTG,150.9061,T,150.9061,M,2.717,N,5.036,K,D*25
$GPGGA,154109.80,4612.5398919,N,00605.1035770,E,4,07,1.1,367.753,M,49.520,M,1.05,0195*73
$GPVTG,150.7484,T,150.7484,M,2.724,N,5.049,K,D*2D
$RDENS,8800,5646853,PC
$GPGGA,154110.20,4612.5396267,N,00605.1037902,E,4,07,1.1,367.751,M,49.520,M,1.45,0195*72
$GPVTG,151.0522,T,151.0522,M,2.744,N,5.085,K,D*2B
$GPGGA,154110.40,4612.5394961,N,00605.1038943,E,4,07,1.1,367.745,M,49.520,M,1.65,0195*76
$GPVTG,151.5104,T,151.5104,M,2.756,N,5.108,K,D*2C
$GPGGA,154110.60,4612.5393616,N,00605.1039975,E,4,07,1.1,367.752,M,49.520,M,1.85,0195*70
$GPVTG,151.0260,T,151.0260,M,2.685,N,4.976,K,D*23
$RDENS,8801,5646942,PC
$GPGGA,154111.00,4612.5391043,N,00605.1042088,E,4,07,1.1,367.751,M,49.520,M,0.06,0195*7D
$GPVTG,150.1113,T,150.1113,M,2.629,N,4.873,K,D*21
$GPGGA,154111.20,4612.5389743,N,00605.1043132,E,4,08,0.9,367.740,M,49.520,M,0.14,0195*75
$GPVTG,151.4714,T,151.4714,M,2.650,N,4.912,K,D*29
$GPGGA,154111.60,4612.5387170,N,00605.1045208,E,4,08,0.9,367.737,M,49.520,M,0.12,0195*73
$GPVTG,150.1168,T,150.1168,M,2.651,N,4.913,K,D*29
$RDENS,8802,5647031,PC
$GPGGA,154111.80,4612.5385865,N,00605.1046249,E,4,08,0.9,367.748,M,49.520,M,0.05,0195*7A
$GPVTG,150.1772,T,150.1772,M,2.598,N,4.815,K,D*28
$GPGGA,154112.20,4612.5383338,N,00605.1048263,E,4,08,0.9,367.751,M,49.520,M,0.35,0195*7B
$GPVTG,151.8503,T,151.8503,M,2.610,N,4.836,K,D*2A
$GPGGA,154112.40,4612.5382100,N,00605.1049309,E,4,08,0.9,367.755,M,49.520,M,0.55,0195*7B
$GPVTG,149.2383,T,149.2383,M,2.623,N,4.860,K,D*29
$RDENS,8803,5647120,PC
$GPGGA,154112.80,4612.5379642,N,00605.1051407,E,4,08,0.9,367.761,M,49.520,M,0.95,0195*79
$GPVTG,149.6746,T,149.6746,M,2.510,N,4.651,K,D*26
$GPGGA,154113.00,4612.5378414,N,00605.1052444,E,4,08,0.9,367.757,M,49.520,M,1.15,0195*78
$GPVTG,148.9611,T,148.9611,M,2.552,N,4.730,K,D*26
$GPGGA,154113.40,4612.5376008,N,00605.1054550,E,4,08,0.9,367.775,M,49.520,M,1.55,0195*7D
$GPVTG,148.6543,T,148.6543,M,2.511,N,4.653,K,D*25
$GPGGA,154113.60,4612.5374808,N,00605.1055618,E,4,08,0.9,367.780,M,49.520,M,0.07,0195*77
$RDENS,8804,5647209,PC
$GPVTG,146.2250,T,146.2250,M,2.497,N,4.628,K,D*26
$GPGGA,154114.00,4612.5372486,N,00605.1057799,E,4,08,0.9,367.792,M,49.520,M,0.33,0195*74
$GPVTG,147.2276,T,147.2276,M,2.494,N,4.622,K,D*2F
$GPGGA,154114.20,4612.5371357,N,00605.1058901,E,4,08,0.9,367.789,M,49.520,M,0.53,0195*72
$GPVTG,145.3567,T,145.3567,M,2.434,N,4.511,K,D*26
$GPGGA,154114.60,4612.5369149,N,00605.1061061,E,4,08,0.9,367.769,M,49.520,M,0.93,0195*75
$RDENS,8805,5647298,PC
$GPVTG,145.7028,T,145.7028,M,2.411,N,4.469,K,D*2F
$GPGGA,154114.80,4612.5368051,N,00605.1062190,E,4,08,0.9,367.762,M,49.520,M,1.13,0195*7C
$GPVTG,143.9135,T,143.9135,M,2.409,N,4.464,K,D*2B
$GPGGA,154115.00,4612.5366973,N,00605.1063326,E,4,08,0.9,367.758,M,49.520,M,0.08,0195*7E
$GPVTG,145.4289,T,145.4289,M,2.335,N,4.328,K,D*2C
$GPGGA,154115.40,4612.5364856,N,00605.1065589,E,4,08,0.9,367.760,M,49.520,M,0.32,0195*79
$RDENS,8806,5647387,PC
$GPVTG,142.3032,T,142.3032,M,2.344,N,4.344,K,D*20
$GPGGA,154115.60,4612.5363824,N,00605.1066697,E,4,08,0.9,367.760,M,49.520,M,0.52,0195*70
$GPVTG,142.1891,T,142.1891,M,2.309,N,4.280,K,D*20
$GPGGA,154116.00,4612.5361770,N,00605.1068981,E,4,08,0.9,367.752,M,49.520,M,0.92,0195*72
$GPVTG,142.3289,T,142.3289,M,2.319,N,4.298,K,D*28
$GPGGA,154116.20,4612.5360810,N,00605.1070149,E,4,08,0.9,367.763,M,49.520,M,1.12,0195*76
$RDENS,8807,5647476,PC
$GPVTG,141.2280,T,141.2280,M,2.197,N,4.071,K,D*29
$GPGGA,154116.60,4612.5358944,N,00605.1072387,E,4,08,0.9,367.750,M,49.520,M,1.52,0195*7F
$GPVTG,139.6399,T,139.6399,M,2.195,N,4.067,K,D*2C
$GPGGA,154116.80,4612.5357966,N,00605.1073513,E,4,08,0.9,367.760,M,49.520,M,0.03,0195*72
$GPVTG,138.6461,T,138.6461,M,2.199,N,4.075,K,D*23
$GPGGA,154117.20,4612.5356138,N,00605.1075813,E,4,08,0.9,367.764,M,49.520,M,0.01,0195*76
$RDENS,8808,5647565,PC
$GPVTG,139.6151,T,139.6151,M,2.168,N,4.017,K,D*29
$GPGGA,154117.40,4612.5355233,N,00605.1076952,E,4,08,0.9,367.779,M,49.520,M,0.19,0195*79
$GPVTG,137.4329,T,137.4329,M,2.147,N,3.979,K,D*22
$GPGGA,154117.80,4612.5353486,N,00605.1079325,E,4,08,0.9,367.779,M,49.520,M,0.11,0195*76
$GPVTG,135.2042,T,135.2042,M,2.161,N,4.005,K,D*23
$GPVTG,134.8131,T,134.8131,M,2.111,N,3.911,K,D*2F
$RDENS,8809,5647654,PC
$GPGGA,154118.20,4612.5351846,N,00605.1081718,E,4,08,0.9,367.756,M,49.520,M,0.51,0195*75
$GPVTG,133.1873,T,133.1873,M,2.025,N,3.752,K,D*20
$GPGGA,154118.40,4612.5351069,N,00605.1082900,E,4,08,0.9,367.743,M,49.520,M,0.12,0195*71
$GPVTG,134.3062,T,134.3062,M,2.095,N,3.882,K,D*29
$GPGGA,154118.80,4612.5349468,N,00605.1085333,E,4,08,0.9,367.744,M,49.520,M,0.28,0195*72
$GPVTG,132.0905,T,132.0905,M,2.074,N,3.843,K,D*2B
$RDENS,8810,5647743,PC
$GPGGA,154119.00,4612.5348689,N,00605.1086552,E,4,08,0.9,367.751,M,49.520,M,0.48,0195*77
$GPVTG,131.7131,T,131.7131,M,2.049,N,3.798,K,D*2C
$GPGGA,154119.40,4612.5347198,N,00605.1088982,E,4,08,0.9,367.775,M,49.520,M,0.88,0195*7E
$GPVTG,131.2206,T,131.2206,M,2.033,N,3.767,K,D*21
$GPGGA,154119.60,4612.5346443,N,00605.1090213,E,4,08,0.9,367.774,M,49.520,M,0.08,0195*7D
$GPVTG,128.3436,T,128.3436,M,2.004,N,3.715,K,D*20
$RDENS,8811,5647833,PC
$GPGGA,154120.00,4612.5345035,N,00605.1092727,E,4,08,0.9,367.779,M,49.520,M,0.32,0195*73
$GPVTG,129.4084,T,129.4084,M,2.002,N,3.711,K,D*22
$GPGGA,154120.20,4612.5344380,N,00605.1093966,E,4,08,0.9,367.769,M,49.520,M,0.52,0195*70
$GPVTG,127.6406,T,127.6406,M,2.015,N,3.734,K,D*23
$GPGGA,154120.60,4612.5343024,N,00605.1096523,E,4,08,0.9,367.773,M,49.520,M,0.92,0195*71
$GPVTG,126.8426,T,126.8426,M,1.954,N,3.622,K,D*2A
$RDENS,8812,5647922,PC
$GPGGA,154120.80,4612.5342384,N,00605.1097794,E,4,08,0.9,367.769,M,49.520,M,1.12,0195*7A
$GPVTG,126.7420,T,126.7420,M,1.994,N,3.694,K,D*2B
$GPGGA,154121.20,4612.5341091,N,00605.1100384,E,4,08,0.9,367.766,M,49.520,M,1.52,0195*74
$GPVTG,124.1810,T,124.1810,M,1.974,N,3.658,K,D*25
$GPGGA,154121.40,4612.5340477,N,00605.1101696,E,4,08,0.9,367.762,M,49.520,M,1.72,0195*7E
$GPVTG,124.8812,T,124.8812,M,1.988,N,3.685,K,D*26
$RDENS,8813,5648011,PC
$GPGGA,154121.80,4612.5339234,N,00605.1104299,E,4,08,0.9,367.771,M,49.520,M,2.12,0195*74
$GPVTG,124.4251,T,124.4251,M,1.972,N,3.654,K,D*2F
$GPGGA,154122.00,4612.5338630,N,00605.1105614,E,4,08,0.9,367.766,M,49.520,M,2.32,0195*7A
$GPVTG,123.8275,T,123.8275,M,2.005,N,3.715,K,D*21
$GPGGA,154122.40,4612.5337430,N,00605.1108267,E,4,08,0.9,367.756,M,49.520,M,0.22,0195*7E
$GPVTG,122.4669,T,122.4669,M,1.965,N,3.642,K,D*2E
$RDENS,8814,5648100,PC
$GPGGA,154122.60,4612.5336841,N,00605.1109587,E,4,08,0.9,367.754,M,49.520,M,0.01,0195*7C
$GPVTG,123.2183,T,123.2183,M,1.977,N,3.663,K,D*2E
$GPGGA,154122.80,4612.5336227,N,00605.1110920,E,4,08,0.9,367.757,M,49.520,M,0.15,0195*77
$GPVTG,121.9084,T,121.9084,M,1.970,N,3.652,K,D*2B
$GPGGA,154123.20,4612.5335065,N,00605.1113580,E,4,08,0.9,367.758,M,49.520,M,0.25,0195*72
$GPVTG,122.9041,T,122.9041,M,1.926,N,3.569,K,D*23
$RDENS,8815,5648189,PC
$GPGGA,154123.40,4612.5334482,N,00605.1114914,E,4,08,0.9,367.767,M,49.520,M,0.45,0195*74
$GPVTG,120.4534,T,120.4534,M,1.963,N,3.638,K,D*25
$GPGGA,154123.80,4612.5333352,N,00605.1117599,E,4,08,0.9,367.765,M,49.520,M,0.85,0195*71
$GPVTG,122.7107,T,122.7107,M,1.965,N,3.641,K,D*2D
$GPGGA,154124.00,4612.5332785,N,00605.1118930,E,4,08,0.9,367.763,M,49.520,M,1.05,0195*7E
$GPVTG,121.4389,T,121.4389,M,1.948,N,3.611,K,D*27
$RDENS,8816,5648277,PC
$GPGGA,154124.40,4612.5331677,N,00605.1121618,E,4,08,0.9,367.758,M,49.520,M,1.45,0195*76
$GPVTG,120.7324,T,120.7324,M,1.960,N,3.633,K,D*2D
$GPGGA,154124.60,4612.5331126,N,00605.1122960,E,4,08,0.9,367.764,M,49.520,M,0.09,0195*72
$GPVTG,120.4057,T,120.4057,M,1.976,N,3.663,K,D*2F
$GPGGA,154125.00,4612.5330023,N,00605.1125680,E,4,08,0.9,367.760,M,49.520,M,0.31,0195*79
$GPVTG,120.8347,T,120.8347,M,1.948,N,3.611,K,D*27
$RDENS,8817,5648366,PC
$GPGGA,154125.20,4612.5329518,N,00605.1127008,E,4,08,0.9,367.752,M,49.520,M,0.05,0195*7C
$GPVTG,119.0921,T,119.0921,M,1.974,N,3.658,K,D*25
$GPGGA,154125.60,4612.5328418,N,00605.1129724,E,4,08,0.9,367.760,M,49.520,M,0.06,0195*7D
$GPVTG,120.9216,T,120.9216,M,1.945,N,3.605,K,D*2F
$GPGGA,154125.80,4612.5327890,N,00605.1131075,E,4,08,0.9,367.757,M,49.520,M,0.26,0195*7C
$GPVTG,117.6412,T,117.6412,M,1.915,N,3.548,K,D*20
$RDENS,8818,5648455,PC
$GPGGA,154126.20,4612.5326872,N,00605.1133780,E,4,08,0.9,367.755,M,49.520,M,0.66,0195*71
$GPVTG,118.9433,T,118.9433,M,1.924,N,3.566,K,D*2E
$GPGGA,154126.40,4612.5326328,N,00605.1135121,E,4,08,0.9,367.751,M,49.520,M,0.08,0195*74
$GPVTG,117.6837,T,117.6837,M,1.934,N,3.585,K,D*22
$GPGGA,154126.80,4612.5325336,N,00605.1137820,E,4,08,0.9,367.755,M,49.520,M,0.32,0195*73
$GPVTG,117.7851,T,117.7851,M,1.901,N,3.523,K,D*28
$RDENS,8819,5648544,PC
$GPGGA,154127.00,4612.5324819,N,00605.1139174,E,4,08,0.9,367.752,M,49.520,M,0.52,0195*7A
$GPVTG,120.5723,T,120.5723,M,1.949,N,3.613,K,D*24
$GPGGA,154127.20,4612.5324262,N,00605.1140519,E,4,08,0.9,367.760,M,49.520,M,0.72,0195*7C
$GPVTG,118.5475,T,118.5475,M,1.916,N,3.551,K,D*2B
$GPGGA,154127.60,4612.5323241,N,00605.1143218,E,4,08,0.9,367.777,M,49.520,M,0.15,0195*7C
$GPVTG,118.2485,T,118.2485,M,1.905,N,3.531,K,D*2F
$RDENS,8820,5648633,PC
$GPGGA,154127.80,4612.5322754,N,00605.1144573,E,4,08,0.9,367.764,M,49.520,M,0.35,0195*7F
$GPVTG,117.4430,T,117.4430,M,1.911,N,3.541,K,D*2D
$GPGGA,154128.20,4612.5321767,N,00605.1147291,E,4,08,0.9,367.769,M,49.520,M,0.75,0195*78
$GPVTG,118.0866,T,118.0866,M,1.920,N,3.559,K,D*26
$GPGGA,154128.40,4612.5321274,N,00605.1148633,E,4,08,0.9,367.767,M,49.520,M,0.95,0195*7A
$GPVTG,117.7882,T,117.7882,M,1.885,N,3.493,K,D*2F
$RDENS,8821,5648722,PC
$GPGGA,154128.80,4612.5320294,N,00605.1151325,E,4,08,0.9,367.772,M,49.520,M,1.35,0195*7C
$GPVTG,117.8470,T,117.8470,M,1.914,N,3.547,K,D*2E
$GPGGA,154129.00,4612.5319833,N,00605.1152700,E,4,08,0.9,367.768,M,49.520,M,1.55,0195*75
$GPVTG,118.6768,T,118.6768,M,1.924,N,3.565,K,D*2D
$GPGGA,154129.40,4612.5318853,N,00605.1155418,E,4,08,0.9,367.775,M,49.520,M,1.95,0195*7B
$GPVTG,116.2519,T,116.2519,M,1.899,N,3.519,K,D*21
$GPGGA,154129.60,4612.5318398,N,00605.1156801,E,4,08,0.9,367.767,M,49.520,M,2.15,0195*7A
$RDENS,8822,5648811,PC
$GPVTG,117.1654,T,117.1654,M,1.927,N,3.571,K,D*2B
$GPGGA,154130.00,4612.5317487,N,00605.1159559,E,4,08,0.9,367.768,M,49.520,M,0.15,0195*70
$GPVTG,114.7044,T,114.7044,M,1.902,N,3.524,K,D*2C
$GPGGA,154130.20,4612.5317024,N,00605.1160929,E,4,08,0.9,367.764,M,49.520,M,0.35,0195*70
$GPVTG,115.9983,T,115.9983,M,1.911,N,3.541,K,D*2D
$GPGGA,154130.60,4612.5316123,N,00605.1163720,E,4,08,0.9,367.775,M,49.520,M,0.05,0195*74
$RDENS,8823,5648900,PC
$GPVTG,114.3094,T,114.3094,M,1.897,N,3.516,K,D*20
$GPGGA,154130.80,4612.5315695,N,00605.1165102,E,4,08,0.9,367.772,M,49.520,M,0.25,0195*76
$GPVTG,114.2328,T,114.2328,M,1.915,N,3.550,K,D*29
$GPGGA,154131.20,4612.5314869,N,00605.1167909,E,4,09,0.9,367.769,M,49.520,M,0.65,0195*7F
$GPVTG,112.2531,T,112.2531,M,1.917,N,3.552,K,D*29
$GPGGA,154131.40,4612.5314428,N,00605.1169324,E,4,09,0.9,367.771,M,49.520,M,0.85,0195*7C
$RDENS,8824,5648989,PC
$GPVTG,113.0765,T,113.0765,M,1.902,N,3.525,K,D*2D
$GPGGA,154131.80,4612.5313606,N,00605.1172153,E,4,09,0.9,367.759,M,49.520,M,1.25,0195*70
$GPVTG,111.7381,T,111.7381,M,1.915,N,3.548,K,D*20
$GPGGA,154132.00,4612.5313176,N,00605.1173599,E,4,09,0.9,367.760,M,49.520,M,0.08,0195*7C
$GPVTG,112.2683,T,112.2683,M,1.911,N,3.542,K,D*2E
$GPGGA,154132.20,4612.5312768,N,00605.1175035,E,4,09,0.9,367.768,M,49.520,M,0.12,0195*70
$RDENS,8825,5649078,PC
$GPVTG,110.5526,T,110.5526,M,1.950,N,3.613,K,D*2C
$GPGGA,154132.60,4612.5311988,N,00605.1177902,E,4,09,0.9,367.754,M,49.520,M,0.52,0195*73
$GPVTG,111.8485,T,111.8485,M,1.929,N,3.576,K,D*22
$GPGGA,154132.80,4612.5311585,N,00605.1179363,E,4,09,0.9,367.743,M,49.520,M,0.72,0195*7B
$GPVTG,111.4738,T,111.4738,M,1.985,N,3.679,K,D*28
$GPGGA,154133.20,4612.5310762,N,00605.1182292,E,4,09,0.9,367.752,M,49.520,M,1.12,0195*76
$RDENS,8826,5649167,PC
$GPVTG,112.0339,T,112.0339,M,1.942,N,3.599,K,D*2E
$GPGGA,154133.40,4612.5310363,N,00605.1183766,E,4,09,0.9,367.748,M,49.520,M,1.32,0195*73
$GPVTG,112.7904,T,112.7904,M,2.013,N,3.731,K,D*20
$GPGGA,154133.80,4612.5309532,N,00605.1186719,E,4,09,0.9,367.766,M,49.520,M,0.15,0195*70
$GPVTG,111.3958,T,111.3958,M,1.988,N,3.684,K,D*27
$GPGGA,154134.00,4612.5309104,N,00605.1188185,E,4,09,0.9,367.766,M,49.520,M,0.35,0195*71
$RDENS,8827,5649256,PC
$GPVTG,112.5909,T,112.5909,M,1.996,N,3.698,K,D*25
$GPGGA,154134.40,4612.5308243,N,00605.1191132,E,4,09,0.9,367.766,M,49.520,M,0.05,0195*73
$GPVTG,113.2006,T,113.2006,M,2.003,N,3.712,K,D*20
$GPGGA,154134.60,4612.5307818,N,00605.1192621,E,4,09,0.9,367.766,M,49.520,M,0.14,0195*7C
$GPVTG,114.1548,T,114.1548,M,2.072,N,3.839,K,D*20
$GPGGA,154135.00,4612.5306894,N,00605.1195633,E,4,09,0.9,367.763,M,49.520,M,0.24,0195*7C
$RDENS,8828,5649345,PC
$GPVTG,114.9502,T,114.9502,M,2.080,N,3.854,K,D*26
$GPGGA,154135.20,4612.5306425,N,00605.1197112,E,4,09,0.9,367.761,M,49.520,M,0.44,0195*7A
$GPVTG,114.5453,T,114.5453,M,2.030,N,3.762,K,D*27
$GPGGA,154135.60,4612.5305471,N,00605.1200101,E,4,09,0.9,367.762,M,49.520,M,0.84,0195*7C
$GPVTG,114.8330,T,114.8330,M,2.092,N,3.876,K,D*25
$GPGGA,154135.80,4612.5304962,N,00605.1201600,E,4,09,0.9,367.753,M,49.520,M,1.04,0195*70
$RDENS,8829,5649434,PC
$GPVTG,116.5542,T,116.5542,M,2.054,N,3.807,K,D*29
$GPGGA,154136.20,4612.5303917,N,00605.1204556,E,4,09,0.9,367.757,M,49.520,M,1.44,0195*79
$GPVTG,116.7525,T,116.7525,M,2.082,N,3.858,K,D*28
$GPGGA,154136.40,4612.5303402,N,00605.1206018,E,4,09,0.9,367.756,M,49.520,M,1.64,0195*78
$GPVTG,118.3062,T,118.3062,M,2.078,N,3.851,K,D*24
$GPGGA,154136.60,4612.5302845,N,00605.1207483,E,4,09,0.9,367.749,M,49.520,M,1.84,0195*73
$RDENS,8830,5649523,PC
$GPVTG,117.4862,T,117.4862,M,2.052,N,3.803,K,D*2B
$GPGGA,154137.00,4612.5301777,N,00605.1210420,E,4,09,0.9,367.751,M,49.520,M,0.15,0195*76
$GPVTG,118.0881,T,118.0881,M,2.085,N,3.865,K,D*21
$GPGGA,154137.20,4612.5301200,N,00605.1211854,E,4,09,0.9,367.767,M,49.520,M,0.17,0195*78
$GPVTG,118.2786,T,118.2786,M,2.079,N,3.853,K,D*27
$GPGGA,154137.60,4612.5300058,N,00605.1214766,E,4,09,0.9,367.764,M,49.520,M,0.23,0195*7D
$RDENS,8831,5649612,PC
$GPVTG,119.5964,T,119.5964,M,2.091,N,3.875,K,D*25
$GPGGA,154137.80,4612.5299459,N,00605.1216222,E,4,09,0.9,367.760,M,49.520,M,0.02,0195*77
$GPVTG,119.6124,T,119.6124,M,2.081,N,3.857,K,D*24
$GPGGA,154138.20,4612.5298281,N,00605.1219062,E,4,09,0.9,367.762,M,49.520,M,0.42,0195*7F
$GPVTG,120.7321,T,120.7321,M,2.067,N,3.830,K,D*2D
$GPGGA,154138.40,4612.5297700,N,00605.1220498,E,4,09,0.9,367.763,M,49.520,M,0.08,0195*7E
$RDENS,8832,5649701,PC
$GPVTG,121.1595,T,121.1595,M,2.097,N,3.886,K,D*2F
$GPGGA,154138.80,4612.5296518,N,00605.1223333,E,4,09,0.9,367.772,M,49.520,M,0.32,0195*74
$GPVTG,120.3528,T,120.3528,M,2.066,N,3.829,K,D*24
$GPGGA,154139.00,4612.5295892,N,00605.1224748,E,4,09,0.9,367.770,M,49.520,M,0.52,0195*7A
$GPVTG,121.0099,T,121.0099,M,2.089,N,3.872,K,D*2B
$GPGGA,154139.40,4612.5294668,N,00605.1227585,E,4,09,0.9,367.769,M,49.520,M,0.92,0195*70
$GPVTG,121.8723,T,121.8723,M,2.060,N,3.817,K,D*2F
$RDENS,8833,5649790,PC
$GPGGA,154139.60,4612.5294068,N,00605.1229022,E,4,09,0.9,367.767,M,49.520,M,1.12,0195*75
$GPVTG,122.0038,T,122.0038,M,2.104,N,3.898,K,D*2B
$GPGGA,154140.00,4612.5292876,N,00605.1231883,E,4,09,0.9,367.766,M,49.520,M,1.52,0195*73
$GPVTG,119.7832,T,119.7832,M,2.066,N,3.829,K,D*24
$GPVTG,120.4344,T,120.4344,M,2.109,N,3.909,K,D*2F
$RDENS,8834,5649879,PC
$GPGGA,154140.40,4612.5291684,N,00605.1234754,E,4,09,0.9,367.761,M,49.520,M,1.92,0195*7C
$GPVTG,120.4794,T,120.4794,M,2.025,N,3.753,K,D*21
$GPGGA,154140.60,4612.5291140,N,00605.1236171,E,4,09,0.9,367.769,M,49.520,M,0.10,0195*71
$GPVTG,121.3638,T,121.3638,M,2.111,N,3.912,K,D*2C
$GPGGA,154141.00,4612.5289971,N,00605.1239070,E,4,09,0.9,367.771,M,49.520,M,0.50,0195*77
$GPVTG,119.5094,T,119.5094,M,2.074,N,3.843,K,D*2B
$RDENS,8835,5649968,PC
$GPGGA,154141.20,4612.5289367,N,00605.1240503,E,4,09,0.9,367.769,M,49.520,M,0.05,0195*7E
$GPVTG,120.7578,T,120.7578,M,2.097,N,3.886,K,D*2F
$GPGGA,154141.60,4612.5288209,N,00605.1243396,E,4,09,0.9,367.766,M,49.520,M,0.45,0195*70
$GPVTG,119.6572,T,119.6572,M,2.098,N,3.889,K,D*2F
$GPGGA,154141.80,4612.5287629,N,00605.1244842,E,4,09,0.9,367.764,M,49.520,M,0.65,0195*72
$GPVTG,119.8387,T,119.8387,M,2.100,N,3.892,K,D*25
$RDENS,8836,5650057,PC
$GPGGA,154142.20,4612.5286495,N,00605.1247733,E,4,09,0.9,367.765,M,49.520,M,1.05,0195*73
$GPVTG,118.9186,T,118.9186,M,2.051,N,3.801,K,D*2A
$GPGGA,154142.40,4612.5285934,N,00605.1249180,E,4,09,0.9,367.767,M,49.520,M,1.25,0195*70
$GPVTG,119.1046,T,119.1046,M,2.086,N,3.866,K,D*21
$GPGGA,154142.80,4612.5284791,N,00605.1252105,E,4,09,0.9,367.767,M,49.520,M,1.65,0195*7F
$GPVTG,119.8462,T,119.8462,M,2.137,N,3.960,K,D*2D
$RDENS,8837,5650146,PC
$GPGGA,154143.00,4612.5284243,N,00605.1253584,E,4,09,0.9,367.765,M,49.520,M,1.85,0195*7C
$GPVTG,118.2712,T,118.2712,M,2.092,N,3.878,K,D*2B
$GPGGA,154143.40,4612.5283156,N,00605.1256535,E,4,09,0.9,367.770,M,49.520,M,2.25,0195*7A
$GPVTG,117.6681,T,117.6681,M,2.109,N,3.908,K,D*2E
$GPGGA,154143.60,4612.5282595,N,00605.1258034,E,4,09,0.9,367.767,M,49.520,M,2.45,0195*78
$GPVTG,117.1710,T,117.1710,M,2.129,N,3.945,K,D*25
$RDENS,8838,5650235,PC
$GPGGA,154144.00,4612.5281535,N,00605.1261016,E,4,09,0.9,367.776,M,49.520,M,2.85,0195*76
$GPVTG,117.4511,T,117.4511,M,2.096,N,3.885,K,D*2D
$GPGGA,154144.20,4612.5280975,N,00605.1262520,E,4,09,0.9,367.781,M,49.520,M,3.05,0195*7F
$GPVTG,116.7334,T,116.7334,M,2.133,N,3.953,K,D*29
$GPGGA,154144.60,4612.5279923,N,00605.1265581,E,4,09,0.9,367.771,M,49.520,M,0.26,0195*7F
$GPVTG,115.8239,T,115.8239,M,2.115,N,3.920,K,D*29
$RDENS,8839,5650324,PC
$GPGGA,154144.80,4612.5279361,N,00605.1267105,E,4,09,0.9,367.777,M,49.520,M,0.14,0195*70
$GPVTG,116.0641,T,116.0641,M,2.136,N,3.958,K,D*27
$GPGGA,154145.00,4612.5278827,N,00605.1268614,E,4,09,0.9,367.779,M,49.520,M,0.34,0195*75
$GPVTG,117.3983,T,117.3983,M,2.183,N,4.046,K,D*28
$GPGGA,154145.40,4612.5277692,N,00605.1271685,E,4,09,0.9,367.774,M,49.520,M,0.15,0195*70
$GPVTG,118.0058,T,118.0058,M,2.148,N,3.981,K,D*2A
$RDENS,8840,5650413,PC
$GPGGA,154145.60,4612.5277137,N,00605.1273201,E,4,09,0.9,367.782,M,49.520,M,0.35,0195*7B
$GPVTG,117.7821,T,117.7821,M,2.167,N,4.017,K,D*26
$GPGGA,154146.00,4612.5276001,N,00605.1276250,E,4,09,0.9,367.784,M,49.520,M,0.15,0195*7E
$GPVTG,119.3116,T,119.3116,M,2.163,N,4.008,K,D*2C
$GPGGA,154146.20,4612.5275404,N,00605.1277796,E,4,09,0.9,367.776,M,49.520,M,0.35,0195*7F
$GPVTG,119.2694,T,119.2694,M,2.192,N,4.063,K,D*2F
$GPGGA,154146.60,4612.5274203,N,00605.1280869,E,4,09,0.9,367.768,M,49.520,M,0.00,0195*75
$RDENS,8841,5650502,PC
$GPVTG,119.5576,T,119.5576,M,2.195,N,4.069,K,D*22
$GPGGA,154146.80,4612.5273587,N,00605.1282401,E,4,09,0.9,367.768,M,49.520,M,0.20,0195*75
$GPVTG,121.6993,T,121.6993,M,2.242,N,4.154,K,D*24
$GPGGA,154147.20,4612.5272281,N,00605.1285461,E,4,09,0.9,367.761,M,49.520,M,0.60,0195*72
$GPVTG,122.4501,T,122.4501,M,2.242,N,4.156,K,D*26
$GPGGA,154147.40,4612.5271631,N,00605.1286989,E,4,09,0.9,367.762,M,49.520,M,0.80,0195*7D
$RDENS,8842,5650591,PC
$GPVTG,122.5272,T,122.5272,M,2.257,N,4.183,K,D*2A
$GPGGA,154147.80,4612.5270250,N,00605.1289979,E,4,09,0.9,367.766,M,49.520,M,1.20,0195*7C
$GPVTG,124.1544,T,124.1544,M,2.249,N,4.168,K,D*20
$GPGGA,154148.00,4612.5269539,N,00605.1291471,E,4,09,0.9,367.765,M,49.520,M,1.40,0195*72
$GPVTG,125.1293,T,125.1293,M,2.256,N,4.181,K,D*29
$GPGGA,154148.40,4612.5268112,N,00605.1294456,E,4,09,0.9,367.756,M,49.520,M,1.80,0195*76
$RDENS,8843,5650680,PC
$GPVTG,124.4213,T,124.4213,M,2.275,N,4.216,K,D*25
$GPGGA,154148.60,4612.5267387,N,00605.1295907,E,4,09,0.9,367.756,M,49.520,M,0.09,0195*7D
$GPVTG,125.7230,T,125.7230,M,2.294,N,4.252,K,D*2A
$GPGGA,154149.00,4612.5265900,N,00605.1298872,E,4,09,0.9,367.753,M,49.520,M,0.31,0195*7D
$GPVTG,125.6309,T,125.6309,M,2.277,N,4.220,K,D*22
$GPGGA,154149.20,4612.5265143,N,00605.1300415,E,4,09,0.9,367.759,M,49.520,M,0.51,0195*71
$RDENS,8844,5650769,PC
$GPVTG,127.1734,T,127.1734,M,2.328,N,4.314,K,D*2F
$GPGGA,154149.40,4612.5264366,N,00605.1301899,E,4,09,0.9,367.767,M,49.520,M,0.06,0195*75
$GPVTG,126.3086,T,126.3086,M,2.333,N,4.324,K,D*26
$GPGGA,154149.80,4612.5262815,N,00605.1304911,E,4,09,0.9,367.774,M,49.520,M,0.34,0195*77
$GPVTG,127.9703,T,127.9703,M,2.386,N,4.421,K,D*2A
$GPGGA,154150.00,4612.5262032,N,00605.1306417,E,4,09,0.9,367.772,M,49.520,M,0.54,0195*73
$RDENS,8845,5650858,PC
$GPVTG,127.3689,T,127.3689,M,2.386,N,4.422,K,D*29
$GPGGA,154150.40,4612.5260375,N,00605.1309457,E,4,09,0.9,367.764,M,49.520,M,0.94,0195*75
$GPVTG,127.7241,T,127.7241,M,2.395,N,4.438,K,D*20
$GPGGA,154150.60,4612.5259534,N,00605.1310951,E,4,09,0.9,367.752,M,49.520,M,1.14,0195*71
$GPVTG,128.0691,T,128.0691,M,2.408,N,4.463,K,D*2D
$GPGGA,154151.00,4612.5257822,N,00605.1313992,E,4,09,0.9,367.763,M,49.520,M,0.04,0195*7C
$RDENS,8846,5650947,PC
$GPVTG,128.9773,T,128.9773,M,2.446,N,4.533,K,D*23
$GPGGA,154151.20,4612.5256934,N,00605.1315493,E,4,09,0.9,367.780,M,49.520,M,0.16,0195*7D
$GPVTG,132.2721,T,132.2721,M,2.462,N,4.562,K,D*21
$GPGGA,154151.60,4612.5255171,N,00605.1318464,E,4,09,0.9,367.773,M,49.520,M,0.56,0195*7E
$GPVTG,131.2604,T,131.2604,M,2.467,N,4.573,K,D*24
$GPGGA,154151.80,4612.5254259,N,00605.1319951,E,4,09,0.9,367.770,M,49.520,M,0.76,0195*73
$RDENS,8847,5651036,PC
$GPVTG,131.9349,T,131.9349,M,2.461,N,4.560,K,D*20
$GPGGA,154152.20,4612.5252399,N,00605.1322912,E,4,09,0.9,367.757,M,49.519,M,1.16,0195*76
$GPVTG,131.9413,T,131.9413,M,2.533,N,4.694,K,D*2E
$GPGGA,154152.40,4612.5251458,N,00605.1324378,E,4,09,0.9,367.755,M,49.519,M,1.36,0195*79
$GPVTG,134.2757,T,134.2757,M,2.514,N,4.659,K,D*2A
$GPGGA,154152.80,4612.5249509,N,00605.1327263,E,4,09,0.9,367.748,M,49.519,M,1.76,0195*79
$RDENS,8848,5651125,PC
$GPVTG,134.1444,T,134.1444,M,2.514,N,4.660,K,D*20
$GPGGA,154153.00,4612.5248522,N,00605.1328705,E,4,09,0.9,367.745,M,49.519,M,1.96,0195*71
$GPVTG,135.7359,T,135.7359,M,2.538,N,4.703,K,D*2A
$GPGGA,154153.40,4612.5246466,N,00605.1331518,E,4,09,0.9,367.749,M,49.519,M,2.36,0195*79
$GPVTG,137.0007,T,137.0007,M,2.532,N,4.693,K,D*28
$GPGGA,154153.60,4612.5245446,N,00605.1332948,E,4,09,0.9,367.748,M,49.519,M,2.56,0195*77
$RDENS,8849,5651214,PC
$GPVTG,137.5971,T,137.5971,M,2.536,N,4.699,K,D*26
$GPGGA,154154.00,4612.5243337,N,00605.1335706,E,4,09,0.9,367.755,M,49.519,M,2.96,0195*72
$GPVTG,137.5394,T,137.5394,M,2.580,N,4.782,K,D*20
$GPGGA,154154.20,4612.5242241,N,00605.1337108,E,4,09,0.9,367.759,M,49.519,M,3.16,0195*7E
$GPVTG,137.8863,T,137.8863,M,2.605,N,4.828,K,D*21
$GPGGA,154154.40,4612.5241170,N,00605.1338502,E,4,09,0.9,367.752,M,49.519,M,3.36,0195*72
$RDENS,8850,5651302,PC
$GPVTG,139.4845,T,139.4845,M,2.588,N,4.796,K,D*2D
$GPGGA,154154.80,4612.5238975,N,00605.1341176,E,4,09,0.9,367.769,M,49.519,M,3.76,0195*78
$GPVTG,140.0707,T,140.0707,M,2.597,N,4.814,K,D*26
$GPGGA,154155.00,4612.5237829,N,00605.1342495,E,4,09,0.9,367.772,M,49.519,M,3.96,0195*79
$GPVTG,140.3882,T,140.3882,M,2.592,N,4.803,K,D*25
$GPGGA,154155.40,4612.5235599,N,00605.1345095,E,4,09,0.9,367.772,M,49.519,M,4.36,0195*77
$RDENS,8851,5651390,PC
$GPVTG,141.3440,T,141.3440,M,2.574,N,4.771,K,D*27
$GPGGA,154155.60,4612.5234460,N,00605.1346406,E,4,09,0.9,367.773,M,49.519,M,4.56,0195*79
$GPVTG,141.9323,T,141.9323,M,2.608,N,4.833,K,D*26
$GPGGA,154156.00,4612.5232167,N,00605.1348989,E,4,09,0.9,367.773,M,49.519,M,4.96,0195*70
$GPVTG,141.8756,T,141.8756,M,2.620,N,4.855,K,D*2C
$GPGGA,154156.20,4612.5231029,N,00605.1350271,E,4,09,0.9,367.768,M,49.519,M,5.16,0195*7C
$RDENS,8852,5651478,PC
$GPVTG,142.5365,T,142.5365,M,2.586,N,4.793,K,D*26
$GPGGA,154156.60,4612.5228706,N,00605.1352810,E,4,09,0.9,367.760,M,49.519,M,5.56,0195*79
$GPVTG,143.0791,T,143.0791,M,2.641,N,4.894,K,D*26
$GPGGA,154156.80,4612.5227551,N,00605.1354087,E,4,09,0.9,367.758,M,49.519,M,5.76,0195*71
$GPVTG,143.2282,T,143.2282,M,2.605,N,4.827,K,D*2E
$GPGGA,154157.20,4612.5225216,N,00605.1356591,E,4,09,0.9,367.758,M,49.519,M,6.16,0195*79
$RDENS,8853,5651566,PC
$GPVTG,142.9481,T,142.9481,M,2.627,N,4.869,K,D*24
$GPGGA,154157.40,4612.5224025,N,00605.1357796,E,4,09,0.9,367.768,M,49.519,M,6.36,0195*79
$GPVTG,143.4336,T,143.4336,M,2.615,N,4.847,K,D*29
$GPGGA,154157.80,4612.5221708,N,00605.1360282,E,4,09,0.9,367.765,M,49.519,M,6.76,0195*75
$GPVTG,143.2849,T,143.2849,M,2.558,N,4.741,K,D*2A
$GPGGA,154158.00,4612.5220557,N,00605.1361525,E,4,09,0.9,367.760,M,49.519,M,6.96,0195*7B
$RDENS,8854,5651654,PC
$GPVTG,144.1353,T,144.1353,M,2.646,N,4.904,K,D*29
$GPGGA,154158.40,4612.5218179,N,00605.1364040,E,4,09,0.9,367.754,M,49.519,M,7.36,0195*73
$GPVTG,143.5661,T,143.5661,M,2.607,N,4.832,K,D*28
$GPGGA,154158.60,4612.5216982,N,00605.1365250,E,4,09,0.9,367.754,M,49.519,M,7.56,0195*77
$GPVTG,143.7529,T,143.7529,M,2.625,N,4.865,K,D*2A
$GPGGA,154159.00,4612.5214615,N,00605.1367738,E,4,09,0.9,367.763,M,49.519,M,7.96,0195*72
$RDENS,8855,5651742,PC
$GPVTG,143.8580,T,143.8580,M,2.659,N,4.928,K,D*29
$GPGGA,154159.20,4612.5213439,N,00605.1368978,E,4,09,0.9,367.767,M,49.519,M,8.16,0195*7D
$GPVTG,144.0718,T,144.0718,M,2.597,N,4.813,K,D*21
$GPGGA,154159.40,4612.5212248,N,00605.1370219,E,4,09,0.9,367.768,M,49.519,M,8.36,0195*72
$GPVTG,143.5705,T,143.5705,M,2.615,N,4.847,K,D*29
$GPGGA,154159.80,4612.5209893,N,00605.1372730,E,4,09,0.9,367.763,M,49.519,M,8.76,0195*7B
$RDENS,8856,5651830,PC
$GPVTG,143.5794,T,143.5794,M,2.640,N,4.894,K,D*27
$GPGGA,154200.00,4612.5208689,N,00605.1373987,E,4,09,0.9,367.760,M,49.519,M,8.96,0195*76
$GPVTG,143.8382,T,143.8382,M,2.658,N,4.925,K,D*25
$GPGGA,154200.40,4612.5206302,N,00605.1376501,E,4,09,0.9,367.761,M,49.519,M,9.36,0195*77
$GPVTG,143.7537,T,143.7537,M,2.679,N,4.965,K,D*22
$GPGGA,154200.60,4612.5205112,N,00605.1377753,E,4,09,0.9,367.760,M,49.519,M,9.56,0195*76
$RDENS,8857,5651918,PC
$GPVTG,143.5061,T,143.5061,M,2.650,N,4.911,K,D*2A
$GPGGA,154201.00,4612.5202729,N,00605.1380281,E,4,09,0.9,367.765,M,49.519,M,9.96,0195*73
$GPVTG,143.9673,T,143.9673,M,2.661,N,4.931,K,D*2A
$GPGGA,154201.20,4612.5201526,N,00605.1381536,E,4,09,0.9,367.764,M,49.519,M,10.16,0195*44
$GPVTG,143.2727,T,143.2727,M,2.655,N,4.920,K,D*2D
$GPGGA,154201.60,4612.5199163,N,00605.1384087,E,4,09,0.9,367.765,M,49.519,M,10.56,0195*48
$RDENS,8858,5652006,PC
$GPVTG,143.2709,T,143.2709,M,2.640,N,4.893,K,D*20
$GPGGA,154201.80,4612.5197959,N,00605.1385343,E,4,09,0.9,367.771,M,49.519,M,10.76,0195*44
$GPVTG,142.7726,T,142.7726,M,2.694,N,4.993,K,D*28
$GPGGA,154202.20,4612.5195582,N,00605.1387900,E,4,09,0.9,367.765,M,49.519,M,11.16,0195*48
$GPVTG,143.3312,T,143.3312,M,2.640,N,4.893,K,D*20
$GPVTG,143.0737,T,143.0737,M,2.663,N,4.935,K,D*2C
$RDENS,8859,5652094,PC
$GPGGA,154202.60,4612.5193185,N,00605.1390465,E,4,09,0.9,367.766,M,49.519,M,11.56,0195*46
$GPVTG,143.5553,T,143.5553,M,2.678,N,4.963,K,D*25
$GPGGA,154203.00,4612.5190785,N,00605.1393055,E,4,09,0.9,367.769,M,49.519,M,11.96,0195*43
$GPVTG,142.9261,T,142.9261,M,2.691,N,4.986,K,D*29
$GPGGA,154203.20,4612.5189606,N,00605.1394324,E,4,09,0.9,367.774,M,49.519,M,12.16,0195*46
$GPVTG,143.1639,T,143.1639,M,2.657,N,4.923,K,D*2C
$RDENS,8860,5652182,PC
$GPGGA,154203.40,4612.5188423,N,00605.1395610,E,4,09,0.9,367.774,M,49.519,M,12.36,0195*45
$GPVTG,143.2334,T,143.2334,M,2.642,N,4.896,K,D*27
$GPGGA,154203.80,4612.5186030,N,00605.1398185,E,4,09,0.9,367.776,M,49.519,M,12.76,0195*41
$GPVTG,143.0591,T,143.0591,M,2.713,N,5.028,K,D*2E
$GPGGA,154204.00,4612.5184865,N,00605.1399487,E,4,09,0.9,367.777,M,49.519,M,12.96,0195*4D
$GPVTG,143.7681,T,143.7681,M,2.710,N,5.022,K,D*27
$RDENS,8861,5652270,PC
$GPGGA,154204.40,4612.5182472,N,00605.1402053,E,2,09,0.9,367.773,M,49.519,M,13.36,0195*44
$GPVTG,142.0364,T,142.0364,M,2.642,N,4.897,K,D*26
$GPGGA,154204.60,4612.5181281,N,00605.1403350,E,2,09,0.9,367.772,M,49.519,M,13.56,0195*49
$GPVTG,143.2649,T,143.2649,M,2.686,N,4.977,K,D*21
$GPGGA,154205.00,4612.5178922,N,00605.1405950,E,2,09,0.9,367.772,M,49.519,M,13.96,0195*4A
$GPVTG,142.4645,T,142.4645,M,2.648,N,4.906,K,D*25
$RDENS,8862,5652358,PC
$GPGGA,154205.20,4612.5177730,N,00605.1407206,E,2,09,0.9,367.778,M,49.519,M,14.16,0195*45
$GPVTG,142.3465,T,142.3465,M,2.656,N,4.922,K,D*2C
$GPGGA,154205.60,4612.5175381,N,00605.1409809,E,2,09,0.9,367.778,M,49.519,M,14.56,0195*42
$GPVTG,142.4212,T,142.4212,M,2.691,N,4.988,K,D*27
$GPGGA,154205.80,4612.5174192,N,00605.1411099,E,2,09,0.9,367.775,M,49.519,M,14.76,0195*4A
$GPVTG,142.3389,T,142.3389,M,2.670,N,4.947,K,D*2B
$RDENS,8863,5652446,PC
$GPGGA,154206.20,4612.5171834,N,00605.1413721,E,2,09,0.9,367.772,M,49.519,M,15.16,0195*45
$GPVTG,142.5546,T,142.5546,M,2.711,N,5.024,K,D*20
$GPGGA,154206.40,4612.5170648,N,00605.1415013,E,2,09,0.9,367.771,M,49.519,M,15.36,0195*46
$GPVTG,142.0360,T,142.0360,M,2.643,N,4.899,K,D*29
$GPGGA,154206.80,4612.5168305,N,00605.1417611,E,2,09,0.9,367.773,M,49.519,M,15.76,0195*4F
$GPVTG,142.8819,T,142.8819,M,2.665,N,4.939,K,D*26
$RDENS,8864,5652534,PC
$GPGGA,154207.00,4612.5167103,N,00605.1418929,E,2,09,0.9,367.774,M,49.519,M,15.96,0195*4F
$GPVTG,143.0179,T,143.0179,M,2.688,N,4.981,K,D*26
$GPGGA,154207.40,4612.5164742,N,00605.1421532,E,2,09,0.9,367.770,M,49.519,M,16.36,0195*4A
$GPVTG,141.7992,T,141.7992,M,2.665,N,4.939,K,D*26
$GPGGA,154207.60,4612.5163566,N,00605.1422822,E,2,09,0.9,367.774,M,49.519,M,16.56,0195*46
$GPVTG,142.2452,T,142.2452,M,2.666,N,4.940,K,D*2B
$RDENS,8865,5652622,PC
$GPGGA,154208.00,4612.5161205,N,00605.1425444,E,2,09,0.9,367.771,M,49.519,M,16.96,0195*4D
$GPVTG,142.4558,T,142.4558,M,2.700,N,5.003,K,D*25
$GPGGA,154208.20,4612.5160040,N,00605.1426760,E,2,09,0.9,367.769,M,49.519,M,17.16,0195*4B
$GPVTG,142.5745,T,142.5745,M,2.630,N,4.874,K,D*2E
$GPGGA,154208.60,4612.5157680,N,00605.1429358,E,2,09,0.9,367.779,M,49.519,M,17.56,0195*44
$RDENS,8866,5652710,PC
$GPVTG,142.3552,T,142.3552,M,2.672,N,4.951,K,D*2E
$GPGGA,154208.80,4612.5156505,N,00605.1430665,E,2,09,0.9,367.769,M,49.519,M,17.76,0195*45
$GPVTG,141.7743,T,141.7743,M,2.640,N,4.893,K,D*20
$GPGGA,154209.20,4612.5154169,N,00605.1433286,E,2,09,0.9,367.775,M,49.519,M,18.16,0195*4C
$GPVTG,142.2449,T,142.2449,M,2.660,N,4.930,K,D*2A
$GPGGA,154209.40,4612.5152989,N,00605.1434585,E,2,09,0.9,367.784,M,49.519,M,18.36,0195*45
$RDENS,8867,5652798,PC
$GPVTG,141.7536,T,141.7536,M,2.653,N,4.916,K,D*2E
$GPGGA,154209.80,4612.5150639,N,00605.1437201,E,2,09,0.9,367.774,M,49.519,M,18.76,0195*4C
$GPVTG,142.3295,T,142.3295,M,2.690,N,4.986,K,D*28
$GPGGA,154210.00,4612.5149506,N,00605.1438523,E,2,09,0.9,367.777,M,49.519,M,18.96,0195*4E
$GPVTG,142.0600,T,142.0600,M,2.654,N,4.919,K,D*26
$GPGGA,154210.40,4612.5147145,N,00605.1441132,E,2,09,0.9,367.774,M,49.519,M,19.36,0195*45
$RDENS,8868,5652886,PC
$GPVTG,143.0550,T,143.0550,M,2.630,N,4.875,K,D*2F
$GPGGA,154210.60,4612.5145988,N,00605.1442471,E,2,09,0.9,367.773,M,49.519,M,19.56,0195*4C
$GPVTG,142.0529,T,142.0529,M,2.637,N,4.887,K,D*25
$GPGGA,154210.80,4612.5144825,N,00605.1443770,E,2,09,0.9,367.769,M,49.519,M,19.76,0195*4F
$GPVTG,140.1683,T,140.1683,M,2.666,N,4.942,K,D*29
$GPGGA,154211.20,4612.5142553,N,00605.1446429,E,2,09,0.9,367.769,M,49.519,M,20.16,0195*48
$RDENS,8869,5652974,PC
$GPVTG,142.3043,T,142.3043,M,2.569,N,4.761,K,D*2A
$GPGGA,154211.40,4612.5141434,N,00605.1447713,E,2,09,0.9,367.773,M,49.519,M,20.36,0195*4F
$GPVTG,139.8157,T,139.8157,M,2.611,N,4.838,K,D*25
$GPGGA,154211.80,4612.5139269,N,00605.1450365,E,2,09,0.9,367.786,M,49.519,M,20.76,0195*4F
$GPVTG,139.9365,T,139.9365,M,2.567,N,4.758,K,D*2E
$GPGGA,154212.00,4612.5138156,N,00605.1451680,E,2,09,0.9,367.785,M,49.519,M,20.96,0195*48
$RDENS,8870,5653062,PC
$GPVTG,140.0710,T,140.0710,M,2.645,N,4.903,K,D*2D
$GPGGA,154212.40,4612.5135960,N,00605.1454355,E,2,09,0.9,367.784,M,49.519,M,21.36,0195*4E
$GPVTG,138.9897,T,138.9897,M,2.551,N,4.727,K,D*23
$GPGGA,154212.60,4612.5134902,N,00605.1455725,E,2,09,0.9,367.793,M,49.519,M,21.56,0195*4B
$GPVTG,139.5773,T,139.5773,M,2.640,N,4.892,K,D*21
$GPGGA,154213.00,4612.5132735,N,00605.1458453,E,2,09,0.9,367.796,M,49.519,M,21.96,0195*46
$RDENS,8871,5653150,PC
$GPVTG,137.6540,T,137.6540,M,2.523,N,4.675,K,D*20
$GPGGA,154213.20,4612.5131729,N,00605.1459809,E,2,09,0.9,367.801,M,49.519,M,22.16,0195*42
$GPVTG,137.4224,T,137.4224,M,2.558,N,4.741,K,D*2A
$GPGGA,154213.60,4612.5129649,N,00605.1462586,E,2,09,0.9,367.814,M,49.519,M,22.56,0195*4A
$GPVTG,137.1163,T,137.1163,M,2.538,N,4.703,K,D*2A
$GPGGA,154213.80,4612.5128626,N,00605.1463992,E,2,09,0.9,367.811,M,49.519,M,22.76,0195*43
$RDENS,8872,5653238,PC
$GPVTG,136.4682,T,136.4682,M,2.568,N,4.759,K,D*20
$GPGGA,154214.20,4612.5126617,N,00605.1466826,E,2,09,0.9,367.824,M,49.519,M,23.16,0195*48
$GPVTG,135.0596,T,135.0596,M,2.525,N,4.679,K,D*2A
$GPGGA,154214.40,4612.5125619,N,00605.1468264,E,2,09,0.9,367.818,M,49.519,M,23.36,0195*4C
$GPVTG,133.3007,T,133.3007,M,2.438,N,4.519,K,D*22
$GPGGA,154214.80,4612.5123691,N,00605.1471128,E,2,09,0.9,367.825,M,49.519,M,23.76,0195*4F
$RDENS,8873,5653326,PC
$GPVTG,135.1065,T,135.1065,M,2.546,N,4.718,K,D*29
$GPGGA,154215.00,4612.5122806,N,00605.1472574,E,2,09,0.9,367.853,M,49.519,M,0.02,0195*7A
$GPVTG,133.0645,T,133.0645,M,2.532,N,4.692,K,D*29
$GPGGA,154215.40,4612.5120711,N,00605.1475594,E,2,08,1.1,367.812,M,49.519,M,0.42,0195*75
$GPVTG,132.6678,T,132.6678,M,2.511,N,4.654,K,D*22
$GPGGA,154215.60,4612.5119779,N,00605.1477105,E,2,08,1.1,367.807,M,49.519,M,0.62,0195*7B
$RDENS,8874,5653414,PC
$GPVTG,132.2969,T,132.2969,M,2.560,N,4.744,K,D*24
$GPGGA,154216.00,4612.5117915,N,00605.1480082,E,4,08,1.1,367.792,M,49.519,M,0.01,0195*72
$GPVTG,131.4160,T,131.4160,M,2.408,N,4.462,K,D*2C
$GPGGA,154216.20,4612.5117024,N,00605.1481607,E,4,08,1.1,367.782,M,49.519,M,0.19,0195*79
$GPVTG,131.8640,T,131.8640,M,2.511,N,4.653,K,D*25
$GPGGA,154216.60,4612.5115247,N,00605.1484559,E,4,08,1.1,367.794,M,49.519,M,0.59,0195*76
$RDENS,8875,5653502,PC
$GPVTG,130.2049,T,130.2049,M,2.403,N,4.453,K,D*25
$GPGGA,154216.80,4612.5114375,N,00605.1486048,E,4,08,1.1,367.789,M,49.519,M,0.79,0195*70
$GPVTG,131.1686,T,131.1686,M,2.447,N,4.535,K,D*24
$GPGGA,154217.00,4612.5113520,N,00605.1487478,E,4,08,1.1,367.784,M,49.519,M,0.99,0195*7D
$GPVTG,129.3039,T,129.3039,M,2.328,N,4.315,K,D*2E
$GPGGA,154217.40,4612.5111921,N,00605.1490308,E,2,08,1.1,367.794,M,49.519,M,1.39,0195*7C
$RDENS,8876,5653590,PC
$GPVTG,129.3237,T,129.3237,M,2.239,N,4.150,K,D*2C
$GPGGA,154217.60,4612.5111068,N,00605.1491665,E,2,08,1.1,367.794,M,49.519,M,1.59,0195*73
$GPVTG,130.9015,T,130.9015,M,2.154,N,3.992,K,D*25
$GPGGA,154218.00,4612.5109483,N,00605.1494293,E,4,08,1.1,367.793,M,49.519,M,0.00,0195*76
$GPVTG,130.1619,T,130.1619,M,2.134,N,3.954,K,D*29
$GPGGA,154218.20,4612.5108699,N,00605.1495626,E,4,08,1.1,367.775,M,49.519,M,0.06,0195*79
$RDENS,8877,5653678,PC
$GPVTG,128.2543,T,128.2543,M,1.992,N,3.692,K,D*2B
$GPGGA,154218.60,4612.5107256,N,00605.1498105,E,4,08,1.1,367.771,M,49.519,M,0.46,0195*7E
$GPVTG,131.8913,T,131.8913,M,2.069,N,3.833,K,D*20
$GPGGA,154218.80,4612.5106505,N,00605.1499315,E,4,08,1.1,367.772,M,49.519,M,0.66,0195*73
$GPVTG,131.8786,T,131.8786,M,1.966,N,3.644,K,D*2B
$GPGGA,154219.20,4612.5105061,N,00605.1501597,E,4,13,0.9,367.755,M,49.519,M,1.06,0195*71
$RDENS,8878,5653766,PC
$GPVTG,131.9203,T,131.9203,M,1.887,N,3.498,K,D*26
$GPGGA,154219.40,4612.5104404,N,00605.1502709,E,4,13,0.9,367.762,M,49.519,M,1.26,0195*71
$GPVTG,132.2058,T,132.2058,M,1.886,N,3.495,K,D*2A
$GPGGA,154219.80,4612.5103039,N,00605.1504863,E,4,13,0.9,367.743,M,49.519,M,0.12,0195*70
$GPVTG,132.1314,T,132.1314,M,1.763,N,3.267,K,D*25
$GPGGA,154220.00,4612.5102359,N,00605.1505978,E,4,13,0.9,367.741,M,49.519,M,0.32,0195*7C
$RDENS,8879,5653854,PC
$GPVTG,132.9136,T,132.9136,M,1.812,N,3.358,K,D*21
$GPGGA,154220.40,4612.5101037,N,00605.1508062,E,4,13,0.9,367.734,M,49.519,M,0.72,0195*79
$GPVTG,132.0864,T,132.0864,M,1.713,N,3.174,K,D*23
$GPGGA,154220.60,4612.5100355,N,00605.1509085,E,4,13,0.9,367.747,M,49.519,M,0.92,0195*7F
$GPVTG,133.0863,T,133.0863,M,1.690,N,3.132,K,D*2B
$GPGGA,154221.00,4612.5099124,N,00605.1511097,E,4,13,0.9,367.747,M,49.519,M,1.32,0195*7C
$RDENS,8880,5653942,PC
$GPVTG,129.7590,T,129.7590,M,1.660,N,3.076,K,D*25
$GPGGA,154221.20,4612.5098472,N,00605.1512043,E,4,13,0.9,367.757,M,49.519,M,1.52,0195*74
$GPVTG,130.9692,T,130.9692,M,1.573,N,2.915,K,D*29
$GPGGA,154221.40,4612.5097899,N,00605.1512993,E,4,13,0.9,367.761,M,49.519,M,1.72,0195*77
$GPVTG,136.0182,T,136.0182,M,1.608,N,2.980,K,D*2A
$GPGGA,154221.80,4612.5096650,N,00605.1514787,E,4,13,0.9,367.762,M,49.519,M,2.12,0195*7A
$RDENS,8881,5654029,PC
$GPVTG,134.1003,T,134.1003,M,1.561,N,2.892,K,D*24
$GPGGA,154222.00,4612.5096058,N,00605.1515712,E,4,13,0.9,367.761,M,49.519,M,2.32,0195*73
$GPVTG,134.6041,T,134.6041,M,1.563,N,2.897,K,D*23
$GPGGA,154222.40,4612.5094889,N,00605.1517484,E,4,13,0.9,367.737,M,49.519,M,2.72,0195*78
$GPVTG,132.5568,T,132.5568,M,1.494,N,2.769,K,D*24
$GPGGA,154222.60,4612.5094237,N,00605.1518348,E,4,13,0.9,367.752,M,49.519,M,2.92,0195*70
$RDENS,8882,5654118,PC
$GPVTG,135.2493,T,135.2493,M,1.477,N,2.737,K,D*22
$GPGGA,154223.00,4612.5093107,N,00605.1519971,E,4,13,0.9,367.752,M,49.519,M,3.32,0195*7A
$GPVTG,134.8555,T,134.8555,M,1.392,N,2.579,K,D*26
$GPGGA,154223.20,4612.5092550,N,00605.1520787,E,4,13,0.9,367.749,M,49.519,M,3.52,0195*7E
$GPVTG,137.1461,T,137.1461,M,1.368,N,2.534,K,D*2A
$GPGGA,154223.60,4612.5091442,N,00605.1522316,E,4,13,0.9,367.760,M,49.519,M,3.92,0195*72
$RDENS,8883,5654206,PC
$GPVTG,135.3423,T,135.3423,M,1.394,N,2.583,K,D*25
$GPGGA,154223.80,4612.5090849,N,00605.1523088,E,4,13,0.9,367.756,M,49.519,M,4.12,0195*75
$GPVTG,133.0001,T,133.0001,M,1.357,N,2.516,K,D*26
$GPGGA,154224.20,4612.5089780,N,00605.1524635,E,4,13,0.9,367.744,M,49.519,M,4.52,0195*7A
$GPVTG,136.7672,T,136.7672,M,1.368,N,2.535,K,D*2B
$GPVTG,138.2348,T,138.2348,M,1.354,N,2.509,K,D*2B
$RDENS,8884,5654293,PC
$GPGGA,154224.60,4612.5088656,N,00605.1526098,E,4,13,0.9,367.750,M,49.519,M,4.92,0195*7F
$GPVTG,136.0115,T,136.0115,M,1.278,N,2.369,K,D*24
$GPGGA,154224.80,4612.5088145,N,00605.1526809,E,4,13,0.9,367.757,M,49.519,M,5.12,0195*7A
$GPVTG,135.9590,T,135.9590,M,1.296,N,2.401,K,D*2D
$GPGGA,154225.20,4612.5087102,N,00605.1528242,E,4,13,0.9,367.755,M,49.519,M,5.52,0195*70
$GPVTG,136.8026,T,136.8026,M,1.297,N,2.404,K,D*29
$RDENS,8885,5654380,PC
$GPGGA,154225.40,4612.5086611,N,00605.1528930,E,4,13,0.9,367.751,M,49.519,M,5.72,0195*7A
$GPVTG,135.0530,T,135.0530,M,1.227,N,2.273,K,D*24
$GPGGA,154225.80,4612.5085554,N,00605.1530280,E,4,13,0.9,367.766,M,49.519,M,6.12,0195*7F
$GPVTG,141.6727,T,141.6727,M,1.319,N,2.444,K,D*2A
$GPGGA,154226.00,4612.5085029,N,00605.1530949,E,4,13,0.9,367.761,M,49.519,M,6.32,0195*70
$GPVTG,139.3354,T,139.3354,M,1.176,N,2.180,K,D*2C
$RDENS,8886,5654467,PC
$GPGGA,154226.40,4612.5084101,N,00605.1532124,E,4,12,0.9,367.791,M,49.519,M,6.72,0195*75
$GPVTG,138.8561,T,138.8561,M,1.121,N,2.077,K,D*27
$GPGGA,154226.60,4612.5083617,N,00605.1532729,E,4,12,0.9,367.789,M,49.519,M,6.92,0195*7C
$GPVTG,140.4386,T,140.4386,M,1.206,N,2.236,K,D*26
$GPGGA,154227.00,4612.5082600,N,00605.1533976,E,4,12,0.9,367.790,M,49.519,M,7.32,0195*7A
$GPVTG,138.8080,T,138.8080,M,1.196,N,2.216,K,D*2E
$RDENS,8887,5654554,PC
$GPGGA,154227.20,4612.5082107,N,00605.1534596,E,4,12,0.9,367.779,M,49.519,M,7.52,0195*7C
$GPVTG,139.5698,T,139.5698,M,1.179,N,2.186,K,D*25
$GPGGA,154227.60,4612.5081128,N,00605.1535817,E,4,12,0.9,367.777,M,49.519,M,7.92,0195*71
$GPVTG,138.7120,T,138.7120,M,1.152,N,2.135,K,D*24
$GPGGA,154227.80,4612.5080630,N,00605.1536373,E,4,12,0.9,367.784,M,49.519,M,8.12,0195*71
$RDENS,8888,5654641,PC
$GPVTG,136.5976,T,136.5976,M,1.074,N,1.990,K,D*25
$GPGGA,154228.20,4612.5079742,N,00605.1537454,E,4,12,0.9,367.796,M,49.519,M,8.52,0195*72
$GPVTG,143.2762,T,143.2762,M,1.023,N,1.895,K,D*23
$GPGGA,154228.40,4612.5079243,N,00605.1538023,E,4,12,0.9,367.778,M,49.519,M,8.72,0195*79
$GPVTG,140.2451,T,140.2451,M,1.086,N,2.013,K,D*29
$GPGGA,154228.80,4612.5078335,N,00605.1539129,E,4,12,0.9,367.803,M,49.519,M,9.12,0195*7A
$RDENS,8889,5654728,PC
$GPVTG,139.3330,T,139.3330,M,1.055,N,1.955,K,D*2F
$GPGGA,154229.00,4612.5077894,N,00605.1539679,E,4,12,0.9,367.801,M,49.519,M,9.32,0195*7E
$GPVTG,142.0349,T,142.0349,M,1.085,N,2.012,K,D*2B
$GPGGA,154229.40,4612.5076933,N,00605.1540780,E,4,12,0.9,367.787,M,49.519,M,9.72,0195*7B
$GPVTG,141.1091,T,141.1091,M,1.125,N,2.084,K,D*2F
$GPGGA,154229.60,4612.5076477,N,00605.1541323,E,4,12,0.9,367.781,M,49.519,M,9.92,0195*70
$RDENS,8890,5654815,PC
$GPVTG,143.4774,T,143.4774,M,1.047,N,1.940,K,D*28
$GPGGA,154229.80,4612.5076010,N,00605.1541822,E,4,12,0.9,367.786,M,49.519,M,10.12,0195*46
$GPVTG,136.7058,T,136.7058,M,0.925,N,1.715,K,D*2A
$GPGGA,154230.20,4612.5075013,N,00605.1542859,E,2,11,1.0,367.795,M,49.519,M,10.52,0195*40
$GPVTG,146.2979,T,146.2979,M,1.022,N,1.894,K,D*23
$GPGGA,154230.40,4612.5074619,N,00605.1543401,E,2,11,1.0,367.796,M,49.519,M,10.72,0195*4A
$RDENS,8891,5654902,PC
$GPVTG,140.7809,T,140.7809,M,0.926,N,1.717,K,D*2B
$GPGGA,154230.80,4612.5073708,N,00605.1544361,E,2,11,1.0,367.787,M,49.519,M,11.12,0195*41
$GPVTG,144.0665,T,144.0665,M,1.045,N,1.936,K,D*2B
$GPGGA,154231.00,4612.5073196,N,00605.1544863,E,2,11,1.0,367.791,M,49.519,M,11.32,0195*45
$GPVTG,136.9796,T,136.9796,M,0.923,N,1.710,K,D*29
$GPGGA,154231.40,4612.5072445,N,00605.1545803,E,2,11,1.0,367.802,M,49.519,M,11.72,0195*4D
$RDENS,8892,5654989,PC
$GPVTG,141.3528,T,141.3528,M,0.871,N,1.614,K,D*2A
$GPGGA,154231.60,4612.5072038,N,00605.1546236,E,2,11,1.0,367.803,M,49.519,M,11.92,0195*41
$GPVTG,139.2974,T,139.2974,M,0.911,N,1.689,K,D*29
$GPGGA,154232.00,4612.5071252,N,00605.1547184,E,2,11,1.0,367.802,M,49.519,M,12.32,0195*4A
$GPVTG,140.6889,T,140.6889,M,0.923,N,1.711,K,D*28
$GPGGA,154232.20,4612.5070829,N,00605.1547632,E,2,11,1.0,367.793,M,49.519,M,12.52,0195*44
$RDENS,8893,5655076,PC
$GPVTG,140.6038,T,140.6038,M,0.956,N,1.772,K,D*2F
$GPGGA,154232.60,4612.5070013,N,00605.1548518,E,2,11,1.0,367.797,M,49.519,M,12.92,0195*4D
$GPVTG,145.7579,T,145.7579,M,0.892,N,1.654,K,D*23
$GPGGA,154232.80,4612.5069594,N,00605.1548959,E,2,11,1.0,367.794,M,49.519,M,13.12,0195*42
$GPVTG,144.1398,T,144.1398,M,0.842,N,1.560,K,D*2A
$RDENS,8894,5655162,PC
$GPGGA,154233.20,4612.5068839,N,00605.1549844,E,2,11,1.0,367.797,M,49.519,M,13.52,0195*49
$GPVTG,136.9312,T,136.9312,M,0.878,N,1.627,K,D*23
$GPGGA,154233.40,4612.5068427,N,00605.1550276,E,2,11,1.0,367.799,M,49.519,M,13.72,0195*43
$GPVTG,142.2924,T,142.2924,M,0.890,N,1.649,K,D*2D
$GPGGA,154233.80,4612.5067704,N,00605.1551105,E,2,11,1.0,367.801,M,49.519,M,14.12,0195*4B
$GPVTG,142.0448,T,142.0448,M,0.829,N,1.536,K,D*24
$RDENS,8895,5655248,PC
$GPGGA,154234.00,4612.5067320,N,00605.1551588,E,2,11,1.0,367.808,M,49.519,M,14.32,0195*4C
$GPVTG,145.2294,T,145.2294,M,0.815,N,1.510,K,D*2F
$GPGGA,154234.40,4612.5066565,N,00605.1552309,E,2,11,1.0,367.818,M,49.519,M,14.72,0195*47
$GPVTG,148.6450,T,148.6450,M,0.867,N,1.607,K,D*2F
$GPGGA,154234.60,4612.5066231,N,00605.1552771,E,2,11,1.0,367.807,M,49.519,M,14.92,0195*48
$GPVTG,144.9300,T,144.9300,M,0.849,N,1.573,K,D*23
$RDENS,8896,5655333,PC
$GPGGA,154235.00,4612.5065520,N,00605.1553538,E,2,11,1.0,367.805,M,49.519,M,15.32,0195*4C
$GPVTG,142.3346,T,142.3346,M,0.787,N,1.458,K,D*26
$GPGGA,154235.20,4612.5065189,N,00605.1553936,E,2,11,1.0,367.815,M,49.519,M,15.52,0195*4C
$GPVTG,141.0452,T,141.0452,M,0.712,N,1.319,K,D*28
$GPGGA,154235.60,4612.5064490,N,00605.1554742,E,2,11,1.0,367.810,M,49.519,M,15.92,0195*47
$GPVTG,140.7872,T,140.7872,M,0.860,N,1.594,K,D*21
$RDENS,8897,5655420,PC
$GPGGA,154235.80,4612.5064187,N,00605.1555091,E,2,11,1.0,367.798,M,49.519,M,16.12,0195*46
$GPVTG,146.6846,T,146.6846,M,0.679,N,1.258,K,D*20
$GPGGA,154236.20,4612.5063543,N,00605.1555766,E,2,11,1.0,367.822,M,49.519,M,16.52,0195*41
$GPVTG,140.9635,T,140.9635,M,0.732,N,1.356,K,D*21
$GPGGA,154236.40,4612.5063139,N,00605.1556319,E,2,10,1.1,367.780,M,49.519,M,16.72,0195*44
$GPVTG,145.9959,T,145.9959,M,0.746,N,1.382,K,D*2B
$RDENS,8898,5655506,PC
$GPGGA,154236.60,4612.5062823,N,00605.1556623,E,2,10,1.1,367.787,M,49.519,M,16.92,0195*40
$GPVTG,137.7858,T,137.7858,M,0.723,N,1.339,K,D*28
$GPGGA,154237.00,4612.5062235,N,00605.1557365,E,2,10,1.1,367.793,M,49.519,M,17.32,0195*42
$GPVTG,139.9745,T,139.9745,M,0.707,N,1.310,K,D*25
$GPGGA,154237.20,4612.5061866,N,00605.1557744,E,2,10,1.1,367.801,M,49.519,M,17.52,0195*4A
$GPVTG,143.2754,T,143.2754,M,0.678,N,1.256,K,D*2F
$RDENS,8899,5655592,PC
$GPGGA,154237.60,4612.5061231,N,00605.1558487,E,2,10,1.1,367.778,M,49.519,M,17.92,0195*48
$GPVTG,138.9324,T,138.9324,M,0.775,N,1.436,K,D*23
$GPGGA,154237.80,4612.5060962,N,00605.1558782,E,2,10,1.1,367.773,M,49.519,M,18.12,0195*40
$GPVTG,140.8321,T,140.8321,M,0.669,N,1.239,K,D*26
$GPGGA,154238.20,4612.5060361,N,00605.1559472,E,2,10,1.1,367.796,M,49.519,M,18.52,0195*4E
$GPVTG,142.5293,T,142.5293,M,0.720,N,1.334,K,D*26
$RDENS,8900,5655678,PC
$GPGGA,154238.40,4612.5060124,N,00605.1559738,E,2,10,1.1,367.796,M,49.519,M,18.72,0195*44
$GPVTG,139.4800,T,139.4800,M,0.705,N,1.307,K,D*21
$GPGGA,154238.80,4612.5059494,N,00605.1560478,E,2,10,1.1,367.790,M,49.519,M,19.12,0195*40
$GPVTG,142.1506,T,142.1506,M,0.588,N,1.089,K,D*23
$GPGGA,154239.00,4612.5059214,N,00605.1560796,E,2,10,1.1,367.800,M,49.518,M,19.32,0195*41
$GPVTG,135.9030,T,135.9030,M,0.568,N,1.054,K,D*2D
$RDENS,8901,5655763,PC
$GPGGA,154239.40,4612.5058725,N,00605.1561442,E,2,10,1.1,367.799,M,49.518,M,19.72,0195*43
$GPVTG,140.0335,T,140.0335,M,0.558,N,1.035,K,D*29
$GPGGA,154239.60,4612.5058415,N,00605.1561775,E,2,10,1.1,367.807,M,49.518,M,19.92,0195*40
$GPVTG,136.0595,T,136.0595,M,0.561,N,1.039,K,D*2F
$GPGGA,154240.00,4612.5057973,N,00605.1562460,E,2,10,1.1,367.812,M,49.518,M,0.13,0195*7B
$RDENS,8902,5655848,PC
$GPVTG,135.9970,T,135.9970,M,0.643,N,1.192,K,D*2C
$GPGGA,154240.20,4612.5057761,N,00605.1562776,E,2,10,1.1,367.804,M,49.518,M,0.33,0195*75
$GPVTG,140.5936,T,140.5936,M,0.658,N,1.220,K,D*2C
$GPGGA,154240.60,4612.5057317,N,00605.1563370,E,2,10,1.1,367.824,M,49.518,M,0.73,0195*71
$GPVTG,134.4824,T,134.4824,M,0.508,N,0.941,K,D*27
$GPGGA,154240.80,4612.5057031,N,00605.1563686,E,2,10,1.1,367.835,M,49.518,M,0.93,0195*7A
$RDENS,8903,5655936,PC
$GPVTG,135.5871,T,135.5871,M,0.491,N,0.911,K,D*23
$GPGGA,154241.20,4612.5056694,N,00605.1564242,E,2,09,1.2,367.839,M,49.518,M,1.33,0195*7E
$GPVTG,136.6528,T,136.6528,M,0.674,N,1.249,K,D*2D
$GPGGA,154241.40,4612.5056467,N,00605.1564538,E,2,09,1.2,367.823,M,49.518,M,1.53,0195*71
$GPVTG,129.2117,T,129.2117,M,0.551,N,1.021,K,D*25
$GPGGA,154241.80,4612.5055993,N,00605.1565216,E,2,09,1.2,367.805,M,49.518,M,1.93,0195*7A
$RDENS,8904,5656023,PC
$GPVTG,139.9615,T,139.9615,M,0.584,N,1.082,K,D*24
$GPGGA,154242.00,4612.5055733,N,00605.1565586,E,2,09,1.2,367.797,M,49.518,M,0.07,0195*73
$GPVTG,128.9975,T,128.9975,M,0.494,N,0.915,K,D*22
$GPGGA,154242.20,4612.5055572,N,00605.1565911,E,2,09,1.2,367.800,M,49.518,M,0.13,0195*70
$GPVTG,130.2111,T,130.2111,M,0.459,N,0.850,K,D*23
$GPGGA,154242.60,4612.5055269,N,00605.1566415,E,2,09,1.2,367.814,M,49.518,M,0.53,0195*72
$RDENS,8905,5656111,PC
$GPVTG,132.5741,T,132.5741,M,0.461,N,0.855,K,D*2D
$GPGGA,154242.80,4612.5055083,N,00605.1566770,E,2,09,1.2,367.846,M,49.518,M,0.73,0195*7F
