$GPGGA,154601.00,4612.5479300,N,00605.0894307,E,4,09,1.7,367.831,M,49.521,M,0.55,0195*7E
$GPVTG,188.9409,T,188.9409,M,0.155,N,0.287,K,D*2A
$GPGGA,154601.20,4612.5479208,N,00605.0894273,E,4,09,1.7,367.826,M,49.521,M,0.75,0195*73
$GPVTG,194.9997,T,194.9997,M,0.184,N,0.341,K,D*2D
$GPGGA,154601.60,4612.5479046,N,00605.0894172,E,4,10,1.0,367.816,M,49.521,M,0.15,0195*77
$GPVTG,205.5629,T,205.5629,M,0.160,N,0.297,K,D*2D
$GPGGA,154601.80,4612.5478931,N,00605.0894169,E,4,10,1.0,367.821,M,49.521,M,0.35,0195*7D
$GPVTG,194.3072,T,194.3072,M,0.190,N,0.352,K,D*2A
$GPGGA,154602.20,4612.5478717,N,00605.0894094,E,4,10,1.0,367.817,M,49.521,M,0.75,0195*7C
$GPVTG,195.0385,T,195.0385,M,0.192,N,0.355,K,D*2F
$GPGGA,154602.40,4612.5478578,N,00605.0894113,E,4,10,1.0,367.821,M,49.521,M,0.95,0195*74
$GPVTG,201.6455,T,201.6455,M,0.211,N,0.392,K,D*2C
$GPGGA,154602.60,4612.5478479,N,00605.0894054,E,4,10,1.0,367.814,M,49.521,M,0.05,0195*7B
$GPVTG,178.1157,T,178.1157,M,0.199,N,0.368,K,D*2A
$GPGGA,154603.00,4612.5478277,N,00605.0894051,E,4,09,1.1,367.803,M,49.521,M,0.35,0195*7D
$GPVTG,167.7414,T,167.7414,M,0.229,N,0.424,K,D*2D
$GPGGA,154603.20,4612.5478163,N,00605.0894061,E,4,09,1.1,367.805,M,49.521,M,0.55,0195*7A
$GPVTG,180.0987,T,180.0987,M,0.222,N,0.412,K,D*23
$GPGGA,154603.60,4612.5477890,N,00605.0894076,E,4,09,1.1,367.821,M,49.521,M,0.95,0195*78
$GPVTG,174.6087,T,174.6087,M,0.258,N,0.478,K,D*22
$GPGGA,154603.80,4612.5477772,N,00605.0894045,E,4,09,1.1,367.830,M,49.521,M,1.15,0195*7C
$GPVTG,199.0615,T,199.0615,M,0.246,N,0.455,K,D*22
$GPGGA,154604.20,4612.5477520,N,00605.0893929,E,4,09,1.1,367.846,M,49.521,M,1.55,0195*75
$GPVTG,201.5724,T,201.5724,M,0.231,N,0.428,K,D*28
$GPGGA,154604.40,4612.5477364,N,00605.0893887,E,4,09,1.1,367.848,M,49.521,M,1.75,0195*7C
$GPVTG,188.2815,T,188.2815,M,0.263,N,0.487,K,D*2A
$GPGGA,154604.80,4612.5477083,N,00605.0893842,E,4,09,1.1,367.832,M,49.521,M,0.20,0195*7F
$GPVTG,197.1175,T,197.1175,M,0.240,N,0.445,K,D*25
$GPGGA,154605.00,4612.5476969,N,00605.0893798,E,4,09,1.1,367.812,M,49.521,M,0.12,0195*71
$GPVTG,187.0676,T,187.0676,M,0.243,N,0.450,K,D*22
$GPGGA,154605.40,4612.5476702,N,00605.0893722,E,4,09,1.1,367.798,M,49.521,M,0.52,0195*7E
$GPVTG,196.1759,T,196.1759,M,0.245,N,0.455,K,D*21
$RDENS,9136,5676408,PC
$GPGGA,154605.60,4612.5476559,N,00605.0893682,E,4,09,1.1,367.799,M,49.521,M,0.01,0195*7C
$GPVTG,192.4268,T,192.4268,M,0.290,N,0.537,K,D*2C
$GPGGA,154606.00,4612.5476284,N,00605.0893557,E,4,09,1.1,367.820,M,49.521,M,0.41,0195*7C
$GPVTG,195.0999,T,195.0999,M,0.253,N,0.469,K,D*29
$GPVTG,192.7585,T,192.7585,M,0.248,N,0.459,K,D*20
$GPGGA,154606.40,4612.5476010,N,00605.0893454,E,4,09,1.1,367.826,M,49.521,M,0.81,0195*7F
$RDENS,9137,5676494,PC
$GPVTG,192.6032,T,192.6032,M,0.214,N,0.396,K,D*2D
$GPGGA,154606.60,4612.5475888,N,00605.0893409,E,4,09,1.1,367.821,M,49.521,M,1.01,0195*71
$GPVTG,194.2674,T,194.2674,M,0.256,N,0.475,K,D*21
$GPGGA,154607.00,4612.5475583,N,00605.0893309,E,4,09,1.1,367.827,M,49.521,M,1.41,0195*75
$GPVTG,189.8648,T,189.8648,M,0.309,N,0.573,K,D*2D
$GPGGA,154607.20,4612.5475421,N,00605.0893261,E,4,09,1.1,367.831,M,49.521,M,1.61,0195*74
$RDENS,9138,5676581,PC
$GPVTG,197.7048,T,197.7048,M,0.255,N,0.473,K,D*24
$GPGGA,154607.60,4612.5475136,N,00605.0893154,E,4,09,1.1,367.816,M,49.521,M,0.07,0195*72
$GPVTG,188.8874,T,188.8874,M,0.245,N,0.453,K,D*27
$GPGGA,154607.80,4612.5475012,N,00605.0893026,E,4,09,1.1,367.800,M,49.521,M,0.02,0195*7D
$GPVTG,179.1968,T,179.1968,M,0.313,N,0.580,K,D*2A
$GPGGA,154608.20,4612.5474623,N,00605.0893110,E,4,09,1.1,367.801,M,49.521,M,0.38,0195*71
$RDENS,9139,5676668,PC
$GPVTG,166.7030,T,166.7030,M,0.401,N,0.743,K,D*23
$GPGGA,154608.40,4612.5474473,N,00605.0893158,E,4,09,1.1,367.797,M,49.521,M,0.05,0195*72
$GPVTG,148.1327,T,148.1327,M,0.380,N,0.705,K,D*2F
$GPGGA,154608.80,4612.5474005,N,00605.0893510,E,4,09,1.1,367.845,M,49.521,M,0.35,0195*70
$GPVTG,149.2025,T,149.2025,M,0.495,N,0.917,K,D*21
$GPGGA,154609.00,4612.5473799,N,00605.0893655,E,4,09,1.1,367.851,M,49.521,M,0.55,0195*7D
$RDENS,9140,5676756,PC
$GPVTG,158.7806,T,158.7806,M,0.418,N,0.774,K,D*2F
$GPGGA,154609.40,4612.5473358,N,00605.0893838,E,4,09,1.1,367.843,M,49.521,M,0.95,0195*7A
$GPVTG,170.0047,T,170.0047,M,0.394,N,0.729,K,D*24
$GPGGA,154609.60,4612.5473142,N,00605.0893866,E,4,09,1.1,367.837,M,49.521,M,0.14,0195*70
$GPVTG,167.9973,T,167.9973,M,0.393,N,0.728,K,D*22
$GPGGA,154610.00,4612.5472679,N,00605.0894107,E,4,09,1.1,367.831,M,49.521,M,0.54,0195*7B
$RDENS,9141,5676843,PC
$GPVTG,160.1676,T,160.1676,M,0.509,N,0.943,K,D*24
$GPGGA,154610.20,4612.5472469,N,00605.0894177,E,4,09,1.1,367.836,M,49.521,M,0.74,0195*78
$GPVTG,160.1858,T,160.1858,M,0.421,N,0.781,K,D*2F
$GPGGA,154610.40,4612.5472263,N,00605.0894288,E,4,09,1.1,367.842,M,49.521,M,0.05,0195*74
$GPVTG,162.5255,T,162.5255,M,0.622,N,1.154,K,D*21
$GPGGA,154610.80,4612.5471727,N,00605.0894532,E,4,09,1.1,367.847,M,49.521,M,0.35,0195*7E
$RDENS,9142,5676930,PC
$GPVTG,163.5720,T,163.5720,M,0.417,N,0.773,K,D*27
$GPGGA,154611.00,4612.5471487,N,00605.0894681,E,4,09,1.1,367.851,M,49.521,M,0.55,0195*74
$GPVTG,155.3221,T,155.3221,M,0.525,N,0.973,K,D*29
$GPGGA,154611.40,4612.5470899,N,00605.0895122,E,4,09,1.1,367.829,M,49.521,M,0.95,0195*7E
$GPVTG,151.4945,T,151.4945,M,0.639,N,1.185,K,D*27
$GPGGA,154611.60,4612.5470680,N,00605.0895340,E,4,09,1.1,367.810,M,49.521,M,0.07,0195*7D
$RDENS,9143,5677017,PC
$GPVTG,146.7139,T,146.7139,M,0.582,N,1.078,K,D*27
$GPGGA,154612.00,4612.5470024,N,00605.0895913,E,4,09,1.1,367.776,M,49.521,M,0.47,0195*77
$GPVTG,152.1906,T,152.1906,M,0.823,N,1.525,K,D*2C
$GPGGA,154612.20,4612.5469585,N,00605.0896283,E,4,09,1.1,367.789,M,49.521,M,0.67,0195*70
$GPVTG,141.4295,T,141.4295,M,0.843,N,1.562,K,D*29
$GPGGA,154612.60,4612.5468857,N,00605.0897005,E,4,09,1.1,367.798,M,49.521,M,1.07,0195*7D
$RDENS,9144,5677105,PC
$GPVTG,150.0926,T,150.0926,M,0.817,N,1.514,K,D*29
$GPGGA,154612.80,4612.5468425,N,00605.0897459,E,4,09,1.1,367.793,M,49.521,M,1.27,0195*7E
$GPVTG,134.9185,T,134.9185,M,0.658,N,1.219,K,D*26
$GPGGA,154613.20,4612.5467755,N,00605.0898297,E,4,09,1.1,367.815,M,49.521,M,1.67,0195*70
$GPVTG,141.7346,T,141.7346,M,1.070,N,1.982,K,D*22
$GPGGA,154613.40,4612.5467344,N,00605.0898724,E,4,09,1.1,367.811,M,49.521,M,1.87,0195*75
$RDENS,9145,5677193,PC
$GPVTG,141.5963,T,141.5963,M,1.062,N,1.968,K,D*25
$GPGGA,154613.80,4612.5466092,N,00605.0900016,E,4,08,1.5,367.801,M,49.521,M,0.22,0195*7C
$GPVTG,143.6462,T,143.6462,M,1.058,N,1.960,K,D*24
$GPGGA,154614.00,4612.5465588,N,00605.0900454,E,4,08,1.5,367.808,M,49.521,M,0.01,0195*74
$GPVTG,145.0349,T,145.0349,M,0.975,N,1.808,K,D*2C
$GPGGA,154614.40,4612.5464697,N,00605.0901285,E,4,08,1.5,367.815,M,49.521,M,0.41,0195*7F
$RDENS,9146,5677281,PC
$GPVTG,148.9866,T,148.9866,M,1.075,N,1.993,K,D*27
$GPGGA,154614.60,4612.5464200,N,00605.0901856,E,4,08,1.5,367.828,M,49.521,M,0.12,0195*7B
$GPVTG,144.1572,T,144.1572,M,1.186,N,2.198,K,D*2A
$GPGGA,154615.00,4612.5463264,N,00605.0902820,E,4,08,1.5,367.806,M,49.521,M,0.52,0195*73
$GPVTG,147.3967,T,147.3967,M,1.023,N,1.897,K,D*21
$GPGGA,154615.20,4612.5462730,N,00605.0903307,E,4,08,1.5,367.773,M,49.521,M,0.72,0195*74
$RDENS,9147,5677369,PC
$GPVTG,135.3536,T,135.3536,M,1.248,N,2.313,K,D*2A
$GPGGA,154615.40,4612.5462220,N,00605.0904020,E,4,08,1.5,367.785,M,49.521,M,0.92,0195*70
$GPVTG,143.1375,T,143.1375,M,1.323,N,2.452,K,D*24
$GPGGA,154615.80,4612.5461109,N,00605.0905230,E,4,08,1.5,367.799,M,49.521,M,0.09,0195*7A
$GPVTG,140.5828,T,140.5828,M,1.218,N,2.258,K,D*21
$GPGGA,154616.00,4612.5460426,N,00605.0905929,E,4,08,1.5,367.798,M,49.521,M,0.11,0195*73
$RDENS,9148,5677457,PC
$GPVTG,145.9400,T,145.9400,M,1.322,N,2.450,K,D*27
$GPGGA,154616.40,4612.5459300,N,00605.0907141,E,4,08,1.5,367.811,M,49.521,M,0.06,0195*72
$GPVTG,142.0479,T,142.0479,M,1.339,N,2.481,K,D*21
$GPGGA,154616.60,4612.5458683,N,00605.0907936,E,4,08,1.5,367.835,M,49.521,M,0.14,0195*72
$GPVTG,139.3678,T,139.3678,M,1.526,N,2.828,K,D*26
$GPGGA,154617.00,4612.5457438,N,00605.0909507,E,4,08,1.5,367.818,M,49.521,M,0.54,0195*73
$RDENS,9149,5677545,PC
$GPVTG,138.2691,T,138.2691,M,1.430,N,2.651,K,D*20
$GPGGA,154617.20,4612.5456794,N,00605.0910332,E,4,08,1.5,367.817,M,49.521,M,0.74,0195*70
$GPVTG,133.6943,T,133.6943,M,1.574,N,2.917,K,D*2C
$GPGGA,154617.60,4612.5455534,N,00605.0912094,E,4,08,1.5,367.825,M,49.521,M,0.08,0195*78
$GPVTG,138.6269,T,138.6269,M,1.572,N,2.913,K,D*2E
$GPGGA,154617.80,4612.5455009,N,00605.0912788,E,4,08,1.5,367.799,M,49.521,M,0.28,0195*7D
$RDENS,9150,5677633,PC
$GPVTG,132.9028,T,132.9028,M,1.723,N,3.193,K,D*29
$GPGGA,154618.20,4612.5453683,N,00605.0914872,E,4,08,1.5,367.821,M,49.521,M,0.68,0195*7E
$GPVTG,131.4003,T,131.4003,M,1.748,N,3.239,K,D*27
$GPGGA,154618.40,4612.5453029,N,00605.0915923,E,4,08,1.5,367.809,M,49.521,M,0.88,0195*7E
$GPVTG,132.1255,T,132.1255,M,1.733,N,3.212,K,D*22
$GPGGA,154618.80,4612.5451714,N,00605.0918074,E,4,08,1.5,367.810,M,49.521,M,0.13,0195*75
$RDENS,9151,5677722,PC
$GPVTG,129.9651,T,129.9651,M,1.794,N,3.326,K,D*29
$GPGGA,154619.00,4612.5451109,N,00605.0919139,E,4,08,1.5,367.813,M,49.521,M,0.33,0195*7E
$GPVTG,132.1341,T,132.1341,M,1.821,N,3.375,K,D*2E
$GPGGA,154619.40,4612.5449797,N,00605.0921440,E,4,08,1.5,367.816,M,49.521,M,0.73,0195*73
$GPVTG,127.5197,T,127.5197,M,1.849,N,3.427,K,D*20
$GPGGA,154619.60,4612.5449093,N,00605.0922668,E,4,08,1.5,367.802,M,49.521,M,0.06,0195*7E
$RDENS,9152,5677811,PC
$GPVTG,129.0285,T,129.0285,M,2.036,N,3.772,K,D*20
$GPGGA,154620.00,4612.5447712,N,00605.0925167,E,4,08,1.5,367.831,M,49.521,M,0.46,0195*79
$GPVTG,126.6753,T,126.6753,M,1.981,N,3.671,K,D*24
$GPGGA,154620.20,4612.5447029,N,00605.0926464,E,4,08,1.5,367.829,M,49.521,M,0.66,0195*7A
$GPVTG,130.6364,T,130.6364,M,1.956,N,3.626,K,D*2C
$GPGGA,154620.40,4612.5446375,N,00605.0927650,E,4,08,1.5,367.824,M,49.521,M,0.86,0195*70
$RDENS,9153,5677900,PC
$GPVTG,124.9776,T,124.9776,M,1.908,N,3.535,K,D*26
$GPGGA,154620.80,4612.5445077,N,00605.0930171,E,4,08,1.5,367.818,M,49.521,M,1.26,0195*78
$GPVTG,128.6571,T,128.6571,M,1.910,N,3.540,K,D*2D
$GPGGA,154621.00,4612.5444413,N,00605.0931536,E,4,08,1.5,367.824,M,49.521,M,1.46,0195*79
$GPVTG,125.1621,T,125.1621,M,1.975,N,3.661,K,D*2E
$GPGGA,154621.40,4612.5443090,N,00605.0934209,E,4,08,1.5,367.825,M,49.521,M,1.86,0195*76
$RDENS,9154,5677989,PC
$GPVTG,125.0220,T,125.0220,M,2.030,N,3.762,K,D*27
$GPGGA,154621.60,4612.5442467,N,00605.0935556,E,4,08,1.5,367.813,M,49.521,M,0.08,0195*77
$GPVTG,126.1622,T,126.1622,M,1.945,N,3.605,K,D*2F
$GPGGA,154622.00,4612.5441170,N,00605.0938296,E,4,08,1.5,367.806,M,49.521,M,0.32,0195*79
$GPVTG,123.4684,T,123.4684,M,2.221,N,4.117,K,D*26
$GPGGA,154622.20,4612.5440519,N,00605.0939674,E,4,08,1.5,367.810,M,49.521,M,0.09,0195*77
$RDENS,9155,5678078,PC
$GPVTG,123.9081,T,123.9081,M,2.181,N,4.042,K,D*2E
$GPGGA,154622.60,4612.5439171,N,00605.0942542,E,4,08,1.5,367.805,M,49.521,M,0.31,0195*72
$GPVTG,123.8907,T,123.8907,M,2.130,N,3.947,K,D*2F
$GPGGA,154622.80,4612.5438483,N,00605.0944005,E,4,08,1.5,367.807,M,49.521,M,0.05,0195*70
$GPVTG,122.4069,T,122.4069,M,2.164,N,4.010,K,D*22
$GPGGA,154623.20,4612.5437132,N,00605.0946999,E,4,08,1.5,367.812,M,49.521,M,0.45,0195*75
$RDENS,9156,5678167,PC
$GPVTG,122.9169,T,122.9169,M,2.290,N,4.244,K,D*29
$GPGGA,154623.40,4612.5436470,N,00605.0948432,E,4,08,1.5,367.807,M,49.521,M,0.13,0195*74
$GPVTG,123.4597,T,123.4597,M,2.218,N,4.110,K,D*2B
$GPGGA,154623.80,4612.5435086,N,00605.0951478,E,4,08,1.5,367.816,M,49.521,M,0.27,0195*77
$GPVTG,122.2361,T,122.2361,M,2.259,N,4.187,K,D*20
$GPGGA,154624.00,4612.5434453,N,00605.0952911,E,4,08,1.5,367.805,M,49.521,M,0.47,0195*70
$RDENS,9157,5678256,PC
$GPVTG,121.9230,T,121.9230,M,2.293,N,4.249,K,D*27
$GPGGA,154624.40,4612.5433071,N,00605.0956045,E,4,08,1.5,367.800,M,49.521,M,0.87,0195*72
$GPVTG,122.9447,T,122.9447,M,2.346,N,4.348,K,D*2E
$GPGGA,154624.60,4612.5432396,N,00605.0957582,E,4,08,1.5,367.810,M,49.521,M,0.13,0195*78
$GPVTG,122.2678,T,122.2678,M,2.315,N,4.290,K,D*2C
$GPGGA,154624.80,4612.5431720,N,00605.0959140,E,4,08,1.5,367.815,M,49.521,M,0.33,0195*7F
$RDENS,9158,5678345,PC
$GPVTG,122.8507,T,122.8507,M,2.279,N,4.223,K,D*2F
$GPGGA,154625.20,4612.5430338,N,00605.0962256,E,4,08,1.5,367.809,M,49.521,M,0.73,0195*7D
$GPVTG,122.9613,T,122.9613,M,2.403,N,4.453,K,D*25
$GPGGA,154625.40,4612.5429606,N,00605.0963908,E,4,08,1.5,367.818,M,49.521,M,0.93,0195*74
$GPVTG,122.8953,T,122.8953,M,2.354,N,4.362,K,D*25
$GPGGA,154625.80,4612.5428199,N,00605.0967088,E,4,08,1.5,367.811,M,49.521,M,1.33,0195*7F
$RDENS,9159,5678434,PC
$GPVTG,121.7221,T,121.7221,M,2.379,N,4.408,K,D*21
$GPGGA,154626.00,4612.5427491,N,00605.0968676,E,4,08,1.5,367.810,M,49.521,M,0.05,0195*7B
$GPVTG,122.3682,T,122.3682,M,2.371,N,4.395,K,D*2A
$GPGGA,154626.40,4612.5426053,N,00605.0971901,E,4,08,1.5,367.801,M,49.521,M,0.03,0195*75
$GPVTG,122.0262,T,122.0262,M,2.460,N,4.558,K,D*2A
$GPGGA,154626.60,4612.5425321,N,00605.0973461,E,4,08,1.5,367.809,M,49.521,M,0.23,0195*71
$GPVTG,121.7469,T,121.7469,M,2.348,N,4.351,K,D*28
$RDENS,9160,5678523,PC
$GPGGA,154627.00,4612.5423885,N,00605.0976747,E,4,08,1.5,367.809,M,49.521,M,0.63,0195*73
$GPVTG,123.2618,T,123.2618,M,2.404,N,4.454,K,D*25
$GPGGA,154627.20,4612.5423157,N,00605.0978364,E,4,08,1.5,367.804,M,49.521,M,0.83,0195*7F
$GPVTG,123.2249,T,123.2249,M,2.371,N,4.394,K,D*2B
$GPGGA,154627.60,4612.5421721,N,00605.0981591,E,4,08,1.5,367.803,M,49.521,M,0.09,0195*71
$GPVTG,121.9482,T,121.9482,M,2.337,N,4.331,K,D*26
$RDENS,9161,5678612,PC
$GPGGA,154627.80,4612.5420985,N,00605.0983208,E,4,08,1.5,367.802,M,49.521,M,0.29,0195*78
$GPVTG,122.5840,T,122.5840,M,2.488,N,4.611,K,D*22
$GPGGA,154628.20,4612.5419491,N,00605.0986500,E,4,08,1.5,367.806,M,49.521,M,0.69,0195*75
$GPVTG,123.3261,T,123.3261,M,2.418,N,4.482,K,D*23
$GPVTG,122.4551,T,122.4551,M,2.445,N,4.531,K,D*22
$RDENS,9162,5678701,PC
$GPGGA,154628.60,4612.5418049,N,00605.0989745,E,4,08,1.5,367.796,M,49.521,M,1.09,0195*7C
$GPVTG,122.0917,T,122.0917,M,2.459,N,4.557,K,D*2F
$GPGGA,154628.80,4612.5417291,N,00605.0991434,E,4,08,1.5,367.803,M,49.521,M,0.13,0195*7F
$GPVTG,122.7648,T,122.7648,M,2.443,N,4.528,K,D*2C
$GPGGA,154629.20,4612.5415830,N,00605.0994682,E,4,08,1.5,367.816,M,49.521,M,0.53,0195*7D
$GPVTG,123.8953,T,123.8953,M,2.471,N,4.580,K,D*2F
$RDENS,9163,5678790,PC
$GPGGA,154629.40,4612.5415079,N,00605.0996389,E,4,08,1.5,367.815,M,49.521,M,0.07,0195*70
$GPVTG,123.0066,T,123.0066,M,2.456,N,4.552,K,D*25
$GPGGA,154629.80,4612.5413635,N,00605.0999709,E,4,08,1.5,367.800,M,49.521,M,0.33,0195*74
$GPVTG,121.1009,T,121.1009,M,2.471,N,4.580,K,D*2F
$GPGGA,154630.00,4612.5412909,N,00605.1001363,E,4,08,1.5,367.807,M,49.521,M,0.53,0195*75
$GPVTG,122.0110,T,122.0110,M,2.452,N,4.544,K,D*26
$RDENS,9164,5678879,PC
$GPGGA,154630.40,4612.5411458,N,00605.1004733,E,4,08,1.5,367.806,M,49.521,M,0.01,0195*79
$GPVTG,121.9210,T,121.9210,M,2.488,N,4.610,K,D*23
$GPGGA,154630.60,4612.5410693,N,00605.1006457,E,4,08,1.5,367.810,M,49.521,M,0.19,0195*72
$GPVTG,121.1806,T,121.1806,M,2.509,N,4.649,K,D*27
$GPGGA,154631.00,4612.5409238,N,00605.1009854,E,4,08,1.5,367.800,M,49.521,M,0.59,0195*7D
$GPVTG,122.2014,T,122.2014,M,2.511,N,4.654,K,D*22
$RDENS,9165,5678968,PC
$GPGGA,154631.20,4612.5408450,N,00605.1011628,E,4,08,1.5,367.815,M,49.521,M,0.79,0195*7C
$GPVTG,122.3333,T,122.3333,M,2.538,N,4.704,K,D*2D
$GPGGA,154631.60,4612.5406956,N,00605.1015049,E,4,08,1.5,367.809,M,49.521,M,1.19,0195*72
$GPVTG,121.4881,T,121.4881,M,2.506,N,4.645,K,D*24
$GPGGA,154631.80,4612.5406226,N,00605.1016789,E,4,08,1.5,367.809,M,49.520,M,1.39,0195*7B
$GPVTG,122.9278,T,122.9278,M,2.547,N,4.720,K,D*23
$RDENS,9166,5679057,PC
$GPGGA,154632.20,4612.5404702,N,00605.1020263,E,4,08,1.5,367.809,M,49.520,M,1.79,0195*73
$GPVTG,121.4395,T,121.4395,M,2.537,N,4.703,K,D*25
$GPGGA,154632.40,4612.5403924,N,00605.1021941,E,4,08,1.5,367.819,M,49.520,M,0.02,0195*7E
$GPVTG,121.8868,T,121.8868,M,2.603,N,4.824,K,D*2B
$GPGGA,154632.60,4612.5403195,N,00605.1023683,E,4,10,0.9,367.822,M,49.520,M,0.18,0195*7A
$GPVTG,122.8571,T,122.8571,M,2.595,N,4.809,K,D*28
$GPGGA,154633.00,4612.5401634,N,00605.1027169,E,4,10,0.9,367.823,M,49.520,M,0.01,0195*7D
$RDENS,9167,5679146,PC
$GPVTG,122.5980,T,122.5980,M,2.591,N,4.802,K,D*27
$GPGGA,154633.20,4612.5400827,N,00605.1028900,E,4,10,0.9,367.818,M,49.520,M,0.19,0195*7B
$GPVTG,124.3382,T,124.3382,M,2.619,N,4.853,K,D*20
$GPGGA,154633.60,4612.5399204,N,00605.1032395,E,4,10,0.9,367.819,M,49.520,M,0.05,0195*72
$GPVTG,123.3121,T,123.3121,M,2.625,N,4.865,K,D*2A
$GPGGA,154633.80,4612.5398384,N,00605.1034139,E,4,10,0.9,367.815,M,49.520,M,0.25,0195*78
$RDENS,9168,5679235,PC
$GPVTG,125.3126,T,125.3126,M,2.637,N,4.887,K,D*25
$GPGGA,154634.20,4612.5396690,N,00605.1037620,E,4,10,0.9,367.805,M,49.520,M,0.65,0195*72
$GPVTG,124.7620,T,124.7620,M,2.673,N,4.954,K,D*2A
$GPGGA,154634.40,4612.5395822,N,00605.1039391,E,4,10,0.9,367.812,M,49.520,M,0.85,0195*79
$GPVTG,125.1142,T,125.1142,M,2.667,N,4.943,K,D*29
$GPGGA,154634.80,4612.5394082,N,00605.1042853,E,4,10,0.9,367.815,M,49.520,M,0.21,0195*76
$RDENS,9169,5679324,PC
$GPVTG,126.6535,T,126.6535,M,2.679,N,4.965,K,D*22
$GPGGA,154635.00,4612.5393200,N,00605.1044596,E,4,10,0.9,367.805,M,49.520,M,0.41,0195*75
$GPVTG,127.4623,T,127.4623,M,2.681,N,4.968,K,D*28
$GPGGA,154635.40,4612.5391431,N,00605.1048034,E,4,10,0.9,367.810,M,49.520,M,0.81,0195*7E
$GPVTG,126.4527,T,126.4527,M,2.700,N,5.003,K,D*25
$GPGGA,154635.60,4612.5390517,N,00605.1049755,E,4,10,0.9,367.809,M,49.520,M,0.00,0195*78
$RDENS,9170,5679413,PC
$GPVTG,127.5049,T,127.5049,M,2.742,N,5.082,K,D*2A
$GPGGA,154636.00,4612.5388649,N,00605.1053196,E,4,10,0.9,367.808,M,49.520,M,0.40,0195*7B
$GPVTG,128.4829,T,128.4829,M,2.712,N,5.025,K,D*22
$GPGGA,154636.20,4612.5387710,N,00605.1054889,E,4,10,0.9,367.815,M,49.520,M,0.60,0195*75
$GPVTG,128.8925,T,128.8925,M,2.681,N,4.969,K,D*29
$GPGGA,154636.60,4612.5385831,N,00605.1058233,E,4,10,0.9,367.815,M,49.520,M,1.00,0195*7F
$RDENS,9171,5679502,PC
$GPVTG,129.4515,T,129.4515,M,2.708,N,5.018,K,D*27
$GPGGA,154636.80,4612.5384903,N,00605.1059895,E,4,10,0.9,367.809,M,49.520,M,1.20,0195*78
$GPVTG,130.1950,T,130.1950,M,2.676,N,4.959,K,D*22
$GPGGA,154637.20,4612.5383005,N,00605.1063171,E,4,10,0.9,367.819,M,49.520,M,1.60,0195*74
$GPVTG,129.5562,T,129.5562,M,2.662,N,4.933,K,D*2B
$GPGGA,154637.40,4612.5382067,N,00605.1064831,E,4,10,0.9,367.818,M,49.520,M,1.80,0195*72
$RDENS,9172,5679591,PC
$GPVTG,130.3547,T,130.3547,M,2.699,N,5.002,K,D*25
$GPGGA,154637.60,4612.5381078,N,00605.1066481,E,4,10,0.9,367.818,M,49.520,M,0.08,0195*79
$GPVTG,131.5782,T,131.5782,M,2.676,N,4.959,K,D*22
$GPGGA,154638.00,4612.5379125,N,00605.1069732,E,4,10,0.9,367.818,M,49.520,M,0.02,0195*70
$GPVTG,130.0812,T,130.0812,M,2.699,N,5.002,K,D*25
$GPGGA,154638.20,4612.5378162,N,00605.1071359,E,4,10,0.9,367.818,M,49.520,M,0.18,0195*7B
$RDENS,9173,5679680,PC
$GPVTG,129.7597,T,129.7597,M,2.700,N,5.003,K,D*25
$GPGGA,154638.60,4612.5376216,N,00605.1074622,E,4,10,0.9,367.811,M,49.520,M,0.11,0195*7D
$GPVTG,131.5983,T,131.5983,M,2.666,N,4.941,K,D*2A
$GPGGA,154638.80,4612.5375253,N,00605.1076232,E,4,10,0.9,367.808,M,49.520,M,0.31,0195*7C
$GPVTG,131.2285,T,131.2285,M,2.673,N,4.954,K,D*2A
$GPGGA,154639.20,4612.5373300,N,00605.1079460,E,4,10,0.9,367.807,M,49.520,M,0.71,0195*73
$RDENS,9174,5679769,PC
$GPVTG,130.8519,T,130.8519,M,2.716,N,5.033,K,D*21
$GPGGA,154639.40,4612.5372313,N,00605.1081066,E,4,10,0.9,367.805,M,49.520,M,0.91,0195*7F
$GPVTG,131.4003,T,131.4003,M,2.684,N,4.973,K,D*27
$GPGGA,154639.80,4612.5370350,N,00605.1084267,E,4,10,0.9,367.814,M,49.520,M,0.10,0195*79
$GPVTG,132.0266,T,132.0266,M,2.653,N,4.916,K,D*2E
$GPGGA,154640.00,4612.5369369,N,00605.1085887,E,4,10,0.9,367.817,M,49.520,M,0.30,0195*79
$RDENS,9175,5679858,PC
$GPVTG,131.1345,T,131.1345,M,2.677,N,4.962,K,D*2B
$GPGGA,154640.40,4612.5367413,N,00605.1089065,E,4,10,0.9,367.817,M,49.520,M,0.70,0195*75
$GPVTG,132.3440,T,132.3440,M,2.671,N,4.950,K,D*2C
$GPGGA,154640.60,4612.5366407,N,00605.1090691,E,4,10,0.9,367.819,M,49.520,M,0.14,0195*7A
$GPVTG,131.6588,T,131.6588,M,2.679,N,4.966,K,D*21
$GPGGA,154641.00,4612.5364473,N,00605.1093856,E,4,10,0.9,367.814,M,49.520,M,0.54,0195*73
$RDENS,9176,5679947,PC
$GPVTG,130.9223,T,130.9223,M,2.620,N,4.856,K,D*2F
$GPGGA,154641.20,4612.5363495,N,00605.1095446,E,4,10,0.9,367.817,M,49.520,M,0.74,0195*74
$GPVTG,131.2305,T,131.2305,M,2.629,N,4.873,K,D*21
$GPGGA,154641.60,4612.5361531,N,00605.1098622,E,4,10,0.9,367.820,M,49.520,M,1.14,0195*73
$GPVTG,131.7769,T,131.7769,M,2.703,N,5.010,K,D*24
$GPGGA,154641.80,4612.5360554,N,00605.1100202,E,4,10,0.9,367.825,M,49.520,M,0.06,0195*7E
$RDENS,9177,5680036,PC
$GPVTG,131.4149,T,131.4149,M,2.674,N,4.956,K,D*2F
$GPGGA,154642.00,4612.5359562,N,00605.1101807,E,4,10,0.9,367.817,M,49.520,M,0.14,0195*76
$GPVTG,130.8384,T,130.8384,M,2.606,N,4.830,K,D*2B
$GPGGA,154642.40,4612.5357649,N,00605.1104977,E,4,10,0.9,367.815,M,49.520,M,0.54,0195*73
$GPVTG,131.7364,T,131.7364,M,2.611,N,4.838,K,D*25
$GPGGA,154642.60,4612.5356678,N,00605.1106544,E,4,10,0.9,367.815,M,49.520,M,0.74,0195*7E
$RDENS,9178,5680125,PC
$GPVTG,130.4673,T,130.4673,M,2.603,N,4.825,K,D*2A
$GPGGA,154643.00,4612.5354811,N,00605.1109694,E,4,10,0.9,367.820,M,49.520,M,1.14,0195*7A
$GPVTG,130.5253,T,130.5253,M,2.611,N,4.838,K,D*25
$GPGGA,154643.20,4612.5353844,N,00605.1111257,E,4,10,0.9,367.817,M,49.520,M,1.34,0195*7B
$GPVTG,131.6514,T,131.6514,M,2.584,N,4.789,K,D*2F
$GPGGA,154643.60,4612.5351951,N,00605.1114376,E,4,10,0.9,367.817,M,49.520,M,0.20,0195*7B
$GPVTG,130.9462,T,130.9462,M,2.601,N,4.821,K,D*2C
$RDENS,9179,5680214,PC
$GPGGA,154643.80,4612.5351002,N,00605.1115956,E,4,10,0.9,367.815,M,49.520,M,0.08,0195*7B
$GPVTG,131.3941,T,131.3941,M,2.566,N,4.756,K,D*21
$GPGGA,154644.20,4612.5349141,N,00605.1119064,E,4,10,0.9,367.823,M,49.520,M,0.48,0195*7C
$GPVTG,131.3350,T,131.3350,M,2.536,N,4.700,K,D*27
$GPGGA,154644.40,4612.5348231,N,00605.1120637,E,4,10,0.9,367.818,M,49.520,M,0.68,0195*7F
$GPVTG,129.3445,T,129.3445,M,2.605,N,4.828,K,D*21
$RDENS,9180,5680303,PC
$GPGGA,154644.80,4612.5346360,N,00605.1123747,E,4,10,0.9,367.821,M,49.520,M,0.07,0195*7E
$GPVTG,131.1356,T,131.1356,M,2.562,N,4.747,K,D*25
$GPGGA,154645.00,4612.5345464,N,00605.1125347,E,4,10,0.9,367.822,M,49.520,M,0.27,0195*74
$GPVTG,129.4305,T,129.4305,M,2.524,N,4.678,K,D*2A
$GPGGA,154645.40,4612.5343658,N,00605.1128480,E,4,10,0.9,367.822,M,49.520,M,0.67,0195*7E
$GPVTG,129.9855,T,129.9855,M,2.520,N,4.670,K,D*26
$RDENS,9181,5680392,PC
$GPGGA,154645.60,4612.5342781,N,00605.1130065,E,4,10,0.9,367.815,M,49.520,M,0.07,0195*7C
$GPVTG,129.2879,T,129.2879,M,2.526,N,4.681,K,D*2E
$GPGGA,154646.00,4612.5341017,N,00605.1133212,E,4,10,0.9,367.810,M,49.520,M,0.47,0195*72
$GPVTG,129.1006,T,129.1006,M,2.538,N,4.703,K,D*2A
$GPGGA,154646.20,4612.5340134,N,00605.1134796,E,4,10,0.9,367.810,M,49.520,M,0.67,0195*7D
$GPVTG,128.6294,T,128.6294,M,2.514,N,4.660,K,D*20
$RDENS,9182,5680481,PC
$GPGGA,154646.60,4612.5338393,N,00605.1137920,E,4,10,0.9,367.820,M,49.520,M,0.11,0195*7B
$GPVTG,128.7691,T,128.7691,M,2.497,N,4.627,K,D*29
$GPGGA,154646.80,4612.5337527,N,00605.1139496,E,4,10,0.9,367.822,M,49.520,M,0.31,0195*7D
$GPVTG,127.4377,T,127.4377,M,2.517,N,4.666,K,D*25
$GPGGA,154647.00,4612.5336676,N,00605.1141114,E,4,10,0.9,367.826,M,49.520,M,0.51,0195*70
$GPVTG,128.8982,T,128.8982,M,2.535,N,4.698,K,D*24
$RDENS,9183,5680570,PC
$GPGGA,154647.40,4612.5334965,N,00605.1144241,E,4,10,0.9,367.836,M,49.520,M,0.91,0195*70
$GPVTG,128.0169,T,128.0169,M,2.472,N,4.582,K,D*2E
$GPGGA,154647.60,4612.5334097,N,00605.1145818,E,4,10,0.9,367.829,M,49.520,M,1.11,0195*76
$GPVTG,128.4165,T,128.4165,M,2.485,N,4.606,K,D*29
$GPGGA,154648.00,4612.5332413,N,00605.1148981,E,4,10,0.9,367.827,M,49.520,M,1.51,0195*77
$GPVTG,127.5070,T,127.5070,M,2.492,N,4.619,K,D*21
$RDENS,9184,5680659,PC
$GPGGA,154648.20,4612.5331541,N,00605.1150551,E,4,10,0.9,367.817,M,49.520,M,1.71,0195*79
$GPVTG,127.6762,T,127.6762,M,2.479,N,4.594,K,D*22
$GPGGA,154648.60,4612.5329876,N,00605.1153715,E,4,10,0.9,367.818,M,49.520,M,0.08,0195*7C
$GPVTG,127.2066,T,127.2066,M,2.490,N,4.615,K,D*2F
$GPGGA,154648.80,4612.5329035,N,00605.1155287,E,4,10,0.9,367.815,M,49.520,M,0.06,0195*76
$GPVTG,127.3778,T,127.3778,M,2.517,N,4.665,K,D*26
$RDENS,9185,5680748,PC
$GPGGA,154649.20,4612.5327310,N,00605.1158472,E,4,10,0.9,367.825,M,49.520,M,0.34,0195*74
$GPVTG,128.3246,T,128.3246,M,2.505,N,4.642,K,D*20
$GPGGA,154649.40,4612.5326449,N,00605.1160048,E,4,10,0.9,367.825,M,49.520,M,0.54,0195*78
$GPVTG,126.8369,T,126.8369,M,2.479,N,4.593,K,D*25
$GPGGA,154649.80,4612.5324752,N,00605.1163207,E,4,10,0.9,367.818,M,49.520,M,0.94,0195*77
$GPVTG,128.7618,T,128.7618,M,2.511,N,4.653,K,D*25
$RDENS,9186,5680837,PC
$GPGGA,154650.00,4612.5323929,N,00605.1164787,E,4,10,0.9,367.814,M,49.520,M,1.14,0195*7D
$GPVTG,128.5839,T,128.5839,M,2.518,N,4.667,K,D*2B
$GPGGA,154650.40,4612.5322186,N,00605.1167969,E,4,10,0.9,367.820,M,49.520,M,1.54,0195*7B
$GPVTG,127.9138,T,127.9138,M,2.531,N,4.690,K,D*28
$GPVTG,127.0206,T,127.0206,M,2.467,N,4.572,K,D*25
$GPGGA,154650.80,4612.5320503,N,00605.1171107,E,4,10,0.9,367.813,M,49.520,M,0.32,0195*7A
$RDENS,9187,5680926,PC
$GPVTG,129.3461,T,129.3461,M,2.574,N,4.770,K,D*26
$GPGGA,154651.00,4612.5319592,N,00605.1172716,E,4,10,0.9,367.810,M,49.520,M,0.52,0195*71
$GPVTG,128.3482,T,128.3482,M,2.482,N,4.601,K,D*29
$GPGGA,154651.40,4612.5317860,N,00605.1175842,E,4,10,0.9,367.813,M,49.520,M,0.92,0195*7D
$GPVTG,128.8131,T,128.8131,M,2.528,N,4.685,K,D*24
$RDENS,9188,5681015,PC
$GPGGA,154651.60,4612.5316992,N,00605.1177406,E,4,10,0.9,367.808,M,49.520,M,1.12,0195*7F
$GPVTG,129.2935,T,129.2935,M,2.558,N,4.741,K,D*2A
$GPGGA,154652.00,4612.5315228,N,00605.1180528,E,4,10,0.9,367.803,M,49.520,M,1.52,0195*79
$GPVTG,128.8109,T,128.8109,M,2.492,N,4.619,K,D*21
$GPGGA,154652.20,4612.5314361,N,00605.1182093,E,4,10,0.9,367.797,M,49.520,M,0.02,0195*77
$GPVTG,129.0651,T,129.0651,M,2.505,N,4.643,K,D*21
$GPGGA,154652.60,4612.5312607,N,00605.1185159,E,4,10,0.9,367.795,M,49.520,M,0.05,0195*75
$RDENS,9189,5681104,PC
$GPVTG,130.3168,T,130.3168,M,2.511,N,4.653,K,D*25
$GPGGA,154652.80,4612.5311750,N,00605.1186675,E,4,10,0.9,367.802,M,49.520,M,0.05,0195*70
$GPVTG,130.2761,T,130.2761,M,2.537,N,4.701,K,D*27
$GPGGA,154653.20,4612.5309946,N,00605.1189772,E,4,10,0.9,367.803,M,49.520,M,0.45,0195*77
$GPVTG,129.6592,T,129.6592,M,2.520,N,4.670,K,D*26
$GPGGA,154653.40,4612.5309053,N,00605.1191339,E,4,11,0.8,367.797,M,49.520,M,0.65,0195*7E
$RDENS,9190,5681193,PC
$GPVTG,129.9892,T,129.9892,M,2.546,N,4.718,K,D*29
$GPGGA,154653.80,4612.5307215,N,00605.1194511,E,4,11,0.8,367.790,M,49.520,M,1.05,0195*75
$GPVTG,129.9523,T,129.9523,M,2.604,N,4.827,K,D*2F
$GPGGA,154654.00,4612.5306325,N,00605.1196106,E,4,11,0.8,367.785,M,49.520,M,1.25,0195*7F
$GPVTG,129.6993,T,129.6993,M,2.586,N,4.792,K,D*27
$GPGGA,154654.40,4612.5304494,N,00605.1199228,E,4,11,0.8,367.790,M,49.520,M,1.65,0195*74
$RDENS,9191,5681282,PC
$GPVTG,130.7437,T,130.7437,M,2.544,N,4.714,K,D*27
$GPGGA,154654.60,4612.5303582,N,00605.1200810,E,4,11,0.8,367.790,M,49.520,M,1.85,0195*7B
$GPVTG,131.1223,T,131.1223,M,2.617,N,4.850,K,D*2D
$GPGGA,154655.00,4612.5301688,N,00605.1203979,E,4,11,0.8,367.807,M,49.520,M,0.19,0195*7F
$GPVTG,130.6583,T,130.6583,M,2.581,N,4.784,K,D*27
$GPGGA,154655.20,4612.5300770,N,00605.1205570,E,4,11,0.8,367.795,M,49.520,M,0.39,0195*7F
$RDENS,9192,5681371,PC
$GPVTG,131.4031,T,131.4031,M,2.617,N,4.850,K,D*2D
$GPGGA,154655.40,4612.5299812,N,00605.1207140,E,4,11,0.8,367.787,M,49.520,M,0.59,0195*73
$GPVTG,130.3472,T,130.3472,M,2.559,N,4.743,K,D*29
$GPGGA,154655.80,4612.5297949,N,00605.1210269,E,4,11,0.8,367.774,M,49.520,M,0.99,0195*70
$GPVTG,130.6291,T,130.6291,M,2.587,N,4.794,K,D*20
$GPGGA,154656.00,4612.5296990,N,00605.1211820,E,4,11,0.8,367.781,M,49.520,M,1.19,0195*7B
$RDENS,9193,5681460,PC
$GPVTG,131.1409,T,131.1409,M,2.564,N,4.752,K,D*27
$GPGGA,154656.40,4612.5295083,N,00605.1214896,E,4,11,0.8,367.792,M,49.520,M,1.59,0195*79
$GPVTG,132.4423,T,132.4423,M,2.594,N,4.808,K,D*28
$GPGGA,154656.60,4612.5294137,N,00605.1216453,E,4,11,0.8,367.801,M,49.520,M,0.13,0195*79
$GPVTG,132.2334,T,132.2334,M,2.596,N,4.812,K,D*21
$GPGGA,154657.00,4612.5292176,N,00605.1219557,E,4,11,0.8,367.796,M,49.520,M,0.07,0195*73
$RDENS,9194,5681549,PC
$GPVTG,131.8156,T,131.8156,M,2.618,N,4.852,K,D*20
$GPGGA,154657.20,4612.5291207,N,00605.1221097,E,4,11,0.8,367.789,M,49.520,M,0.07,0195*7B
$GPVTG,132.0903,T,132.0903,M,2.612,N,4.841,K,D*28
$GPGGA,154657.60,4612.5289235,N,00605.1224155,E,4,11,0.8,367.784,M,49.520,M,0.15,0195*73
$GPVTG,132.4815,T,132.4815,M,2.582,N,4.785,K,D*25
$GPGGA,154657.80,4612.5288252,N,00605.1225708,E,4,11,0.8,367.780,M,49.520,M,0.35,0195*74
$RDENS,9195,5681638,PC
$GPVTG,133.3766,T,133.3766,M,2.594,N,4.808,K,D*28
$GPGGA,154658.20,4612.5286292,N,00605.1228781,E,4,11,0.8,367.789,M,49.520,M,0.75,0195*72
$GPVTG,132.6015,T,132.6015,M,2.615,N,4.846,K,D*28
$GPGGA,154658.40,4612.5285313,N,00605.1230306,E,4,11,0.8,367.796,M,49.520,M,0.95,0195*7D
$GPVTG,133.2364,T,133.2364,M,2.602,N,4.821,K,D*2F
$GPGGA,154658.80,4612.5283335,N,00605.1233357,E,4,11,0.8,367.801,M,49.520,M,1.35,0195*7E
$RDENS,9196,5681727,PC
$GPVTG,133.2018,T,133.2018,M,2.617,N,4.850,K,D*2D
$GPGGA,154659.00,4612.5282363,N,00605.1234884,E,4,11,0.8,367.802,M,49.520,M,1.55,0195*72
$GPVTG,132.4948,T,132.4948,M,2.613,N,4.842,K,D*2A
$GPGGA,154659.40,4612.5280399,N,00605.1237961,E,4,11,0.8,367.788,M,49.520,M,1.95,0195*79
$GPVTG,132.4733,T,132.4733,M,2.604,N,4.826,K,D*2E
$GPGGA,154659.60,4612.5279406,N,00605.1239490,E,4,11,0.8,367.785,M,49.520,M,2.15,0195*77
$RDENS,9197,5681816,PC
$GPVTG,132.4295,T,132.4295,M,2.598,N,4.815,K,D*28
$GPGGA,154700.00,4612.5277463,N,00605.1242554,E,4,11,0.8,367.791,M,49.520,M,0.07,0195*70
$GPVTG,132.3717,T,132.3717,M,2.591,N,4.801,K,D*24
$GPGGA,154700.20,4612.5276491,N,00605.1244081,E,4,11,0.8,367.801,M,49.520,M,0.27,0195*71
$GPVTG,133.0782,T,133.0782,M,2.587,N,4.795,K,D*21
$GPGGA,154700.40,4612.5275503,N,00605.1245603,E,4,11,0.8,367.801,M,49.520,M,0.47,0195*75
$RDENS,9198,5681905,PC
$GPVTG,132.5718,T,132.5718,M,2.608,N,4.833,K,D*26
$GPGGA,154700.80,4612.5273546,N,00605.1248654,E,4,11,0.8,367.811,M,49.520,M,0.87,0195*7C
$GPVTG,133.1225,T,133.1225,M,2.588,N,4.796,K,D*2D
$GPGGA,154701.00,4612.5272575,N,00605.1250188,E,4,11,0.8,367.799,M,49.520,M,1.07,0195*7D
$GPVTG,131.7606,T,131.7606,M,2.577,N,4.775,K,D*20
$GPGGA,154701.40,4612.5270627,N,00605.1253265,E,4,11,0.8,367.797,M,49.520,M,1.47,0195*76
$GPVTG,132.7726,T,132.7726,M,2.627,N,4.869,K,D*24
$RDENS,9199,5681994,PC
$GPGGA,154701.60,4612.5269658,N,00605.1254780,E,4,11,0.8,367.796,M,49.520,M,1.67,0195*7E
$GPVTG,131.8989,T,131.8989,M,2.581,N,4.784,K,D*27
$GPGGA,154702.00,4612.5267718,N,00605.1257866,E,4,11,0.8,367.798,M,49.520,M,2.07,0195*7F
$GPVTG,132.4809,T,132.4809,M,2.608,N,4.834,K,D*21
$GPGGA,154702.20,4612.5266764,N,00605.1259413,E,4,11,0.8,367.795,M,49.520,M,0.14,0195*7A
$RDENS,9200,5682083,PC
$GPVTG,131.3938,T,131.3938,M,2.583,N,4.788,K,D*29
$GPGGA,154702.60,4612.5264816,N,00605.1262514,E,4,11,0.8,367.799,M,49.520,M,0.26,0195*75
$GPVTG,132.8593,T,132.8593,M,2.602,N,4.823,K,D*2D
$GPGGA,154702.80,4612.5263870,N,00605.1264058,E,4,11,0.8,367.793,M,49.520,M,0.46,0195*7B
$GPVTG,131.9867,T,131.9867,M,2.615,N,4.846,K,D*28
$GPGGA,154703.20,4612.5261959,N,00605.1267176,E,4,11,0.8,367.794,M,49.520,M,0.86,0195*7D
$GPVTG,131.2599,T,131.2599,M,2.598,N,4.814,K,D*29
$RDENS,9201,5682172,PC
$GPGGA,154703.40,4612.5261008,N,00605.1268731,E,4,11,0.8,367.797,M,49.520,M,1.06,0195*76
$GPVTG,131.1622,T,131.1622,M,2.580,N,4.781,K,D*23
$GPGGA,154703.80,4612.5259116,N,00605.1271841,E,4,11,0.8,367.801,M,49.520,M,1.46,0195*7B
$GPVTG,131.4271,T,131.4271,M,2.578,N,4.778,K,D*22
$GPGGA,154704.00,4612.5258175,N,00605.1273406,E,4,11,0.8,367.800,M,49.520,M,1.66,0195*7E
$GPVTG,130.4654,T,130.4654,M,2.593,N,4.806,K,D*21
$RDENS,9202,5682261,PC
$GPGGA,154704.40,4612.5256303,N,00605.1276559,E,4,11,0.8,367.795,M,49.520,M,0.18,0195*72
$GPVTG,131.3891,T,131.3891,M,2.592,N,4.804,K,D*22
$GPGGA,154704.60,4612.5255389,N,00605.1278110,E,4,11,0.8,367.791,M,49.520,M,0.10,0195*7A
$GPVTG,130.5388,T,130.5388,M,2.584,N,4.788,K,D*2E
$GPGGA,154704.80,4612.5254456,N,00605.1279684,E,4,11,0.8,367.795,M,49.520,M,0.30,0195*7D
$GPVTG,131.2576,T,131.2576,M,2.605,N,4.827,K,D*2E
$RDENS,9203,5682350,PC
$GPGGA,154705.20,4612.5252570,N,00605.1282823,E,4,11,0.8,367.801,M,49.520,M,0.70,0195*74
$GPVTG,130.5769,T,130.5769,M,2.590,N,4.800,K,D*24
$GPGGA,154705.40,4612.5251655,N,00605.1284411,E,4,11,0.8,367.798,M,49.520,M,0.90,0195*7F
$GPVTG,130.2274,T,130.2274,M,2.613,N,4.843,K,D*2B
$GPGGA,154705.80,4612.5249785,N,00605.1287568,E,4,11,0.8,367.798,M,49.520,M,1.30,0195*71
$GPVTG,130.3553,T,130.3553,M,2.600,N,4.819,K,D*26
$RDENS,9204,5682439,PC
$GPGGA,154706.00,4612.5248839,N,00605.1289163,E,4,11,0.8,367.796,M,49.520,M,1.50,0195*7A
$GPVTG,130.1444,T,130.1444,M,2.590,N,4.800,K,D*24
$GPGGA,154706.40,4612.5246984,N,00605.1292350,E,4,11,0.8,367.789,M,49.520,M,1.90,0195*7D
$GPVTG,129.7623,T,129.7623,M,2.591,N,4.801,K,D*24
$GPGGA,154706.60,4612.5246053,N,00605.1293932,E,4,11,0.8,367.790,M,49.520,M,2.10,0195*70
$GPVTG,130.1967,T,130.1967,M,2.573,N,4.768,K,D*28
$RDENS,9205,5682528,PC
$GPGGA,154707.00,4612.5244223,N,00605.1297095,E,4,11,0.8,367.793,M,49.520,M,2.50,0195*77
$GPVTG,129.6154,T,129.6154,M,2.579,N,4.780,K,D*24
$GPGGA,154707.20,4612.5243335,N,00605.1298674,E,4,11,0.8,367.798,M,49.520,M,2.70,0195*7B
$GPVTG,130.2119,T,130.2119,M,2.575,N,4.773,K,D*24
$GPGGA,154707.60,4612.5241508,N,00605.1301833,E,4,11,0.8,367.797,M,49.519,M,3.10,0195*7B
$GPVTG,129.4380,T,129.4380,M,2.550,N,4.726,K,D*23
$RDENS,9206,5682617,PC
$GPGGA,154707.80,4612.5240591,N,00605.1303426,E,4,11,0.8,367.795,M,49.519,M,3.30,0195*7E
$GPVTG,129.7293,T,129.7293,M,2.594,N,4.807,K,D*27
$GPGGA,154708.20,4612.5238753,N,00605.1306589,E,4,11,0.8,367.795,M,49.519,M,3.70,0195*7D
$GPVTG,129.9149,T,129.9149,M,2.559,N,4.743,K,D*29
$GPGGA,154708.40,4612.5237857,N,00605.1308197,E,4,11,0.8,367.801,M,49.519,M,3.90,0195*76
$GPVTG,129.4129,T,129.4129,M,2.554,N,4.734,K,D*24
$RDENS,9207,5682706,PC
$GPGGA,154708.80,4612.5236054,N,00605.1311376,E,4,11,0.8,367.800,M,49.519,M,4.30,0195*79
$GPVTG,128.9014,T,128.9014,M,2.573,N,4.768,K,D*28
$GPGGA,154709.00,4612.5235163,N,00605.1312954,E,4,11,0.8,367.801,M,49.519,M,4.50,0195*78
$GPVTG,129.4598,T,129.4598,M,2.600,N,4.819,K,D*26
$GPGGA,154709.20,4612.5234244,N,00605.1314560,E,4,11,0.8,367.797,M,49.519,M,4.70,0195*72
$GPVTG,129.1096,T,129.1096,M,2.514,N,4.658,K,D*2B
$RDENS,9208,5682795,PC
$GPGGA,154709.60,4612.5232460,N,00605.1317713,E,4,11,0.8,367.793,M,49.519,M,5.10,0195*76
$GPVTG,129.5668,T,129.5668,M,2.560,N,4.745,K,D*25
$GPGGA,154709.80,4612.5231593,N,00605.1319296,E,4,11,0.8,367.800,M,49.519,M,5.30,0195*77
$GPVTG,129.6639,T,129.6639,M,2.562,N,4.748,K,D*2A
$GPGGA,154710.20,4612.5229798,N,00605.1322480,E,4,11,0.8,367.796,M,49.519,M,5.70,0195*78
$GPVTG,128.0974,T,128.0974,M,2.537,N,4.701,K,D*27
$RDENS,9209,5682884,PC
$GPGGA,154710.40,4612.5228944,N,00605.1324067,E,4,11,0.8,367.791,M,49.519,M,5.90,0195*72
$GPVTG,128.5211,T,128.5211,M,2.546,N,4.718,K,D*29
$GPGGA,154710.80,4612.5227172,N,00605.1327255,E,4,11,0.8,367.795,M,49.519,M,6.30,0195*71
$GPVTG,128.6822,T,128.6822,M,2.528,N,4.685,K,D*24
$GPGGA,154711.00,4612.5226309,N,00605.1328852,E,4,11,0.8,367.794,M,49.519,M,6.50,0195*72
$GPVTG,127.7556,T,127.7556,M,2.528,N,4.686,K,D*27
$RDENS,9210,5682972,PC
$GPGGA,154711.40,4612.5224565,N,00605.1332071,E,4,11,0.8,367.796,M,49.519,M,6.90,0195*74
$GPVTG,128.0842,T,128.0842,M,2.554,N,4.732,K,D*22
$GPGGA,154711.60,4612.5223678,N,00605.1333681,E,4,11,0.8,367.792,M,49.519,M,7.10,0195*7B
$GPVTG,127.7020,T,127.7020,M,2.559,N,4.743,K,D*29
$GPGGA,154712.00,4612.5221930,N,00605.1336914,E,4,11,0.8,367.792,M,49.519,M,7.50,0195*7D
$GPVTG,128.0310,T,128.0310,M,2.512,N,4.656,K,D*23
$RDENS,9211,5683061,PC
$GPGGA,154712.20,4612.5221026,N,00605.1338566,E,4,11,0.8,367.790,M,49.519,M,7.70,0195*76
$GPVTG,126.8264,T,126.8264,M,2.562,N,4.748,K,D*2A
$GPGGA,154712.60,4612.5219294,N,00605.1341822,E,4,11,0.8,367.794,M,49.519,M,8.10,0195*7C
$GPVTG,128.2371,T,128.2371,M,2.592,N,4.804,K,D*22
$GPVTG,127.4784,T,127.4784,M,2.582,N,4.785,K,D*25
$GPGGA,154713.00,4612.5217554,N,00605.1345078,E,4,11,0.8,367.791,M,49.519,M,8.50,0195*7C
$RDENS,9212,5683150,PC
$GPVTG,127.5227,T,127.5227,M,2.609,N,4.836,K,D*22
$GPGGA,154713.40,4612.5215810,N,00605.1348359,E,4,11,0.8,367.779,M,49.519,M,8.90,0195*70
$GPVTG,127.0533,T,127.0533,M,2.557,N,4.739,K,D*2A
$GPGGA,154713.60,4612.5214944,N,00605.1349992,E,4,11,0.8,367.789,M,49.519,M,9.10,0195*79
$GPVTG,127.5917,T,127.5917,M,2.600,N,4.818,K,D*27
$GPGGA,154713.80,4612.5214066,N,00605.1351635,E,4,11,0.8,367.778,M,49.519,M,9.30,0195*79
$RDENS,9213,5683239,PC
$GPVTG,127.6782,T,127.6782,M,2.562,N,4.748,K,D*2A
$GPGGA,154714.20,4612.5212278,N,00605.1354893,E,4,11,0.8,367.785,M,49.519,M,9.70,0195*7E
$GPVTG,128.0607,T,128.0607,M,2.614,N,4.845,K,D*2A
$GPGGA,154714.40,4612.5211414,N,00605.1356554,E,4,11,0.8,367.788,M,49.519,M,9.90,0195*70
$GPVTG,126.8859,T,126.8859,M,2.565,N,4.754,K,D*20
$GPGGA,154714.80,4612.5209682,N,00605.1359812,E,4,11,0.8,367.790,M,49.519,M,10.30,0195*43
$RDENS,9214,5683327,PC
$GPVTG,127.6782,T,127.6782,M,2.577,N,4.775,K,D*20
$GPGGA,154715.00,4612.5208802,N,00605.1361440,E,4,11,0.8,367.783,M,49.519,M,10.50,0195*49
$GPVTG,127.2412,T,127.2412,M,2.572,N,4.767,K,D*26
$GPGGA,154715.40,4612.5207053,N,00605.1364734,E,4,11,0.8,367.791,M,49.519,M,10.90,0195*44
$GPVTG,127.9435,T,127.9435,M,2.602,N,4.823,K,D*2D
$GPGGA,154715.60,4612.5206169,N,00605.1366349,E,4,11,0.8,367.785,M,49.519,M,11.10,0195*4F
$RDENS,9215,5683415,PC
$GPVTG,127.1190,T,127.1190,M,2.570,N,4.764,K,D*27
$GPGGA,154716.00,4612.5204420,N,00605.1369629,E,4,11,0.8,367.786,M,49.519,M,11.50,0195*4B
$GPVTG,127.7378,T,127.7378,M,2.592,N,4.804,K,D*22
$GPGGA,154716.20,4612.5203540,N,00605.1371267,E,4,11,0.8,367.784,M,49.519,M,11.70,0195*4E
$GPVTG,127.6831,T,127.6831,M,2.571,N,4.764,K,D*26
$GPGGA,154716.60,4612.5201910,N,00605.1374483,E,4,11,0.8,367.783,M,49.519,M,0.02,0195*7A
$RDENS,9216,5683502,PC
$GPVTG,127.0498,T,127.0498,M,2.562,N,4.748,K,D*2A
$GPGGA,154716.80,4612.5201048,N,00605.1376158,E,4,11,0.8,367.792,M,49.519,M,0.11,0195*73
$GPVTG,127.2496,T,127.2496,M,2.581,N,4.784,K,D*27
$GPGGA,154717.20,4612.5199320,N,00605.1379441,E,4,11,0.8,367.788,M,49.519,M,0.51,0195*7A
$GPVTG,126.7487,T,126.7487,M,2.576,N,4.774,K,D*20
$GPGGA,154717.40,4612.5198446,N,00605.1381075,E,4,11,0.8,367.785,M,49.519,M,0.71,0195*71
$RDENS,9217,5683590,PC
$GPVTG,126.0484,T,126.0484,M,2.587,N,4.794,K,D*20
$GPGGA,154717.80,4612.5196742,N,00605.1384388,E,4,11,0.8,367.781,M,49.519,M,1.11,0195*73
$GPVTG,126.4879,T,126.4879,M,2.569,N,4.761,K,D*2A
$GPGGA,154718.00,4612.5195866,N,00605.1386049,E,4,11,0.8,367.782,M,49.519,M,1.31,0195*73
$GPVTG,125.6519,T,125.6519,M,2.569,N,4.761,K,D*2A
$GPGGA,154718.40,4612.5194173,N,00605.1389347,E,4,11,0.8,367.787,M,49.519,M,1.71,0195*78
$RDENS,9218,5683678,PC
$GPVTG,127.0665,T,127.0665,M,2.585,N,4.791,K,D*27
$GPGGA,154718.60,4612.5193307,N,00605.1391014,E,4,11,0.8,367.783,M,49.519,M,1.91,0195*7A
$GPVTG,126.7746,T,126.7746,M,2.548,N,4.723,K,D*2F
$GPGGA,154718.80,4612.5192462,N,00605.1392644,E,4,11,0.8,367.786,M,49.519,M,2.11,0195*7F
$GPVTG,126.4004,T,126.4004,M,2.582,N,4.785,K,D*25
$GPGGA,154719.20,4612.5190764,N,00605.1395996,E,4,11,0.8,367.785,M,49.519,M,2.51,0195*73
$RDENS,9219,5683766,PC
$GPVTG,125.9443,T,125.9443,M,2.588,N,4.795,K,D*2E
$GPGGA,154719.40,4612.5189931,N,00605.1397640,E,4,11,0.8,367.786,M,49.519,M,2.71,0195*74
$GPVTG,126.7366,T,126.7366,M,2.583,N,4.787,K,D*26
$GPGGA,154719.80,4612.5188234,N,00605.1400986,E,4,11,0.8,367.786,M,49.519,M,3.11,0195*7C
$GPVTG,125.8988,T,125.8988,M,2.577,N,4.776,K,D*23
$GPGGA,154720.00,4612.5187407,N,00605.1402662,E,4,11,0.8,367.788,M,49.519,M,3.31,0195*7C
$RDENS,9220,5683854,PC
$GPVTG,125.8837,T,125.8837,M,2.583,N,4.788,K,D*29
$GPGGA,154720.40,4612.5185716,N,00605.1406026,E,4,11,0.8,367.770,M,49.519,M,3.71,0195*78
$GPVTG,124.5517,T,124.5517,M,2.584,N,4.789,K,D*2F
$GPGGA,154720.60,4612.5184868,N,00605.1407697,E,4,11,0.8,367.770,M,49.519,M,3.91,0195*7E
$GPVTG,124.3599,T,124.3599,M,2.546,N,4.719,K,D*28
$GPGGA,154721.00,4612.5183254,N,00605.1411073,E,4,11,0.8,367.784,M,49.519,M,4.31,0195*76
$RDENS,9221,5683942,PC
$GPVTG,124.8586,T,124.8586,M,2.576,N,4.773,K,D*27
$GPGGA,154721.20,4612.5182469,N,00605.1412771,E,4,11,0.8,367.797,M,49.519,M,4.51,0195*7F
$GPVTG,123.7714,T,123.7714,M,2.572,N,4.767,K,D*26
$GPGGA,154721.60,4612.5180846,N,00605.1416161,E,4,11,0.8,367.793,M,49.519,M,4.91,0195*73
$GPVTG,124.4755,T,124.4755,M,2.572,N,4.766,K,D*27
$GPGGA,154721.80,4612.5180026,N,00605.1417860,E,4,11,0.8,367.790,M,49.519,M,5.11,0195*70
$RDENS,9222,5684030,PC
$GPVTG,124.4365,T,124.4365,M,2.572,N,4.767,K,D*26
$GPGGA,154722.20,4612.5178409,N,00605.1421265,E,4,11,0.8,367.782,M,49.519,M,5.51,0195*7A
$GPVTG,123.7859,T,123.7859,M,2.568,N,4.759,K,D*20
$GPGGA,154722.40,4612.5177586,N,00605.1422979,E,4,11,0.8,367.786,M,49.519,M,5.71,0195*76
$GPVTG,123.2904,T,123.2904,M,2.577,N,4.775,K,D*20
$GPGGA,154722.80,4612.5176011,N,00605.1426411,E,4,11,0.8,367.791,M,49.519,M,6.11,0195*74
$RDENS,9223,5684118,PC
$GPVTG,124.1432,T,124.1432,M,2.572,N,4.766,K,D*27
$GPGGA,154723.00,4612.5175209,N,00605.1428119,E,4,11,0.8,367.789,M,49.519,M,6.31,0195*7D
$GPVTG,123.0866,T,123.0866,M,2.572,N,4.767,K,D*26
$GPGGA,154723.20,4612.5174439,N,00605.1429841,E,4,11,0.8,367.798,M,49.519,M,6.51,0195*78
$GPVTG,123.4736,T,123.4736,M,2.568,N,4.759,K,D*20
$GPGGA,154723.60,4612.5172847,N,00605.1433305,E,4,11,0.8,367.801,M,49.519,M,6.91,0195*7C
$RDENS,9224,5684206,PC
$GPVTG,122.3910,T,122.3910,M,2.538,N,4.703,K,D*2A
$GPGGA,154723.80,4612.5172064,N,00605.1435038,E,4,11,0.8,367.795,M,49.519,M,7.11,0195*7B
$GPVTG,121.9149,T,121.9149,M,2.570,N,4.763,K,D*20
$GPGGA,154724.20,4612.5170536,N,00605.1438476,E,4,11,0.8,367.795,M,49.519,M,7.51,0195*71
$GPVTG,123.5837,T,123.5837,M,2.577,N,4.775,K,D*20
$GPGGA,154724.40,4612.5169778,N,00605.1440188,E,4,11,0.8,367.799,M,49.519,M,7.71,0195*72
$RDENS,9225,5684294,PC
$GPVTG,121.8439,T,121.8439,M,2.574,N,4.769,K,D*2E
$GPGGA,154724.80,4612.5168268,N,00605.1443685,E,4,11,0.8,367.790,M,49.519,M,8.11,0195*72
$GPVTG,121.3523,T,121.3523,M,2.570,N,4.762,K,D*21
$GPGGA,154725.00,4612.5167452,N,00605.1445455,E,4,11,0.8,367.795,M,49.519,M,8.31,0195*75
$GPVTG,121.5563,T,121.5563,M,2.550,N,4.725,K,D*20
$GPGGA,154725.40,4612.5165929,N,00605.1448950,E,4,11,0.8,367.772,M,49.519,M,8.71,0195*7A
$RDENS,9226,5684382,PC
$GPVTG,122.0966,T,122.0966,M,2.625,N,4.866,K,D*29
$GPGGA,154725.60,4612.5165202,N,00605.1450687,E,4,11,0.8,367.776,M,49.519,M,8.91,0195*7C
$GPVTG,121.2316,T,121.2316,M,2.555,N,4.735,K,D*24
$GPGGA,154726.00,4612.5163718,N,00605.1454189,E,4,11,0.8,367.789,M,49.519,M,9.31,0195*77
$GPVTG,120.6599,T,120.6599,M,2.598,N,4.815,K,D*28
$GPGGA,154726.20,4612.5163007,N,00605.1455926,E,2,11,0.8,367.792,M,49.519,M,9.51,0195*7A
$RDENS,9227,5684470,PC
$GPVTG,120.6025,T,120.6025,M,2.561,N,4.746,K,D*27
$GPGGA,154726.60,4612.5161589,N,00605.1459416,E,2,11,0.8,367.795,M,49.519,M,9.91,0195*76
$GPVTG,119.7563,T,119.7563,M,2.494,N,4.623,K,D*2E
$GPGGA,154726.80,4612.5160848,N,00605.1461188,E,2,11,0.8,367.797,M,49.519,M,10.11,0195*42
$GPVTG,118.7505,T,118.7505,M,2.430,N,4.504,K,D*26
$RDENS,9228,5684558,PC
$GPGGA,154727.20,4612.5159460,N,00605.1464661,E,2,11,0.8,367.809,M,49.519,M,10.51,0195*4C
$GPVTG,122.0164,T,122.0164,M,2.569,N,4.760,K,D*2B
$GPGGA,154727.40,4612.5158645,N,00605.1466426,E,2,10,1.1,367.787,M,49.519,M,10.71,0195*4F
$GPVTG,120.5664,T,120.5664,M,2.544,N,4.714,K,D*27
$GPGGA,154727.80,4612.5157205,N,00605.1469970,E,2,10,1.1,367.788,M,49.519,M,11.11,0195*45
$GPVTG,120.2249,T,120.2249,M,2.586,N,4.793,K,D*26
$RDENS,9229,5684646,PC
$GPGGA,154728.00,4612.5156495,N,00605.1471737,E,2,10,1.1,367.785,M,49.519,M,11.31,0195*47
$GPVTG,119.5239,T,119.5239,M,2.608,N,4.834,K,D*21
$GPGGA,154728.40,4612.5155087,N,00605.1475283,E,2,10,1.1,367.792,M,49.519,M,11.71,0195*4B
$GPVTG,119.9267,T,119.9267,M,2.512,N,4.655,K,D*20
$GPGGA,154728.60,4612.5154402,N,00605.1477045,E,2,10,1.1,367.791,M,49.519,M,11.91,0195*46
$GPVTG,118.0585,T,118.0585,M,2.534,N,4.695,K,D*28
$RDENS,9230,5684734,PC
$GPGGA,154728.80,4612.5153727,N,00605.1478822,E,2,10,1.1,367.785,M,49.519,M,12.11,0195*43
$GPVTG,118.9433,T,118.9433,M,2.525,N,4.680,K,D*2C
$GPGGA,154729.20,4612.5152327,N,00605.1482382,E,2,10,1.1,367.790,M,49.519,M,12.51,0195*49
$GPVTG,119.3578,T,119.3578,M,2.533,N,4.695,K,D*2F
$GPGGA,154729.40,4612.5151629,N,00605.1484167,E,2,10,1.1,367.789,M,49.519,M,12.71,0195*42
$GPVTG,119.8025,T,119.8025,M,2.553,N,4.732,K,D*25
$RDENS,9231,5684823,PC
$GPGGA,154729.80,4612.5150288,N,00605.1487683,E,2,10,1.1,367.802,M,49.519,M,13.11,0195*45
$GPVTG,118.1790,T,118.1790,M,2.516,N,4.662,K,D*20
$GPGGA,154730.00,4612.5149573,N,00605.1489491,E,2,10,1.1,367.799,M,49.519,M,13.31,0195*4E
$GPVTG,117.3716,T,117.3716,M,2.534,N,4.696,K,D*2B
$GPGGA,154730.40,4612.5148220,N,00605.1493057,E,2,10,1.1,367.804,M,49.519,M,13.71,0195*40
$GPVTG,118.1528,T,118.1528,M,2.537,N,4.702,K,D*24
$RDENS,9232,5684911,PC
$GPGGA,154730.60,4612.5147546,N,00605.1494797,E,2,10,1.1,367.799,M,49.519,M,13.91,0195*43
$GPVTG,118.0900,T,118.0900,M,2.427,N,4.498,K,D*24
$GPGGA,154731.00,4612.5146213,N,00605.1498236,E,2,10,1.1,367.793,M,49.519,M,14.31,0195*47
$GPVTG,118.9578,T,118.9578,M,2.446,N,4.533,K,D*23
$GPGGA,154731.20,4612.5145543,N,00605.1499878,E,2,10,1.1,367.795,M,49.519,M,14.51,0195*45
$GPVTG,122.4138,T,122.4138,M,2.356,N,4.366,K,D*23
$RDENS,9233,5684999,PC
$GPGGA,154731.60,4612.5144271,N,00605.1503117,E,2,10,1.1,367.797,M,49.519,M,14.91,0195*4A
$GPVTG,119.4898,T,119.4898,M,2.367,N,4.386,K,D*2F
$GPGGA,154731.80,4612.5143610,N,00605.1504689,E,2,10,1.1,367.801,M,49.519,M,15.11,0195*4E
$GPVTG,118.8440,T,118.8440,M,2.259,N,4.187,K,D*20
$GPGGA,154732.20,4612.5142318,N,00605.1507762,E,2,10,1.1,367.809,M,49.519,M,15.51,0195*40
$GPVTG,123.0993,T,123.0993,M,2.267,N,4.202,K,D*23
$RDENS,9234,5685087,PC
$GPGGA,154732.40,4612.5141714,N,00605.1509243,E,2,10,1.1,367.806,M,49.519,M,15.71,0195*48
$GPVTG,121.9123,T,121.9123,M,2.172,N,4.025,K,D*23
$GPGGA,154732.80,4612.5140450,N,00605.1512140,E,2,10,1.1,367.811,M,49.519,M,16.11,0195*4F
$GPVTG,121.3027,T,121.3027,M,2.063,N,3.823,K,D*2B
$GPGGA,154733.00,4612.5139841,N,00605.1513610,E,2,10,1.1,367.814,M,49.519,M,16.31,0195*40
$GPVTG,121.1799,T,121.1799,M,1.985,N,3.679,K,D*28
$RDENS,9235,5685175,PC
$GPGGA,154733.40,4612.5138633,N,00605.1516345,E,2,10,1.1,367.803,M,49.519,M,16.71,0195*4C
$GPVTG,122.1527,T,122.1527,M,2.016,N,3.736,K,D*22
$GPGGA,154733.60,4612.5138045,N,00605.1517685,E,2,10,1.1,367.815,M,49.519,M,16.91,0195*48
$GPVTG,122.4108,T,122.4108,M,1.944,N,3.602,K,D*29
$GPGGA,154734.00,4612.5136887,N,00605.1520342,E,2,10,1.1,367.817,M,49.519,M,17.31,0195*42
$GPVTG,121.5974,T,121.5974,M,1.970,N,3.651,K,D*28
$RDENS,9236,5685263,PC
$GPGGA,154734.20,4612.5136259,N,00605.1521657,E,2,10,1.1,367.826,M,49.519,M,17.51,0195*4D
$GPVTG,120.8644,T,120.8644,M,1.834,N,3.399,K,D*28
$GPGGA,154734.60,4612.5135141,N,00605.1524167,E,2,10,1.1,367.818,M,49.519,M,17.91,0195*40
$GPVTG,123.5443,T,123.5443,M,1.903,N,3.527,K,D*2E
$GPVTG,124.6917,T,124.6917,M,1.821,N,3.375,K,D*2E
$GPGGA,154735.00,4612.5134021,N,00605.1526571,E,2,10,1.1,367.812,M,49.519,M,18.31,0195*4F
$RDENS,9237,5685351,PC
$GPVTG,120.2705,T,120.2705,M,1.769,N,3.279,K,D*20
$GPGGA,154735.20,4612.5133517,N,00605.1527790,E,2,10,1.1,367.825,M,49.519,M,18.51,0195*44
$GPVTG,123.5954,T,123.5954,M,1.828,N,3.387,K,D*2A
$GPGGA,154735.60,4612.5132392,N,00605.1530163,E,2,10,1.1,367.830,M,49.519,M,18.91,0195*4E
$GPVTG,125.2646,T,125.2646,M,1.738,N,3.220,K,D*28
$GPGGA,154735.80,4612.5131919,N,00605.1531345,E,2,10,1.1,367.824,M,49.519,M,19.11,0195*41
$RDENS,9238,5685439,PC
$GPVTG,127.3014,T,127.3014,M,1.781,N,3.301,K,D*28
$GPGGA,154736.20,4612.5130790,N,00605.1533604,E,2,10,1.1,367.819,M,49.519,M,19.51,0195*4E
$GPVTG,122.3943,T,122.3943,M,1.691,N,3.134,K,D*2C
$GPGGA,154736.40,4612.5130277,N,00605.1534772,E,2,10,1.1,367.824,M,49.519,M,19.71,0195*4F
$GPVTG,126.3672,T,126.3672,M,1.694,N,3.140,K,D*2A
$GPGGA,154736.80,4612.5129214,N,00605.1536975,E,2,10,1.1,367.822,M,49.519,M,20.11,0195*4F
$RDENS,9239,5685527,PC
$GPVTG,121.6652,T,121.6652,M,1.651,N,3.060,K,D*20
$GPGGA,154737.00,4612.5128685,N,00605.1538034,E,2,10,1.1,367.811,M,49.519,M,20.31,0195*4B
$GPVTG,125.4724,T,125.4724,M,1.698,N,3.146,K,D*20
$GPGGA,154737.40,4612.5127654,N,00605.1540192,E,2,10,1.1,367.829,M,49.519,M,20.71,0195*41
$GPVTG,123.3027,T,123.3027,M,1.549,N,2.872,K,D*20
$GPGGA,154737.60,4612.5127130,N,00605.1541264,E,2,10,1.1,367.825,M,49.519,M,20.91,0195*4F
$RDENS,9240,5685615,PC
$GPVTG,123.0572,T,123.0572,M,1.446,N,2.679,K,D*2B
$GPGGA,154738.00,4612.5126145,N,00605.1543309,E,2,10,1.1,367.830,M,49.519,M,21.31,0195*42
$GPVTG,130.7893,T,130.7893,M,1.881,N,3.485,K,D*2C
$GPGGA,154738.20,4612.5125621,N,00605.1544317,E,2,10,1.1,367.835,M,49.519,M,21.51,0195*4D
$GPVTG,126.1576,T,126.1576,M,1.641,N,3.040,K,D*23
$GPGGA,154738.60,4612.5124597,N,00605.1546311,E,2,10,1.1,367.823,M,49.519,M,21.91,0195*49
$RDENS,9241,5685703,PC
$GPVTG,125.0950,T,125.0950,M,1.488,N,2.758,K,D*2B
$GPGGA,154738.80,4612.5124095,N,00605.1547333,E,2,10,1.1,367.828,M,49.519,M,22.11,0195*41
$GPVTG,128.3412,T,128.3412,M,1.542,N,2.858,K,D*23
$GPGGA,154739.20,4612.5123082,N,00605.1549327,E,2,10,1.1,367.824,M,49.519,M,22.51,0195*48
$GPVTG,123.8494,T,123.8494,M,1.540,N,2.854,K,D*2D
$GPGGA,154739.40,4612.5122619,N,00605.1550209,E,2,10,1.1,367.833,M,49.519,M,22.71,0195*4A
$RDENS,9242,5685791,PC
$GPVTG,125.7798,T,125.7798,M,1.548,N,2.868,K,D*2A
$GPGGA,154739.80,4612.5121553,N,00605.1552152,E,2,10,1.1,367.821,M,49.519,M,23.11,0195*43
$GPVTG,129.7555,T,129.7555,M,1.522,N,2.821,K,D*2B
$GPGGA,154740.00,4612.5121063,N,00605.1553084,E,2,10,1.1,367.824,M,49.519,M,23.31,0195*4F
$GPVTG,126.9778,T,126.9778,M,1.454,N,2.694,K,D*2B
$RDENS,9243,5685879,PC
$GPGGA,154740.40,4612.5120092,N,00605.1554893,E,2,10,1.1,367.826,M,49.519,M,23.71,0195*4B
$GPVTG,126.6639,T,126.6639,M,1.388,N,2.572,K,D*26
$GPGGA,154740.60,4612.5119573,N,00605.1555815,E,2,10,1.1,367.819,M,49.519,M,23.91,0195*44
$GPVTG,130.0931,T,130.0931,M,1.429,N,2.648,K,D*20
$GPGGA,154741.00,4612.5118570,N,00605.1557613,E,2,10,1.1,367.832,M,49.519,M,24.31,0195*4F
$GPVTG,128.6266,T,128.6266,M,1.483,N,2.749,K,D*20
$RDENS,9244,5685966,PC
$GPGGA,154741.20,4612.5118086,N,00605.1558453,E,2,10,1.1,367.828,M,49.519,M,24.51,0195*45
$GPVTG,125.5743,T,125.5743,M,1.266,N,2.347,K,D*27
$GPGGA,154741.60,4612.5117146,N,00605.1560126,E,2,10,1.1,367.839,M,49.519,M,24.91,0195*43
$GPVTG,132.2018,T,132.2018,M,1.448,N,2.684,K,D*27
$GPGGA,154741.80,4612.5116656,N,00605.1560955,E,2,10,1.1,367.834,M,49.519,M,25.11,0195*42
$GPVTG,130.2496,T,130.2496,M,1.314,N,2.436,K,D*22
$RDENS,9245,5686053,PC
$GPGGA,154742.20,4612.5115768,N,00605.1562545,E,2,10,1.1,367.832,M,49.519,M,25.51,0195*49
$GPVTG,127.2915,T,127.2915,M,1.249,N,2.314,K,D*2C
$GPGGA,154742.40,4612.5115285,N,00605.1563361,E,2,10,1.1,367.823,M,49.519,M,25.71,0195*4A
$GPVTG,131.0709,T,131.0709,M,1.278,N,2.369,K,D*24
$GPGGA,154742.60,4612.5114810,N,00605.1564129,E,2,10,1.1,367.824,M,49.519,M,25.91,0195*4F
$GPVTG,127.6930,T,127.6930,M,1.307,N,2.422,K,D*25
$RDENS,9246,5686140,PC
$GPGGA,154743.00,4612.5113838,N,00605.1565760,E,2,10,1.1,367.837,M,49.519,M,26.31,0195*44
$GPVTG,131.3963,T,131.3963,M,1.293,N,2.396,K,D*21
$GPGGA,154743.20,4612.5113384,N,00605.1566558,E,2,10,1.1,367.821,M,49.519,M,26.51,0195*41
$GPVTG,133.3998,T,133.3998,M,1.289,N,2.389,K,D*24
$GPGGA,154743.60,4612.5112493,N,00605.1568041,E,2,10,1.1,367.829,M,49.519,M,26.91,0195*42
$GPVTG,129.5987,T,129.5987,M,1.259,N,2.333,K,D*28
$RDENS,9247,5686227,PC
$GPGGA,154743.80,4612.5112037,N,00605.1568792,E,2,10,1.1,367.838,M,49.519,M,27.11,0195*46
$GPVTG,128.7746,T,128.7746,M,1.230,N,2.280,K,D*2E
$GPGGA,154744.20,4612.5111035,N,00605.1570311,E,2,10,1.1,367.833,M,49.519,M,27.51,0195*43
$GPVTG,136.6869,T,136.6869,M,1.343,N,2.490,K,D*2C
$GPGGA,154744.40,4612.5110598,N,00605.1571079,E,2,10,1.1,367.831,M,49.519,M,27.71,0195*4A
$GPVTG,128.5055,T,128.5055,M,1.198,N,2.220,K,D*25
$RDENS,9248,5686314,PC
$GPGGA,154744.80,4612.5109710,N,00605.1572490,E,2,10,1.1,367.834,M,49.519,M,28.11,0195*40
$GPVTG,133.6593,T,133.6593,M,1.207,N,2.236,K,D*27
$GPGGA,154745.00,4612.5109259,N,00605.1573175,E,2,10,1.1,367.850,M,49.519,M,28.31,0195*4E
$GPVTG,127.8409,T,127.8409,M,1.160,N,2.150,K,D*26
$GPGGA,154745.40,4612.5108333,N,00605.1574556,E,2,10,1.1,367.841,M,49.519,M,28.71,0195*40
$GPVTG,137.7538,T,137.7538,M,1.219,N,2.259,K,D*21
$RDENS,9249,5686401,PC
$GPGGA,154745.60,4612.5107928,N,00605.1575283,E,2,10,1.1,367.841,M,49.519,M,28.91,0195*4D
$GPVTG,132.3272,T,132.3272,M,1.225,N,2.270,K,D*25
$GPGGA,154746.00,4612.5107045,N,00605.1576584,E,2,10,1.1,367.845,M,49.519,M,29.31,0195*46
$GPVTG,135.5865,T,135.5865,M,1.102,N,2.043,K,D*21
$GPGGA,154746.20,4612.5106629,N,00605.1577297,E,2,10,1.1,367.842,M,49.519,M,29.51,0195*4C
$GPVTG,133.3412,T,133.3412,M,1.160,N,2.149,K,D*2E
$RDENS,9250,5686488,PC
$GPGGA,154746.60,4612.5105637,N,00605.1578718,E,2,10,1.1,367.831,M,49.519,M,29.91,0195*41
$GPVTG,134.3950,T,134.3950,M,1.253,N,2.322,K,D*22
$GPGGA,154746.80,4612.5105171,N,00605.1579448,E,2,10,1.1,367.820,M,49.519,M,30.11,0195*4D
$GPVTG,136.7817,T,136.7817,M,1.170,N,2.169,K,D*2D
$GPGGA,154747.20,4612.5104290,N,00605.1580703,E,2,10,1.1,367.819,M,49.519,M,30.51,0195*4F
$GPVTG,131.6847,T,131.6847,M,1.090,N,2.020,K,D*2E
$RDENS,9251,5686575,PC
$GPGGA,154747.40,4612.5103868,N,00605.1581289,E,2,10,1.1,367.826,M,49.519,M,30.71,0195*4B
$GPVTG,133.5443,T,133.5443,M,1.090,N,2.020,K,D*2E
$GPGGA,154747.80,4612.5103012,N,00605.1582493,E,2,09,1.2,367.854,M,49.519,M,31.11,0195*45
$GPVTG,139.1605,T,139.1605,M,1.030,N,1.909,K,D*25
$GPGGA,154748.00,4612.5102573,N,00605.1583197,E,2,09,1.2,367.831,M,49.519,M,31.31,0195*40
$GPVTG,132.4004,T,132.4004,M,1.067,N,1.978,K,D*21
$RDENS,9252,5686662,PC
$GPGGA,154748.40,4612.5101718,N,00605.1584385,E,2,09,1.2,367.838,M,49.519,M,31.71,0195*43
$GPVTG,138.8391,T,138.8391,M,1.099,N,2.036,K,D*20
$GPGGA,154748.60,4612.5101265,N,00605.1585070,E,2,09,1.2,367.824,M,49.519,M,31.91,0195*45
$GPVTG,134.2626,T,134.2626,M,1.045,N,1.937,K,D*2A
$GPGGA,154749.00,4612.5100459,N,00605.1586232,E,2,09,1.2,367.826,M,49.519,M,32.31,0195*46
$GPVTG,136.2177,T,136.2177,M,1.102,N,2.042,K,D*20
$RDENS,9253,5686749,PC
$GPGGA,154749.20,4612.5099982,N,00605.1586937,E,2,09,1.2,367.796,M,49.519,M,32.51,0195*42
$GPVTG,142.5246,T,142.5246,M,0.891,N,1.650,K,D*24
$GPGGA,154749.40,4612.5099597,N,00605.1587348,E,2,09,1.2,367.860,M,49.519,M,32.71,0195*4B
$GPVTG,129.4806,T,129.4806,M,1.066,N,1.975,K,D*2D
$GPGGA,154749.80,4612.5098794,N,00605.1588553,E,2,09,1.2,367.824,M,49.519,M,33.11,0195*43
$RDENS,9254,5686836,PC
$GPVTG,136.9182,T,136.9182,M,1.040,N,1.927,K,D*2E
$GPGGA,154750.00,4612.5098415,N,00605.1589089,E,2,09,1.2,367.834,M,49.519,M,33.31,0195*49
$GPVTG,136.6494,T,136.6494,M,1.047,N,1.940,K,D*28
$GPGGA,154750.40,4612.5097494,N,00605.1590280,E,2,09,1.2,367.834,M,49.519,M,33.71,0195*4C
$GPVTG,138.6847,T,138.6847,M,1.117,N,2.070,K,D*25
$GPGGA,154750.60,4612.5097141,N,00605.1590786,E,2,09,1.2,367.839,M,49.519,M,33.91,0195*43
$RDENS,9255,5686922,PC
$GPVTG,138.5291,T,138.5291,M,1.042,N,1.931,K,D*2B
$GPGGA,154751.00,4612.5096368,N,00605.1591927,E,2,09,1.2,367.831,M,49.519,M,34.31,0195*4D
$GPVTG,133.1502,T,133.1502,M,0.983,N,1.822,K,D*2D
$GPGGA,154751.20,4612.5095954,N,00605.1592471,E,2,09,1.2,367.836,M,49.519,M,34.51,0195*45
$GPVTG,134.9866,T,134.9866,M,0.814,N,1.509,K,D*26
$GPGGA,154751.60,4612.5095382,N,00605.1593303,E,2,08,1.4,367.835,M,49.519,M,34.91,0195*4B
$RDENS,9256,5687008,PC
$GPVTG,132.1162,T,132.1162,M,0.910,N,1.686,K,D*27
$GPGGA,154751.80,4612.5095002,N,00605.1593835,E,2,08,1.4,367.821,M,49.519,M,35.11,0195*4C
$GPVTG,134.6678,T,134.6678,M,1.001,N,1.855,K,D*2F
$GPGGA,154752.20,4612.5094214,N,00605.1594939,E,2,08,1.4,367.824,M,49.519,M,35.51,0195*4A
$GPVTG,134.5803,T,134.5803,M,0.937,N,1.737,K,D*29
$GPGGA,154752.40,4612.5093847,N,00605.1595401,E,2,08,1.4,367.836,M,49.519,M,35.71,0195*41
$RDENS,9257,5687094,PC
$GPVTG,130.1670,T,130.1670,M,1.004,N,1.860,K,D*2C
$GPGGA,154752.80,4612.5093092,N,00605.1596448,E,2,08,1.4,367.831,M,49.519,M,36.11,0195*41
$GPVTG,139.6491,T,139.6491,M,0.904,N,1.675,K,D*2E
$GPGGA,154753.00,4612.5092786,N,00605.1596923,E,2,08,1.4,367.840,M,49.519,M,36.31,0195*4F
$GPVTG,132.5555,T,132.5555,M,0.824,N,1.527,K,D*29
$RDENS,9258,5687180,PC
$GPGGA,154753.40,4612.5092078,N,00605.1597897,E,2,08,1.4,367.833,M,49.519,M,36.71,0195*42
$GPVTG,135.7141,T,135.7141,M,0.967,N,1.791,K,D*20
$GPGGA,154753.60,4612.5091712,N,00605.1598377,E,2,08,1.4,367.840,M,49.519,M,36.91,0195*48
$GPVTG,134.6710,T,134.6710,M,0.874,N,1.620,K,D*28
$GPGGA,154754.00,4612.5091035,N,00605.1599329,E,2,08,1.4,367.833,M,49.519,M,37.31,0195*4E
$GPVTG,135.2858,T,135.2858,M,0.843,N,1.562,K,D*29
$RDENS,9259,5687265,PC
$GPGGA,154754.20,4612.5090711,N,00605.1599782,E,2,08,1.4,367.832,M,49.519,M,37.51,0195*4E
$GPVTG,144.3372,T,144.3372,M,0.665,N,1.232,K,D*21
$GPGGA,154754.60,4612.5090141,N,00605.1600414,E,2,08,1.4,367.843,M,49.519,M,37.91,0195*4C
$GPVTG,140.3289,T,140.3289,M,0.743,N,1.377,K,D*24
$GPGGA,154754.80,4612.5089876,N,00605.1600638,E,2,08,1.4,367.828,M,49.519,M,38.11,0195*41
$GPVTG,148.5636,T,148.5636,M,0.593,N,1.099,K,D*28
$RDENS,9260,5687349,PC
$GPGGA,154755.20,4612.5089298,N,00605.1601041,E,2,08,1.4,367.847,M,49.519,M,38.51,0195*44
$GPVTG,154.2695,T,154.2695,M,0.611,N,1.133,K,D*20
