$GPVTG,84.2110,T,84.2110,M,0.069,N,0.127,K,D*2D
$GPGGA,125516.20,4612.0725526,N,00607.3012130,E,2,09,1.4,368.479,M,49.481,M,18.40,0195*4F
$GPVTG,134.2124,T,134.2124,M,0.073,N,0.136,K,D*26
$GPGGA,125516.60,4612.0725440,N,00607.3012210,E,2,09,1.4,368.486,M,49.481,M,18.80,0195*47
$GPVTG,163.2179,T,163.2179,M,0.075,N,0.138,K,D*2E
$GPGGA,125516.80,4612.0725422,N,00607.3012219,E,2,09,1.4,368.478,M,49.481,M,19.00,0195*4C
$GPVTG,129.5684,T,129.5684,M,0.087,N,0.161,K,D*2F
$GPGGA,125517.20,4612.0725405,N,00607.3012303,E,2,09,1.4,368.468,M,49.481,M,19.40,0195*4D
$GPVTG,81.7524,T,81.7524,M,0.064,N,0.119,K,D*2D
$GPGGA,125517.40,4612.0725413,N,00607.3012362,E,2,09,1.4,368.466,M,49.481,M,19.60,0195*47
$GPVTG,119.4803,T,119.4803,M,0.024,N,0.045,K,D*21
$GPGGA,125517.80,4612.0725403,N,00607.3012364,E,2,09,1.4,368.465,M,49.481,M,20.00,0195*43
$GPVTG,150.1375,T,150.1375,M,0.033,N,0.062,K,D*22
$GPGGA,125518.00,4612.0725380,N,00607.3012337,E,2,09,1.4,368.469,M,49.481,M,20.20,0195*40
$GPVTG,183.1781,T,183.1781,M,0.107,N,0.198,K,D*20
$GPGGA,125518.40,4612.0725325,N,00607.3012239,E,2,09,1.4,368.466,M,49.481,M,20.60,0195*4F
$GPVTG,240.4881,T,240.4881,M,0.057,N,0.106,K,D*23
$GPGGA,125518.60,4612.0725403,N,00607.3012262,E,4,09,1.4,368.477,M,49.481,M,0.15,0195*76
$RDENS,2440,4651708,PC
$GPVTG,340.9705,T,340.9705,M,0.068,N,0.126,K,D*2D
$GPGGA,125519.00,4612.0725401,N,00607.3012320,E,4,09,1.4,368.509,M,49.481,M,0.24,0195*7E
$GPVTG,341.3556,T,341.3556,M,0.081,N,0.151,K,D*2A
$GPGGA,125519.20,4612.0725456,N,00607.3012273,E,4,09,1.4,368.509,M,49.481,M,0.44,0195*7F
$GPVTG,335.5852,T,335.5852,M,0.130,N,0.241,K,D*23
$GPGGA,125519.60,4612.0725592,N,00607.3012228,E,4,09,1.4,368.535,M,49.481,M,0.84,0195*7F
$RDENS,2441,4651794,PC
$GPVTG,339.1927,T,339.1927,M,0.141,N,0.262,K,D*24
$GPGGA,125519.80,4612.0725704,N,00607.3012185,E,4,09,1.4,368.548,M,49.481,M,1.04,0195*7B
$GPVTG,345.0856,T,345.0856,M,0.291,N,0.538,K,D*22
$GPGGA,125520.20,4612.0726029,N,00607.3012067,E,4,09,1.4,368.588,M,49.481,M,0.25,0195*73
$GPVTG,342.0965,T,342.0965,M,0.369,N,0.683,K,D*27
$RDENS,2442,4651880,PC
$GPGGA,125520.40,4612.0726234,N,00607.3011997,E,4,09,1.4,368.598,M,49.481,M,0.10,0195*79
$GPVTG,350.6977,T,350.6977,M,0.435,N,0.805,K,D*29
$GPGGA,125520.60,4612.0726488,N,00607.3011903,E,4,09,1.4,368.586,M,49.481,M,0.10,0195*78
$GPVTG,347.2932,T,347.2932,M,0.471,N,0.873,K,D*28
$GPGGA,125521.00,4612.0727039,N,00607.3011723,E,4,09,1.4,368.573,M,49.481,M,0.50,0195*72
$GPVTG,345.2920,T,345.2920,M,0.565,N,1.047,K,D*22
$RDENS,2443,4651966,PC
$GPGGA,125521.20,4612.0727373,N,00607.3011612,E,4,09,1.4,368.566,M,49.481,M,0.70,0195*78
$GPVTG,347.9569,T,347.9569,M,0.633,N,1.173,K,D*24
$GPGGA,125521.60,4612.0728073,N,00607.3011432,E,4,09,1.4,368.552,M,49.481,M,1.10,0195*70
$GPVTG,351.1991,T,351.1991,M,0.629,N,1.166,K,D*2B
$GPGGA,125521.80,4612.0728446,N,00607.3011341,E,4,09,1.4,368.551,M,49.481,M,1.30,0195*7E
$GPVTG,352.8650,T,352.8650,M,0.697,N,1.292,K,D*26
$RDENS,2444,4652052,PC
$GPGGA,125522.20,4612.0729176,N,00607.3011277,E,4,09,1.4,368.569,M,49.481,M,1.70,0195*7B
$GPVTG,353.8752,T,353.8752,M,0.689,N,1.276,K,D*23
$GPGGA,125522.40,4612.0729547,N,00607.3011235,E,4,09,1.4,368.570,M,49.481,M,1.90,0195*7B
$GPVTG,353.4483,T,353.4483,M,0.662,N,1.227,K,D*22
$GPGGA,125522.80,4612.0730258,N,00607.3011094,E,4,09,1.4,368.545,M,49.481,M,2.30,0195*70
$GPVTG,353.4576,T,353.4576,M,0.597,N,1.106,K,D*2B
$RDENS,2445,4652138,PC
$GPGGA,125523.00,4612.0730599,N,00607.3011033,E,4,09,1.4,368.538,M,49.481,M,2.50,0195*72
$GPVTG,352.5436,T,352.5436,M,0.506,N,0.937,K,D*28
$GPGGA,125523.40,4612.0731206,N,00607.3010904,E,4,09,1.4,368.532,M,49.481,M,2.90,0195*7C
$GPVTG,352.5296,T,352.5296,M,0.515,N,0.955,K,D*2E
$GPGGA,125523.60,4612.0731453,N,00607.3010847,E,4,09,1.4,368.535,M,49.481,M,3.10,0195*70
$GPVTG,357.9670,T,357.9670,M,0.400,N,0.742,K,D*23
$RDENS,2446,4652224,PC
$GPGGA,125524.00,4612.0731903,N,00607.3010754,E,4,09,1.4,368.533,M,49.481,M,3.50,0195*76
$GPVTG,352.3806,T,352.3806,M,0.379,N,0.703,K,D*2F
$GPGGA,125524.20,4612.0732080,N,00607.3010713,E,4,09,1.4,368.533,M,49.481,M,3.70,0195*74
$GPVTG,340.4744,T,340.4744,M,0.362,N,0.672,K,D*22
$GPGGA,125524.60,4612.0732402,N,00607.3010599,E,4,09,1.4,368.544,M,49.481,M,4.10,0195*7F
$GPVTG,352.8101,T,352.8101,M,0.290,N,0.537,K,D*2C
$RDENS,2447,4652310,PC
$GPGGA,125524.80,4612.0732533,N,00607.3010537,E,4,09,1.4,368.540,M,49.481,M,4.30,0195*70
$GPVTG,339.6985,T,339.6985,M,0.214,N,0.396,K,D*2D
$GPGGA,125525.20,4612.0732777,N,00607.3010437,E,4,09,1.4,368.526,M,49.481,M,4.70,0195*7C
$GPVTG,346.2988,T,346.2988,M,0.182,N,0.336,K,D*2B
$GPGGA,125525.40,4612.0732851,N,00607.3010394,E,4,09,1.4,368.525,M,49.481,M,4.90,0195*72
$GPVTG,352.1489,T,352.1489,M,0.073,N,0.136,K,D*26
$RDENS,2448,4652396,PC
$GPGGA,125525.60,4612.0732910,N,00607.3010343,E,4,09,1.4,368.513,M,49.481,M,5.10,0195*72
$GPVTG,334.6871,T,334.6871,M,0.084,N,0.157,K,D*29
$GPGGA,125526.00,4612.0732976,N,00607.3010239,E,4,09,1.4,368.526,M,49.481,M,5.50,0195*79
$GPVTG,302.3865,T,302.3865,M,0.152,N,0.282,K,D*28
$GPGGA,125526.20,4612.0732996,N,00607.3010207,E,4,09,1.4,368.533,M,49.481,M,5.70,0195*7E
$GPVTG,306.5653,T,306.5653,M,0.142,N,0.263,K,D*26
$RDENS,2449,4652482,PC
$GPGGA,125526.60,4612.0733046,N,00607.3010110,E,4,09,1.4,368.535,M,49.481,M,6.10,0195*79
$GPVTG,271.7121,T,271.7121,M,0.047,N,0.086,K,D*2B
$GPGGA,125526.80,4612.0733066,N,00607.3010028,E,4,09,1.4,368.527,M,49.481,M,6.30,0195*7E
$GPVTG,228.8021,T,228.8021,M,0.053,N,0.098,K,D*21
$GPGGA,125527.20,4612.0733010,N,00607.3009940,E,4,09,1.4,368.533,M,49.481,M,6.70,0195*7A
$GPVTG,253.0953,T,253.0953,M,0.103,N,0.191,K,D*2D
$RDENS,2450,4652568,PC
$GPGGA,125527.40,4612.0732954,N,00607.3009915,E,4,09,1.4,368.539,M,49.481,M,6.90,0195*70
$GPVTG,211.2476,T,211.2476,M,0.126,N,0.233,K,D*21
$GPGGA,125527.80,4612.0732798,N,00607.3009884,E,4,09,1.4,368.543,M,49.481,M,7.30,0195*7D
$GPVTG,174.2384,T,174.2384,M,0.147,N,0.272,K,D*23
$GPVTG,189.8049,T,189.8049,M,0.179,N,0.331,K,D*28
$RDENS,2451,4652654,PC
$GPGGA,125528.20,4612.0732637,N,00607.3009793,E,4,09,1.4,368.535,M,49.481,M,7.70,0195*70
$GPVTG,184.3151,T,184.3151,M,0.252,N,0.468,K,D*29
$GPGGA,125528.40,4612.0732526,N,00607.3009757,E,4,09,1.4,368.534,M,49.481,M,7.90,0195*72
$GPVTG,179.9110,T,179.9110,M,0.226,N,0.418,K,D*2D
$GPGGA,125528.80,4612.0732337,N,00607.3009842,E,4,09,1.4,368.538,M,49.481,M,8.30,0195*7A
$GPVTG,150.4183,T,150.4183,M,0.227,N,0.420,K,D*27
$RDENS,2452,4652740,PC
$GPGGA,125529.00,4612.0732263,N,00607.3009942,E,4,09,1.4,368.537,M,49.481,M,8.50,0195*7B
$GPVTG,139.1341,T,139.1341,M,0.243,N,0.450,K,D*22
$GPGGA,125529.40,4612.0732079,N,00607.3010282,E,4,09,1.4,368.553,M,49.481,M,8.90,0195*77
$GPVTG,117.5598,T,117.5598,M,0.256,N,0.475,K,D*21
$GPGGA,125529.60,4612.0732032,N,00607.3010507,E,4,09,1.4,368.557,M,49.481,M,9.10,0195*7D
$GPVTG,104.9084,T,104.9084,M,0.392,N,0.727,K,D*2C
$RDENS,2453,4652826,PC
$GPGGA,125530.00,4612.0731922,N,00607.3011151,E,4,09,1.4,368.556,M,49.481,M,9.50,0195*7B
$GPVTG,103.8817,T,103.8817,M,0.414,N,0.768,K,D*2E
$GPGGA,125530.20,4612.0731891,N,00607.3011487,E,4,09,1.4,368.530,M,49.481,M,9.70,0195*7C
$GPVTG,107.9329,T,107.9329,M,0.509,N,0.943,K,D*24
$GPGGA,125530.60,4612.0731728,N,00607.3012242,E,4,09,1.4,368.492,M,49.481,M,10.10,0195*4E
$GPVTG,111.7137,T,111.7137,M,0.537,N,0.995,K,D*22
$RDENS,2454,4652912,PC
$GPGGA,125530.80,4612.0731595,N,00607.3012746,E,4,09,1.4,368.492,M,49.481,M,10.30,0195*47
$GPVTG,110.0442,T,110.0442,M,0.631,N,1.170,K,D*25
$GPGGA,125531.20,4612.0731307,N,00607.3013702,E,4,08,1.5,368.452,M,49.481,M,10.70,0195*48
$GPVTG,119.2762,T,119.2762,M,0.709,N,1.314,K,D*2F
$GPGGA,125531.40,4612.0731054,N,00607.3014255,E,4,08,1.5,368.467,M,49.481,M,10.90,0195*43
$GPVTG,118.1042,T,118.1042,M,0.849,N,1.574,K,D*24
$RDENS,2455,4652998,PC
$GPGGA,125531.80,4612.0730569,N,00607.3015412,E,4,08,1.5,368.444,M,49.481,M,11.30,0195*4B
$GPVTG,123.6657,T,123.6657,M,0.875,N,1.621,K,D*28
$GPGGA,125532.00,4612.0730241,N,00607.3016053,E,4,08,1.5,368.445,M,49.481,M,11.50,0195*48
$GPVTG,124.5191,T,124.5191,M,1.008,N,1.869,K,D*29
$GPGGA,125532.40,4612.0729518,N,00607.3017405,E,4,08,1.5,368.445,M,49.481,M,11.90,0195*45
$GPVTG,130.0191,T,130.0191,M,1.125,N,2.084,K,D*2F
$RDENS,2456,4653084,PC
$GPGGA,125532.60,4612.0729064,N,00607.3018133,E,4,08,1.5,368.477,M,49.481,M,12.10,0195*4C
$GPVTG,128.8730,T,128.8730,M,1.112,N,2.061,K,D*20
$GPGGA,125533.00,4612.0728222,N,00607.3019496,E,4,08,1.5,368.463,M,49.481,M,12.50,0195*40
$GPVTG,132.9810,T,132.9810,M,1.201,N,2.226,K,D*20
$GPGGA,125533.20,4612.0727734,N,00607.3020215,E,4,08,1.5,368.476,M,49.481,M,12.70,0195*4E
$RDENS,2457,4653170,PC
$GPVTG,134.8560,T,134.8560,M,1.278,N,2.368,K,D*25
$GPGGA,125533.60,4612.0726720,N,00607.3021676,E,4,08,1.5,368.490,M,49.481,M,13.10,0195*41
$GPVTG,134.7995,T,134.7995,M,1.308,N,2.424,K,D*2C
$GPGGA,125533.80,4612.0726232,N,00607.3022432,E,4,08,1.5,368.474,M,49.481,M,13.30,0195*40
$GPVTG,134.0072,T,134.0072,M,1.329,N,2.463,K,D*2C
$GPGGA,125534.00,4612.0725697,N,00607.3023212,E,4,08,1.5,368.480,M,49.481,M,13.50,0195*4F
$RDENS,2458,4653257,PC
$GPVTG,136.6047,T,136.6047,M,1.342,N,2.488,K,D*24
$GPGGA,125534.40,4612.0724607,N,00607.3024684,E,2,08,1.5,368.474,M,49.481,M,13.90,0195*4E
$GPVTG,138.1505,T,138.1505,M,1.337,N,2.477,K,D*26
$GPGGA,125534.60,4612.0724069,N,00607.3025358,E,2,08,1.5,368.461,M,49.481,M,14.10,0195*4C
$GPVTG,141.4036,T,141.4036,M,1.255,N,2.326,K,D*20
$GPGGA,125535.00,4612.0722946,N,00607.3026660,E,2,08,1.5,368.459,M,49.481,M,14.50,0195*4B
$RDENS,2459,4653343,PC
$GPVTG,141.0502,T,141.0502,M,1.317,N,2.440,K,D*20
$GPGGA,125535.20,4612.0722355,N,00607.3027328,E,2,08,1.5,368.462,M,49.481,M,14.70,0195*43
$GPVTG,143.3923,T,143.3923,M,1.323,N,2.451,K,D*27
$GPGGA,125535.60,4612.0721212,N,00607.3028525,E,2,08,1.5,368.462,M,49.481,M,15.10,0195*45
$GPVTG,143.6898,T,143.6898,M,1.267,N,2.348,K,D*29
$GPGGA,125535.80,4612.0720624,N,00607.3029088,E,2,08,1.5,368.467,M,49.481,M,15.30,0195*4F
$RDENS,2460,4653429,PC
$GPVTG,142.7450,T,142.7450,M,1.288,N,2.388,K,D*24
$GPGGA,125536.20,4612.0719452,N,00607.3030190,E,2,08,1.5,368.467,M,49.481,M,15.70,0195*4B
$GPVTG,147.1631,T,147.1631,M,1.271,N,2.356,K,D*21
$GPGGA,125536.40,4612.0718863,N,00607.3030699,E,2,08,1.5,368.463,M,49.481,M,15.90,0195*46
$GPVTG,150.0343,T,150.0343,M,1.263,N,2.341,K,D*24
$RDENS,2461,4653524,PC
$GPGGA,125536.80,4612.0717659,N,00607.3031605,E,2,08,1.5,368.467,M,49.481,M,16.30,0195*4B
$GPVTG,151.3899,T,151.3899,M,1.201,N,2.225,K,D*23
$GPGGA,125537.00,4612.0717058,N,00607.3031954,E,2,08,1.5,368.464,M,49.481,M,16.50,0195*4B
$GPVTG,161.8537,T,161.8537,M,1.199,N,2.222,K,D*26
$GPGGA,125537.40,4612.0715824,N,00607.3032486,E,2,08,1.5,368.457,M,49.481,M,16.90,0195*43
$GPVTG,161.8070,T,161.8070,M,1.135,N,2.104,K,D*27
$RDENS,2462,4653601,PC
$GPGGA,125537.60,4612.0715204,N,00607.3032704,E,2,08,1.5,368.465,M,49.481,M,17.10,0195*48
$GPVTG,173.3959,T,173.3959,M,1.165,N,2.159,K,D*2A
$GPGGA,125538.00,4612.0713856,N,00607.3032896,E,2,08,1.5,368.490,M,49.481,M,17.50,0195*40
$GPVTG,178.9768,T,178.9768,M,1.191,N,2.208,K,D*26
$GPGGA,125538.20,4612.0713204,N,00607.3032848,E,2,08,1.5,368.485,M,49.481,M,17.70,0195*4A
$GPVTG,183.2968,T,183.2968,M,1.209,N,2.240,K,D*28
$RDENS,2463,4653687,PC
$GPGGA,125538.60,4612.0711851,N,00607.3032626,E,2,08,1.5,368.494,M,49.481,M,18.10,0195*49
$GPVTG,188.5816,T,188.5816,M,1.262,N,2.340,K,D*24
$GPGGA,125538.80,4612.0711184,N,00607.3032495,E,2,08,1.5,368.505,M,49.481,M,18.30,0195*47
$GPVTG,191.9794,T,191.9794,M,1.184,N,2.194,K,D*24
$GPGGA,125539.20,4612.0709905,N,00607.3032089,E,2,08,1.5,368.499,M,49.481,M,18.70,0195*4D
$GPVTG,191.6415,T,191.6415,M,1.203,N,2.229,K,D*2D
$RDENS,2464,4653773,PC
$GPGGA,125539.40,4612.0709250,N,00607.3031904,E,2,08,1.5,368.484,M,49.481,M,18.90,0195*4D
$GPVTG,191.5087,T,191.5087,M,1.203,N,2.230,K,D*25
$GPGGA,125539.80,4612.0707943,N,00607.3031505,E,2,08,1.5,368.473,M,49.481,M,19.30,0195*48
$GPVTG,192.7532,T,192.7532,M,1.205,N,2.234,K,D*27
$GPGGA,125540.00,4612.0707291,N,00607.3031233,E,2,08,1.5,368.462,M,49.481,M,19.50,0195*4E
$GPVTG,193.9787,T,193.9787,M,1.242,N,2.301,K,D*23
$RDENS,2465,4653859,PC
$GPGGA,125540.40,4612.0705944,N,00607.3030763,E,2,08,1.5,368.485,M,49.480,M,19.90,0195*4E
$GPVTG,195.1315,T,195.1315,M,1.235,N,2.288,K,D*23
$GPGGA,125540.60,4612.0705245,N,00607.3030516,E,4,08,1.5,368.565,M,49.480,M,0.00,0195*7E
$GPVTG,197.2722,T,197.2722,M,1.207,N,2.237,K,D*26
$GPGGA,125540.80,4612.0704625,N,00607.3030249,E,4,09,1.4,368.591,M,49.480,M,0.20,0195*77
$GPVTG,197.2254,T,197.2254,M,1.238,N,2.294,K,D*23
$RDENS,2466,4653945,PC
$GPGGA,125541.20,4612.0703357,N,00607.3029643,E,4,09,1.4,368.578,M,49.480,M,0.60,0195*7E
$GPVTG,199.3287,T,199.3287,M,1.172,N,2.171,K,D*26
$GPGGA,125541.40,4612.0702726,N,00607.3029362,E,4,09,1.4,368.572,M,49.480,M,0.80,0195*79
$GPVTG,200.5749,T,200.5749,M,1.203,N,2.229,K,D*2D
$GPGGA,125541.80,4612.0701464,N,00607.3028692,E,4,09,1.4,368.575,M,49.480,M,0.12,0195*74
$GPVTG,200.9249,T,200.9249,M,1.182,N,2.191,K,D*27
$RDENS,2467,4654031,PC
$GPGGA,125542.00,4612.0700841,N,00607.3028365,E,4,09,1.4,368.586,M,49.480,M,0.16,0195*70
$GPVTG,202.5254,T,202.5254,M,1.211,N,2.245,K,D*24
$GPGGA,125542.40,4612.0699620,N,00607.3027617,E,4,09,1.4,368.573,M,49.480,M,0.24,0195*78
$GPVTG,200.1600,T,200.1600,M,1.189,N,2.204,K,D*23
$GPGGA,125542.60,4612.0699020,N,00607.3027233,E,4,09,1.4,368.574,M,49.480,M,0.44,0195*7F
$RDENS,2468,4654117,PC
$GPVTG,205.7213,T,205.7213,M,1.148,N,2.128,K,D*23
$GPGGA,125543.00,4612.0697867,N,00607.3026423,E,4,09,1.4,368.584,M,49.480,M,0.84,0195*78
$GPVTG,209.0864,T,209.0864,M,1.154,N,2.138,K,D*2F
$GPGGA,125543.20,4612.0697305,N,00607.3025991,E,4,09,1.4,368.575,M,49.480,M,1.04,0195*75
$GPVTG,211.4483,T,211.4483,M,1.148,N,2.127,K,D*2C
$GPGGA,125543.60,4612.0696194,N,00607.3025062,E,4,09,1.4,368.576,M,49.480,M,1.44,0195*78
$RDENS,2469,4654203,PC
$GPVTG,209.0477,T,209.0477,M,1.177,N,2.181,K,D*2C
$GPGGA,125543.80,4612.0695689,N,00607.3024609,E,4,09,1.4,368.561,M,49.480,M,0.10,0195*72
$GPVTG,211.5403,T,211.5403,M,1.081,N,2.004,K,D*28
$GPGGA,125544.20,4612.0694702,N,00607.3023623,E,4,09,1.4,368.546,M,49.480,M,0.50,0195*72
$GPVTG,215.9173,T,215.9173,M,1.084,N,2.009,K,D*20
$GPGGA,125544.40,4612.0694222,N,00607.3023094,E,4,09,1.4,368.543,M,49.480,M,0.01,0195*78
$RDENS,2470,4654288,PC
$GPVTG,216.4635,T,216.4635,M,1.075,N,1.992,K,D*26
$GPGGA,125544.80,4612.0693284,N,00607.3022099,E,4,09,1.4,368.561,M,49.480,M,0.41,0195*77
$GPVTG,218.2574,T,218.2574,M,1.039,N,1.926,K,D*21
$GPGGA,125545.00,4612.0692822,N,00607.3021566,E,4,09,1.4,368.559,M,49.480,M,0.61,0195*76
$GPVTG,219.3374,T,219.3374,M,1.011,N,1.873,K,D*2A
$GPGGA,125545.40,4612.0691937,N,00607.3020516,E,4,09,1.4,368.572,M,49.480,M,1.01,0195*7C
$RDENS,2471,4654375,PC
$GPVTG,218.5631,T,218.5631,M,1.032,N,1.913,K,D*2C
$GPGGA,125545.60,4612.0691530,N,00607.3019948,E,4,09,1.4,368.560,M,49.480,M,1.21,0195*79
$GPVTG,222.3481,T,222.3481,M,1.093,N,2.026,K,D*2B
$GPGGA,125545.80,4612.0691066,N,00607.3019404,E,4,09,1.4,368.576,M,49.480,M,0.05,0195*74
$GPVTG,222.9630,T,222.9630,M,1.004,N,1.860,K,D*2C
$GPGGA,125546.20,4612.0690247,N,00607.3018270,E,4,09,1.4,368.567,M,49.480,M,0.35,0195*7A
$RDENS,2472,4654461,PC
$GPVTG,224.0135,T,224.0135,M,1.034,N,1.917,K,D*2E
$GPGGA,125546.40,4612.0689820,N,00607.3017677,E,4,09,1.4,368.565,M,49.480,M,0.55,0195*77
$GPVTG,223.0104,T,223.0104,M,0.990,N,1.836,K,D*2A
$GPGGA,125546.80,4612.0689025,N,00607.3016544,E,4,09,1.4,368.574,M,49.480,M,0.95,0195*78
$GPVTG,225.8417,T,225.8417,M,1.031,N,1.911,K,D*2D
$RDENS,2473,4654547,PC
$GPGGA,125547.00,4612.0688645,N,00607.3015931,E,4,09,1.4,368.569,M,49.480,M,1.15,0195*78
$GPVTG,224.5756,T,224.5756,M,0.994,N,1.842,K,D*2D
$GPGGA,125547.40,4612.0687880,N,00607.3014760,E,4,09,1.4,368.569,M,49.480,M,0.04,0195*7E
$GPVTG,226.0044,T,226.0044,M,1.019,N,1.888,K,D*26
$GPGGA,125547.60,4612.0687459,N,00607.3014159,E,4,09,1.4,368.579,M,49.480,M,0.16,0195*7A
$GPVTG,228.2167,T,228.2167,M,0.996,N,1.845,K,D*28
$RDENS,2474,4654633,PC
$GPGGA,125548.00,4612.0686714,N,00607.3012974,E,4,09,1.4,368.575,M,49.480,M,0.56,0195*71
$GPVTG,228.6999,T,228.6999,M,1.015,N,1.880,K,D*22
$GPGGA,125548.20,4612.0686352,N,00607.3012341,E,4,09,1.4,368.566,M,49.480,M,0.76,0195*79
$GPVTG,230.0425,T,230.0425,M,0.997,N,1.847,K,D*2B
$GPGGA,125548.60,4612.0685626,N,00607.3011158,E,4,09,1.4,368.570,M,49.480,M,1.16,0195*71
$GPVTG,229.3964,T,229.3964,M,0.992,N,1.839,K,D*27
$RDENS,2475,4654719,PC
$GPGGA,125548.80,4612.0685276,N,00607.3010547,E,4,09,1.4,368.564,M,49.480,M,1.36,0195*72
$GPVTG,231.3907,T,231.3907,M,1.039,N,1.926,K,D*21
$GPGGA,125549.20,4612.0684554,N,00607.3009275,E,4,09,1.4,368.546,M,49.480,M,1.76,0195*75
$GPVTG,227.9881,T,227.9881,M,1.023,N,1.896,K,D*20
$GPGGA,125549.40,4612.0684240,N,00607.3008624,E,4,09,1.4,368.537,M,49.480,M,1.96,0195*78
$GPVTG,227.4794,T,227.4794,M,0.832,N,1.543,K,D*2C
$RDENS,2476,4654805,PC
$GPGGA,125549.80,4612.0683656,N,00607.3007663,E,4,09,1.4,368.582,M,49.480,M,2.36,0195*7B
$GPVTG,231.8289,T,231.8289,M,0.781,N,1.447,K,D*2E
$GPVTG,227.6197,T,227.6197,M,0.538,N,0.998,K,D*20
$GPGGA,125550.20,4612.0683270,N,00607.3006870,E,4,09,1.4,368.592,M,49.480,M,2.76,0195*71
$GPVTG,234.1397,T,234.1397,M,0.470,N,0.872,K,D*28
$GPGGA,125550.40,4612.0683122,N,00607.3006564,E,4,09,1.4,368.592,M,49.480,M,2.96,0195*75
$RDENS,2477,4654891,PC
$GPVTG,250.9763,T,250.9763,M,0.404,N,0.749,K,D*2C
$GPGGA,125550.80,4612.0683017,N,00607.3005999,E,4,09,1.4,368.538,M,49.480,M,3.36,0195*78
$GPVTG,253.5254,T,253.5254,M,0.318,N,0.590,K,D*20
$GPGGA,125551.00,4612.0682929,N,00607.3005887,E,4,09,1.4,368.545,M,49.480,M,3.56,0195*76
$GPVTG,250.5360,T,250.5360,M,0.138,N,0.256,K,D*2D
$RDENS,2478,4654977,PC
$GPGGA,125551.40,4612.0682912,N,00607.3005701,E,4,09,1.4,368.516,M,49.480,M,3.96,0195*71
$GPVTG,233.4281,T,233.4281,M,0.072,N,0.134,K,D*25
$GPGGA,125551.60,4612.0682857,N,00607.3005704,E,4,09,1.4,368.537,M,49.480,M,4.16,0195*7A
$GPVTG,237.5672,T,237.5672,M,0.015,N,0.028,K,D*28
$GPGGA,125552.00,4612.0682860,N,00607.3005765,E,4,09,1.4,368.536,M,49.480,M,4.56,0195*79
$GPVTG,100.9802,T,100.9802,M,0.111,N,0.207,K,D*22
$RDENS,2479,4655063,PC
$GPGGA,125552.20,4612.0682848,N,00607.3005876,E,4,09,1.4,368.537,M,49.480,M,4.76,0195*7F
$GPVTG,98.3626,T,98.3626,M,0.176,N,0.326,K,D*21
$GPGGA,125552.60,4612.0682796,N,00607.3006226,E,4,09,1.4,368.538,M,49.480,M,5.16,0195*73
$GPVTG,102.7062,T,102.7062,M,0.230,N,0.427,K,D*26
$GPGGA,125552.80,4612.0682778,N,00607.3006477,E,4,09,1.4,368.527,M,49.480,M,5.36,0195*73
$GPVTG,99.5159,T,99.5159,M,0.370,N,0.686,K,D*2A
$RDENS,2480,4655148,PC
$GPGGA,125553.20,4612.0682675,N,00607.3007122,E,4,09,1.4,368.522,M,49.480,M,5.76,0195*71
$GPVTG,104.8814,T,104.8814,M,0.418,N,0.774,K,D*2F
$GPGGA,125553.40,4612.0682589,N,00607.3007455,E,4,09,1.4,368.521,M,49.480,M,5.96,0195*7F
$GPVTG,112.3527,T,112.3527,M,0.443,N,0.821,K,D*2E
$GPGGA,125553.80,4612.0682384,N,00607.3008160,E,4,09,1.4,368.489,M,49.480,M,6.36,0195*7E
$GPVTG,114.1409,T,114.1409,M,0.597,N,1.106,K,D*2B
$RDENS,2481,4655234,PC
$GPGGA,125554.00,4612.0682199,N,00607.3008628,E,4,09,1.4,368.500,M,49.480,M,6.56,0195*72
$GPVTG,118.1213,T,118.1213,M,0.687,N,1.272,K,D*29
$GPGGA,125554.20,4612.0682059,N,00607.3008978,E,4,09,1.4,368.463,M,49.480,M,6.76,0195*71
$GPVTG,123.5378,T,123.5378,M,0.733,N,1.358,K,D*2E
$GPGGA,125554.60,4612.0681606,N,00607.3010034,E,4,09,1.4,368.468,M,49.480,M,7.16,0195*7E
$GPVTG,123.8231,T,123.8231,M,0.741,N,1.374,K,D*25
$RDENS,2482,4655321,PC
$GPGGA,125554.80,4612.0681273,N,00607.3010628,E,4,09,1.4,368.493,M,49.480,M,0.18,0195*70
$GPVTG,131.6160,T,131.6160,M,0.792,N,1.468,K,D*21
$GPGGA,125555.20,4612.0680745,N,00607.3011640,E,4,09,1.4,368.481,M,49.480,M,0.22,0195*7F
$GPVTG,124.4957,T,124.4957,M,0.826,N,1.531,K,D*2C
$GPGGA,125555.40,4612.0680443,N,00607.3012203,E,4,09,1.4,368.477,M,49.480,M,0.42,0195*73
$GPVTG,131.6824,T,131.6824,M,0.930,N,1.724,K,D*2C
$RDENS,2483,4655407,PC
$GPGGA,125555.80,4612.0679758,N,00607.3013397,E,4,09,1.4,368.483,M,49.480,M,0.82,0195*7A
$GPVTG,129.1878,T,129.1878,M,0.988,N,1.832,K,D*27
$GPGGA,125556.00,4612.0679416,N,00607.3013889,E,4,09,1.4,368.488,M,49.480,M,1.02,0195*7E
$GPVTG,134.5014,T,134.5014,M,0.885,N,1.640,K,D*20
$GPGGA,125556.40,4612.0678731,N,00607.3014851,E,4,09,1.4,368.484,M,49.480,M,1.42,0195*77
$GPVTG,138.7763,T,138.7763,M,0.855,N,1.585,K,D*27
$RDENS,2484,4655494,PC
$GPGGA,125556.60,4612.0678384,N,00607.3015294,E,4,09,1.4,368.480,M,49.480,M,1.62,0195*7B
$GPVTG,141.2818,T,141.2818,M,0.817,N,1.514,K,D*29
$GPGGA,125557.00,4612.0677737,N,00607.3016084,E,4,09,1.4,368.468,M,49.480,M,2.02,0195*7C
$GPVTG,140.2747,T,140.2747,M,0.814,N,1.509,K,D*26
$GPGGA,125557.20,4612.0677369,N,00607.3016481,E,4,09,1.4,368.466,M,49.480,M,2.22,0195*7C
$GPVTG,143.0368,T,143.0368,M,0.861,N,1.596,K,D*22
$RDENS,2485,4655580,PC
$GPGGA,125557.60,4612.0676605,N,00607.3017282,E,4,09,1.4,368.473,M,49.480,M,2.62,0195*72
$GPVTG,143.8335,T,143.8335,M,0.871,N,1.615,K,D*2B
$GPGGA,125557.80,4612.0676228,N,00607.3017643,E,4,09,1.4,368.482,M,49.480,M,2.82,0195*7E
$GPVTG,150.5079,T,150.5079,M,0.786,N,1.456,K,D*29
$GPGGA,125558.20,4612.0675491,N,00607.3018299,E,4,09,1.4,368.464,M,49.480,M,3.22,0195*73
$GPVTG,150.5037,T,150.5037,M,0.764,N,1.416,K,D*21
$RDENS,2486,4655666,PC
$GPGGA,125558.40,4612.0675140,N,00607.3018581,E,4,09,1.4,368.449,M,49.480,M,3.42,0195*7B
$GPVTG,155.3493,T,155.3493,M,0.777,N,1.440,K,D*20
$GPGGA,125558.60,4612.0674745,N,00607.3018852,E,4,09,1.4,368.440,M,49.480,M,3.62,0195*73
$GPVTG,155.0985,T,155.0985,M,0.714,N,1.323,K,D*27
$GPGGA,125559.00,4612.0673976,N,00607.3019400,E,4,09,1.4,368.458,M,49.480,M,4.02,0195*7F
$RDENS,2487,4655752,PC
$GPVTG,154.7451,T,154.7451,M,0.775,N,1.437,K,D*22
$GPGGA,125559.20,4612.0673624,N,00607.3019633,E,4,09,1.4,368.449,M,49.480,M,4.22,0195*75
$GPVTG,156.0262,T,156.0262,M,0.752,N,1.393,K,D*2E
$GPGGA,125559.60,4612.0672876,N,00607.3020091,E,4,09,1.4,368.456,M,49.480,M,4.62,0195*77
$GPVTG,157.2705,T,157.2705,M,0.713,N,1.321,K,D*22
$GPGGA,125559.80,4612.0672507,N,00607.3020311,E,4,09,1.4,368.469,M,49.480,M,4.82,0195*7B
$RDENS,2488,4655838,PC
$GPVTG,158.8860,T,158.8860,M,0.687,N,1.273,K,D*28
$GPGGA,125600.20,4612.0671749,N,00607.3020686,E,4,09,1.4,368.501,M,49.480,M,5.22,0195*7A
$GPVTG,164.0589,T,164.0589,M,0.792,N,1.467,K,D*2E
$GPGGA,125600.40,4612.0671377,N,00607.3020859,E,4,09,1.4,368.510,M,49.480,M,5.42,0195*7F
$GPVTG,162.7926,T,162.7926,M,0.785,N,1.454,K,D*28
$GPGGA,125600.80,4612.0670560,N,00607.3021217,E,4,09,1.4,368.543,M,49.480,M,5.82,0195*79
$RDENS,2489,4655924,PC
$GPVTG,166.1314,T,166.1314,M,0.727,N,1.348,K,D*2A
$GPGGA,125601.00,4612.0670176,N,00607.3021299,E,4,09,1.4,368.527,M,49.480,M,6.02,0195*7C
$GPVTG,167.7060,T,167.7060,M,0.688,N,1.275,K,D*21
$GPGGA,125601.40,4612.0669451,N,00607.3021541,E,4,09,1.4,368.488,M,49.480,M,6.42,0195*72
$GPVTG,165.4945,T,165.4945,M,0.676,N,1.253,K,D*24
$GPGGA,125601.60,4612.0669053,N,00607.3021679,E,4,09,1.4,368.474,M,49.480,M,6.62,0195*7F
$RDENS,2490,4656010,PC
$GPVTG,170.9313,T,170.9313,M,0.701,N,1.299,K,D*23
$GPGGA,125602.00,4612.0668285,N,00607.3021812,E,4,09,1.4,368.460,M,49.480,M,7.02,0195*73
$GPVTG,174.2164,T,174.2164,M,0.716,N,1.327,K,D*21
$GPGGA,125602.20,4612.0667878,N,00607.3021896,E,4,09,1.4,368.469,M,49.480,M,7.22,0195*71
$GPVTG,176.3540,T,176.3540,M,0.738,N,1.368,K,D*26
$GPGGA,125602.60,4612.0666980,N,00607.3022046,E,4,09,1.4,368.522,M,49.480,M,7.62,0195*7E
$RDENS,2491,4656096,PC
$GPVTG,176.5281,T,176.5281,M,0.806,N,1.493,K,D*27
$GPGGA,125602.80,4612.0666607,N,00607.3022073,E,4,09,1.4,368.515,M,49.480,M,7.82,0195*7C
$GPVTG,170.8788,T,170.8788,M,0.855,N,1.584,K,D*26
$GPGGA,125603.20,4612.0665782,N,00607.3022273,E,4,09,1.4,368.486,M,49.480,M,8.22,0195*74
$GPVTG,161.8616,T,161.8616,M,0.809,N,1.500,K,D*23
$RDENS,2492,4656181,PC
$GPGGA,125603.40,4612.0665257,N,00607.3022497,E,4,09,1.4,368.497,M,49.480,M,8.42,0195*75
$GPVTG,158.6588,T,158.6588,M,0.991,N,1.837,K,D*2A
$GPGGA,125603.60,4612.0664728,N,00607.3022813,E,4,09,1.4,368.493,M,49.480,M,8.62,0195*7D
$GPVTG,160.9688,T,160.9688,M,1.002,N,1.858,K,D*21
$GPGGA,125604.00,4612.0663695,N,00607.3023270,E,4,09,1.4,368.461,M,49.480,M,9.02,0195*78
$GPVTG,162.9114,T,162.9114,M,1.009,N,1.871,K,D*21
$RDENS,2493,4656267,PC
$GPGGA,125604.20,4612.0663106,N,00607.3023650,E,2,09,1.4,368.473,M,49.480,M,9.22,0195*76
$GPVTG,159.7264,T,159.7264,M,1.222,N,2.265,K,D*26
$GPGGA,125604.60,4612.0661820,N,00607.3024288,E,2,09,1.4,368.463,M,49.480,M,9.62,0195*7E
$GPVTG,161.4661,T,161.4661,M,1.266,N,2.346,K,D*26
$GPGGA,125604.80,4612.0661166,N,00607.3024535,E,2,09,1.4,368.449,M,49.480,M,9.82,0195*7C
$GPVTG,164.1147,T,164.1147,M,1.392,N,2.580,K,D*20
$RDENS,2494,4656353,PC
$GPGGA,125605.20,4612.0659621,N,00607.3025273,E,2,09,1.4,368.481,M,49.480,M,10.22,0195*4A
$GPVTG,161.4904,T,161.4904,M,1.454,N,2.696,K,D*29
$GPGGA,125605.40,4612.0658842,N,00607.3025550,E,2,09,1.4,368.474,M,49.480,M,10.42,0195*4C
$GPVTG,168.8513,T,168.8513,M,1.436,N,2.660,K,D*24
$GPGGA,125605.80,4612.0657253,N,00607.3025966,E,2,09,1.4,368.427,M,49.480,M,10.82,0195*46
$GPVTG,167.6091,T,167.6091,M,1.582,N,2.931,K,D*21
$RDENS,2495,4656439,PC
$GPGGA,125606.00,4612.0656380,N,00607.3026167,E,2,09,1.4,368.421,M,49.480,M,11.02,0195*46
$GPVTG,174.3374,T,174.3374,M,1.640,N,3.039,K,D*2C
$GPGGA,125606.40,4612.0654530,N,00607.3026482,E,2,09,1.4,368.440,M,49.480,M,11.42,0195*40
$GPVTG,175.9937,T,175.9937,M,1.649,N,3.057,K,D*2D
$GPGGA,125606.60,4612.0653598,N,00607.3026522,E,2,09,1.4,368.431,M,49.480,M,11.62,0195*48
$GPVTG,179.2013,T,179.2013,M,1.775,N,3.290,K,D*2A
$RDENS,2496,4656525,PC
$GPGGA,125607.00,4612.0651627,N,00607.3026545,E,2,09,1.4,368.436,M,49.480,M,12.02,0195*49
$GPVTG,180.6281,T,180.6281,M,1.765,N,3.270,K,D*25
$GPGGA,125607.20,4612.0650666,N,00607.3026497,E,2,09,1.4,368.429,M,49.480,M,12.22,0195*4D
$GPVTG,188.2047,T,188.2047,M,1.770,N,3.280,K,D*2E
$GPGGA,125607.60,4612.0648740,N,00607.3026141,E,2,09,1.4,368.437,M,49.480,M,12.62,0195*40
$GPVTG,187.9531,T,187.9531,M,1.699,N,3.149,K,D*2E
$RDENS,2497,4656611,PC
$GPGGA,125607.80,4612.0647808,N,00607.3025969,E,2,09,1.4,368.432,M,49.480,M,12.82,0195*48
$GPVTG,190.2232,T,190.2232,M,1.704,N,3.157,K,D*24
$GPGGA,125608.20,4612.0645914,N,00607.3025503,E,2,09,1.4,368.441,M,49.480,M,13.22,0195*4C
$GPVTG,190.3804,T,190.3804,M,1.741,N,3.226,K,D*20
$GPGGA,125608.40,4612.0644993,N,00607.3025199,E,2,09,1.4,368.439,M,49.480,M,13.42,0195*4A
$GPVTG,192.5901,T,192.5901,M,1.765,N,3.270,K,D*25
$RDENS,2498,4656697,PC
$GPGGA,125608.80,4612.0643080,N,00607.3024556,E,2,09,1.4,368.406,M,49.480,M,13.82,0195*4C
$GPVTG,192.6540,T,192.6540,M,1.793,N,3.324,K,D*2C
$GPGGA,125609.00,4612.0642103,N,00607.3024181,E,2,09,1.4,368.389,M,49.480,M,14.02,0195*4F
$GPVTG,195.7759,T,195.7759,M,1.842,N,3.414,K,D*2B
$GPGGA,125609.40,4612.0640131,N,00607.3023372,E,2,09,1.4,368.380,M,49.480,M,14.42,0195*4C
$GPVTG,194.0866,T,194.0866,M,1.886,N,3.496,K,D*29
$RDENS,2499,4656783,PC
$GPGGA,125609.60,4612.0639128,N,00607.3023014,E,2,09,1.4,368.399,M,49.480,M,14.62,0195*41
$GPVTG,194.5438,T,194.5438,M,1.908,N,3.536,K,D*25
$GPGGA,125609.80,4612.0638128,N,00607.3022593,E,2,09,1.4,368.393,M,49.480,M,14.82,0195*41
$GPVTG,197.2398,T,197.2398,M,1.856,N,3.440,K,D*2F
$GPGGA,125610.20,4612.0636105,N,00607.3021738,E,2,09,1.4,368.395,M,49.480,M,15.22,0195*4F
$RDENS,2500,4656869,PC
$GPVTG,194.1864,T,194.1864,M,1.967,N,3.645,K,D*2B
$GPGGA,125610.40,4612.0635049,N,00607.3021366,E,2,09,1.4,368.413,M,49.480,M,15.42,0195*43
$GPVTG,193.9351,T,193.9351,M,1.970,N,3.651,K,D*28
$GPGGA,125610.80,4612.0632957,N,00607.3020545,E,2,09,1.4,368.419,M,49.480,M,15.82,0195*4E
$GPVTG,195.2285,T,195.2285,M,1.963,N,3.638,K,D*25
$GPGGA,125611.00,4612.0631947,N,00607.3020129,E,2,09,1.4,368.421,M,49.480,M,16.02,0195*4B
$RDENS,2501,4656955,PC
$GPVTG,193.9538,T,193.9538,M,1.926,N,3.569,K,D*23
$GPGGA,125611.40,4612.0629908,N,00607.3019304,E,2,09,1.4,368.436,M,49.480,M,16.42,0195*48
$GPVTG,197.3195,T,197.3195,M,1.897,N,3.515,K,D*23
$GPGGA,125611.60,4612.0628901,N,00607.3018905,E,2,09,1.4,368.424,M,49.480,M,16.62,0195*49
$GPVTG,199.9270,T,199.9270,M,1.827,N,3.385,K,D*27
$GPGGA,125612.00,4612.0626953,N,00607.3017940,E,2,09,1.4,368.407,M,49.480,M,17.02,0195*4D
$RDENS,2502,4657041,PC
$GPVTG,195.1580,T,195.1580,M,1.936,N,3.588,K,D*2D
$GPVTG,195.0641,T,195.0641,M,1.912,N,3.543,K,D*2C
$GPGGA,125612.40,4612.0624878,N,00607.3017124,E,2,09,1.4,368.405,M,49.480,M,17.42,0195*4F
$GPVTG,192.5590,T,192.5590,M,1.972,N,3.655,K,D*2E
$GPGGA,125612.60,4612.0623741,N,00607.3016846,E,2,09,1.4,368.453,M,49.480,M,0.08,0195*78
$GPVTG,194.3716,T,194.3716,M,1.967,N,3.646,K,D*28
$RDENS,2503,4657127,PC
$GPGGA,125613.00,4612.0621608,N,00607.3016116,E,2,09,1.4,368.450,M,49.480,M,0.48,0195*7A
$GPVTG,193.2616,T,193.2616,M,1.974,N,3.658,K,D*25
$GPGGA,125613.20,4612.0620535,N,00607.3015706,E,2,09,1.4,368.435,M,49.480,M,0.68,0195*71
$GPVTG,192.9309,T,192.9309,M,1.949,N,3.612,K,D*25
$GPGGA,125613.60,4612.0618335,N,00607.3015051,E,2,08,1.5,368.443,M,49.480,M,1.08,0195*7B
$GPVTG,193.7039,T,193.7039,M,2.018,N,3.739,K,D*23
$RDENS,2504,4657213,PC
$GPGGA,125613.80,4612.0617267,N,00607.3014677,E,2,08,1.5,368.415,M,49.480,M,1.28,0195*7E
$GPVTG,192.4684,T,192.4684,M,2.051,N,3.800,K,D*2B
$GPGGA,125614.20,4612.0615062,N,00607.3013976,E,2,08,1.5,368.395,M,49.480,M,1.68,0195*74
$GPVTG,191.5544,T,191.5544,M,2.042,N,3.783,K,D*2D
$GPGGA,125614.40,4612.0613930,N,00607.3013686,E,2,08,1.5,368.416,M,49.480,M,1.88,0195*78
$GPVTG,189.0390,T,189.0390,M,2.032,N,3.766,K,D*21
$RDENS,2505,4657299,PC
$GPGGA,125614.80,4612.0611666,N,00607.3013181,E,2,08,1.5,368.425,M,49.480,M,2.28,0195*73
$GPVTG,187.2205,T,187.2205,M,2.131,N,3.949,K,D*20
$GPGGA,125615.00,4612.0610482,N,00607.3012926,E,2,08,1.5,368.431,M,49.480,M,2.48,0195*74
$GPVTG,187.4420,T,187.4420,M,2.108,N,3.906,K,D*21
$GPGGA,125615.40,4612.0608193,N,00607.3012489,E,2,08,1.5,368.444,M,49.480,M,2.88,0195*7A
$RDENS,2506,4657385,PC
$GPVTG,187.7240,T,187.7240,M,2.056,N,3.810,K,D*2D
$GPGGA,125615.60,4612.0606974,N,00607.3012377,E,2,08,1.5,368.482,M,49.480,M,3.08,0195*72
$GPVTG,186.8456,T,186.8456,M,2.165,N,4.012,K,D*21
$GPGGA,125616.00,4612.0604663,N,00607.3012011,E,2,08,1.5,368.448,M,49.480,M,3.48,0195*7D
$GPVTG,184.1909,T,184.1909,M,2.064,N,3.824,K,D*2B
$GPGGA,125616.20,4612.0603439,N,00607.3011845,E,2,08,1.5,368.458,M,49.480,M,3.68,0195*7C
$RDENS,2507,4657471,PC
$GPVTG,183.9629,T,183.9629,M,2.078,N,3.850,K,D*25
$GPGGA,125616.60,4612.0601126,N,00607.3011595,E,2,08,1.5,368.439,M,49.480,M,4.08,0195*77
$GPVTG,182.3341,T,182.3341,M,2.167,N,4.015,K,D*24
$GPGGA,125616.80,4612.0600006,N,00607.3011465,E,2,08,1.5,368.425,M,49.480,M,4.28,0195*7A
$GPVTG,182.6548,T,182.6548,M,2.087,N,3.868,K,D*2E
$GPGGA,125617.00,4612.0598834,N,00607.3011415,E,2,08,1.5,368.445,M,49.480,M,4.48,0195*7F
$RDENS,2508,4657557,PC
$GPVTG,180.3620,T,180.3620,M,2.164,N,4.011,K,D*23
$GPGGA,125617.40,4612.0596460,N,00607.3011376,E,2,08,1.5,368.436,M,49.480,M,4.88,0195*72
$GPVTG,178.9895,T,178.9895,M,2.179,N,4.038,K,D*24
$GPGGA,125617.60,4612.0595254,N,00607.3011406,E,2,08,1.5,368.416,M,49.480,M,5.08,0195*79
$GPVTG,177.2189,T,177.2189,M,2.159,N,4.002,K,D*2F
$GPGGA,125618.00,4612.0592862,N,00607.3011560,E,2,08,1.5,368.433,M,49.480,M,5.48,0195*7A
$GPVTG,177.7388,T,177.7388,M,2.158,N,4.000,K,D*2C
$RDENS,2509,4657654,PC
$GPGGA,125618.20,4612.0591703,N,00607.3011641,E,2,08,1.5,368.419,M,49.480,M,5.68,0195*79
$GPVTG,176.4299,T,176.4299,M,2.152,N,3.989,K,D*29
$GPGGA,125618.60,4612.0589314,N,00607.3011894,E,2,08,1.5,368.422,M,49.480,M,6.08,0195*7D
$GPVTG,174.7769,T,174.7769,M,2.184,N,4.047,K,D*2E
$GPGGA,125618.80,4612.0588122,N,00607.3012122,E,2,08,1.5,368.429,M,49.480,M,6.28,0195*7B
$GPVTG,176.3520,T,176.3520,M,2.128,N,3.944,K,D*25
$RDENS,2510,4657751,PC
$GPGGA,125619.20,4612.0585742,N,00607.3012544,E,2,08,1.5,368.448,M,49.480,M,6.68,0195*7A
$GPVTG,170.3722,T,170.3722,M,2.179,N,4.038,K,D*24
$GPGGA,125619.40,4612.0584560,N,00607.3012730,E,2,08,1.5,368.438,M,49.480,M,6.88,0195*77
$GPVTG,171.1612,T,171.1612,M,2.227,N,4.127,K,D*23
$GPGGA,125619.80,4612.0582102,N,00607.3013378,E,2,08,1.5,368.467,M,49.480,M,7.28,0195*75
$GPVTG,170.3923,T,170.3923,M,2.181,N,4.042,K,D*2E
$GPGGA,125620.00,4612.0580909,N,00607.3013609,E,2,08,1.5,368.448,M,49.480,M,7.48,0195*7E
$RDENS,2511,4657848,PC
$GPVTG,169.6025,T,169.6025,M,2.215,N,4.106,K,D*21
$GPGGA,125620.40,4612.0578533,N,00607.3014197,E,2,08,1.5,368.444,M,49.480,M,7.88,0195*7F
$GPVTG,171.0290,T,171.0290,M,2.136,N,3.959,K,D*26
$GPGGA,125620.60,4612.0577349,N,00607.3014449,E,2,08,1.5,368.452,M,49.480,M,8.08,0195*7F
$GPVTG,173.7513,T,173.7513,M,2.085,N,3.864,K,D*20
$GPGGA,125621.00,4612.0575058,N,00607.3014768,E,2,08,1.5,368.420,M,49.480,M,8.48,0195*78
$GPVTG,176.5999,T,176.5999,M,2.007,N,3.719,K,D*2F
$RDENS,2512,4657945,PC
$GPGGA,125621.20,4612.0573970,N,00607.3014871,E,2,08,1.5,368.405,M,49.480,M,8.68,0195*7D
$GPVTG,177.3585,T,177.3585,M,2.090,N,3.873,K,D*22
$GPGGA,125621.60,4612.0571719,N,00607.3015038,E,2,08,1.5,368.403,M,49.480,M,9.08,0195*7F
$GPVTG,177.1706,T,177.1706,M,1.946,N,3.607,K,D*2E
$GPGGA,125621.80,4612.0570587,N,00607.3015177,E,2,08,1.5,368.406,M,49.480,M,9.28,0195*78
$GPVTG,178.7780,T,178.7780,M,2.011,N,3.728,K,D*2A
$RDENS,2513,4658042,PC
$GPGGA,125622.00,4612.0569463,N,00607.3015235,E,2,08,1.5,368.405,M,49.480,M,9.48,0195*70
$GPVTG,177.8200,T,177.8200,M,1.949,N,3.612,K,D*25
$GPGGA,125622.40,4612.0567310,N,00607.3015392,E,2,08,1.5,368.425,M,49.480,M,9.88,0195*7B
$GPVTG,177.6076,T,177.6076,M,1.895,N,3.512,K,D*26
$GPGGA,125622.60,4612.0566210,N,00607.3015380,E,2,08,1.5,368.429,M,49.480,M,10.08,0195*46
$GPVTG,179.0567,T,179.0567,M,1.918,N,3.554,K,D*20
$RDENS,2514,4658132,PC
$GPGGA,125623.00,4612.0564122,N,00607.3015380,E,2,08,1.5,368.432,M,49.480,M,10.48,0195*4F
$GPVTG,181.8554,T,181.8554,M,1.833,N,3.396,K,D*20
$GPGGA,125623.20,4612.0563060,N,00607.3015431,E,2,08,1.5,368.467,M,49.480,M,10.68,0195*42
$GPVTG,183.9813,T,183.9813,M,1.832,N,3.396,K,D*21
$GPGGA,125623.60,4612.0561064,N,00607.3015162,E,2,08,1.5,368.437,M,49.480,M,11.08,0195*41
$GPVTG,185.2603,T,185.2603,M,1.821,N,3.375,K,D*2E
$RDENS,2515,4658224,PC
$GPGGA,125623.80,4612.0560068,N,00607.3015070,E,2,08,1.5,368.441,M,49.480,M,11.28,0195*43
$GPVTG,185.8499,T,185.8499,M,1.710,N,3.170,K,D*24
$GPGGA,125624.20,4612.0558138,N,00607.3014708,E,2,08,1.5,368.432,M,49.480,M,11.68,0195*48
$GPVTG,188.0103,T,188.0103,M,1.818,N,3.369,K,D*29
$GPGGA,125624.40,4612.0557189,N,00607.3014500,E,2,08,1.5,368.431,M,49.480,M,11.88,0195*4C
$GPVTG,186.4305,T,186.4305,M,1.700,N,3.150,K,D*27
$RDENS,2516,4658314,PC
$GPGGA,125624.80,4612.0555367,N,00607.3014055,E,2,08,1.5,368.415,M,49.480,M,12.28,0195*4A
$GPVTG,188.3274,T,188.3274,M,1.712,N,3.172,K,D*24
$GPGGA,125625.00,4612.0554411,N,00607.3013816,E,2,08,1.5,368.428,M,49.480,M,12.48,0195*44
$GPVTG,191.8865,T,191.8865,M,1.714,N,3.177,K,D*27
$GPGGA,125625.40,4612.0552536,N,00607.3013305,E,2,08,1.5,368.444,M,49.480,M,12.88,0195*4D
$GPVTG,191.7142,T,191.7142,M,1.695,N,3.141,K,D*2A
$RDENS,2517,4658404,PC
$GPGGA,125625.60,4612.0551559,N,00607.3013029,E,2,08,1.5,368.405,M,49.480,M,13.08,0195*44
$GPVTG,189.1940,T,189.1940,M,1.709,N,3.167,K,D*2A
$GPGGA,125626.00,4612.0549715,N,00607.3012584,E,2,08,1.5,368.461,M,49.480,M,13.48,0195*47
$GPVTG,190.4470,T,190.4470,M,1.754,N,3.251,K,D*24
$GPGGA,125626.20,4612.0548740,N,00607.3012290,E,2,08,1.5,368.447,M,49.480,M,13.68,0195*40
$GPVTG,189.4363,T,189.4363,M,1.857,N,3.442,K,D*2C
$RDENS,2518,4658494,PC
$GPGGA,125626.60,4612.0546801,N,00607.3011751,E,2,08,1.5,368.455,M,49.480,M,14.08,0195*49
$GPVTG,192.3644,T,192.3644,M,1.687,N,3.126,K,D*28
$GPGGA,125626.80,4612.0545782,N,00607.3011472,E,2,08,1.5,368.469,M,49.480,M,14.28,0195*4F
$GPVTG,188.1364,T,188.1364,M,1.832,N,3.394,K,D*23
$GPGGA,125627.20,4612.0543688,N,00607.3010990,E,2,08,1.5,368.479,M,49.480,M,14.68,0195*4C
$GPVTG,190.6248,T,190.6248,M,1.916,N,3.551,K,D*2B
$GPGGA,125627.40,4612.0542619,N,00607.3010782,E,2,08,1.5,368.472,M,49.480,M,14.88,0195*4B
$RDENS,2519,4658585,PC
$GPVTG,188.0286,T,188.0286,M,1.935,N,3.585,K,D*23
$GPGGA,125627.80,4612.0540483,N,00607.3010333,E,2,08,1.5,368.468,M,49.480,M,15.28,0195*4A
$GPVTG,186.4427,T,186.4427,M,2.001,N,3.709,K,D*28
$GPGGA,125628.00,4612.0539272,N,00607.3010156,E,2,08,1.5,368.529,M,49.480,M,0.11,0195*70
$GPVTG,185.9125,T,185.9125,M,2.005,N,3.717,K,D*23
$GPGGA,125628.20,4612.0537993,N,00607.3009853,E,4,08,1.5,368.567,M,49.480,M,0.05,0195*75
$RDENS,2520,4658675,PC
$GPVTG,185.2914,T,185.2914,M,1.980,N,3.670,K,D*24
$GPGGA,125628.60,4612.0535761,N,00607.3009481,E,4,08,1.5,368.556,M,49.480,M,0.09,0195*7D
$GPVTG,187.4262,T,187.4262,M,2.077,N,3.848,K,D*23
$GPGGA,125628.80,4612.0534646,N,00607.3009327,E,4,08,1.5,368.568,M,49.480,M,0.11,0195*79
$GPVTG,184.9202,T,184.9202,M,2.004,N,3.714,K,D*21
$GPGGA,125629.20,4612.0532404,N,00607.3009000,E,4,08,1.5,368.552,M,49.480,M,0.51,0195*7B
$RDENS,2521,4658765,PC
$GPVTG,186.0345,T,186.0345,M,2.057,N,3.812,K,D*2E
$GPGGA,125629.40,4612.0531252,N,00607.3008883,E,4,08,1.5,368.558,M,49.480,M,0.71,0195*71
$GPVTG,185.7194,T,185.7194,M,1.934,N,3.584,K,D*23
$GPGGA,125629.80,4612.0529189,N,00607.3008404,E,4,08,1.5,368.529,M,49.480,M,0.17,0195*74
$GPVTG,189.4090,T,189.4090,M,1.852,N,3.433,K,D*2F
$GPGGA,125630.00,4612.0528148,N,00607.3008267,E,4,08,1.5,368.526,M,49.480,M,0.37,0195*76
$RDENS,2522,4658856,PC
$GPVTG,186.2075,T,186.2075,M,1.896,N,3.514,K,D*23
$GPGGA,125630.40,4612.0526099,N,00607.3007838,E,4,08,1.5,368.524,M,49.480,M,0.77,0195*78
$GPVTG,189.4656,T,189.4656,M,1.870,N,3.465,K,D*2C
$GPGGA,125630.60,4612.0524978,N,00607.3007715,E,4,08,1.5,368.570,M,49.480,M,0.97,0195*71
$GPVTG,188.4129,T,188.4129,M,1.858,N,3.444,K,D*25
$GPGGA,125631.00,4612.0522844,N,00607.3007384,E,4,08,1.5,368.600,M,49.480,M,1.37,0195*7D
$RDENS,2523,4658946,PC
$GPVTG,187.1779,T,187.1779,M,1.937,N,3.590,K,D*25
$GPGGA,125631.20,4612.0521845,N,00607.3007163,E,4,08,1.5,368.571,M,49.480,M,1.57,0195*75
$GPVTG,185.8316,T,185.8316,M,1.882,N,3.488,K,D*22
$GPGGA,125631.60,4612.0519685,N,00607.3006983,E,4,08,1.5,368.610,M,49.480,M,0.06,0195*7E
$GPVTG,186.2247,T,186.2247,M,1.886,N,3.494,K,D*2B
$GPGGA,125631.80,4612.0518642,N,00607.3006790,E,4,08,1.5,368.601,M,49.480,M,0.26,0195*74
$GPVTG,182.3833,T,182.3833,M,1.836,N,3.403,K,D*2E
$RDENS,2524,4659036,PC
$GPGGA,125632.20,4612.0516613,N,00607.3006510,E,4,08,1.5,368.553,M,49.480,M,0.04,0195*79
$GPVTG,185.2408,T,185.2408,M,1.897,N,3.516,K,D*20
$GPGGA,125632.40,4612.0515616,N,00607.3006286,E,4,08,1.5,368.516,M,49.480,M,0.24,0195*72
$GPVTG,182.4640,T,182.4640,M,1.836,N,3.402,K,D*2F
$GPGGA,125632.80,4612.0513598,N,00607.3006026,E,4,08,1.5,368.553,M,49.480,M,0.17,0195*74
$GPVTG,188.3079,T,188.3079,M,1.827,N,3.386,K,D*24
$RDENS,2525,4659126,PC
$GPGGA,125633.00,4612.0512630,N,00607.3005908,E,4,08,1.5,368.558,M,49.480,M,0.37,0195*72
$GPVTG,188.9423,T,188.9423,M,1.762,N,3.265,K,D*26
$GPGGA,125633.20,4612.0511641,N,00607.3005723,E,4,08,1.5,368.549,M,49.480,M,0.57,0195*74
$GPVTG,185.5067,T,185.5067,M,1.923,N,3.563,K,D*2C
$GPGGA,125633.60,4612.0509592,N,00607.3005448,E,4,08,1.5,368.589,M,49.480,M,0.97,0195*7A
$GPVTG,187.4325,T,187.4325,M,1.743,N,3.229,K,D*2D
$RDENS,2526,4659216,PC
$GPGGA,125633.80,4612.0508655,N,00607.3005181,E,4,08,1.5,368.560,M,49.480,M,0.04,0195*70
$GPVTG,187.8333,T,187.8333,M,1.698,N,3.147,K,D*21
$GPVTG,188.1259,T,188.1259,M,1.737,N,3.220,K,D*27
$GPGGA,125634.40,4612.0505802,N,00607.3004575,E,4,08,1.5,368.558,M,49.480,M,0.56,0195*78
$GPVTG,189.7305,T,189.7305,M,1.597,N,2.960,K,D*21
$RDENS,2527,4659306,PC
$GPGGA,125634.60,4612.0504919,N,00607.3004361,E,4,08,1.5,368.562,M,49.480,M,0.76,0195*78
$GPVTG,192.5711,T,192.5711,M,1.648,N,3.055,K,D*2E
$GPGGA,125635.00,4612.0503109,N,00607.3003846,E,4,08,1.5,368.547,M,49.480,M,1.16,0195*78
$GPVTG,187.3291,T,187.3291,M,1.709,N,3.167,K,D*2A
$GPGGA,125635.20,4612.0502169,N,00607.3003642,E,4,08,1.5,368.540,M,49.480,M,1.36,0195*72
$GPVTG,185.8197,T,185.8197,M,1.758,N,3.257,K,D*2E
$RDENS,2528,4659397,PC
$GPGGA,125635.60,4612.0500202,N,00607.3003327,E,4,08,1.5,368.536,M,49.480,M,1.76,0195*79
$GPVTG,185.7406,T,185.7406,M,1.831,N,3.394,K,D*20
$GPGGA,125635.80,4612.0499283,N,00607.3003150,E,4,08,1.5,368.533,M,49.480,M,1.96,0195*76
$GPVTG,185.1804,T,185.1804,M,1.661,N,3.079,K,D*2B
$GPGGA,125636.20,4612.0497449,N,00607.3002883,E,4,08,1.5,368.544,M,49.480,M,2.36,0195*7E
$GPVTG,184.5789,T,184.5789,M,1.691,N,3.134,K,D*2C
$GPGGA,125636.40,4612.0496420,N,00607.3002800,E,4,08,1.5,368.541,M,49.480,M,2.56,0195*7E
$RDENS,2529,4659494,PC
$GPVTG,185.1306,T,185.1306,M,1.792,N,3.322,K,D*2B
$GPGGA,125636.80,4612.0494435,N,00607.3002612,E,4,08,1.5,368.528,M,49.480,M,2.96,0195*7A
$GPVTG,182.8921,T,182.8921,M,1.779,N,3.296,K,D*20
$GPGGA,125637.00,4612.0493372,N,00607.3002684,E,4,08,1.5,368.548,M,49.480,M,3.16,0195*70
$GPVTG,186.3488,T,186.3488,M,1.764,N,3.269,K,D*2C
$GPGGA,125637.40,4612.0491382,N,00607.3002500,E,4,08,1.5,368.564,M,49.480,M,3.56,0195*7C
$GPVTG,183.5293,T,183.5293,M,1.768,N,3.277,K,D*2F
$RDENS,2530,4659591,PC
$GPGGA,125637.60,4612.0490430,N,00607.3002320,E,4,08,1.5,368.559,M,49.480,M,3.76,0195*79
$GPVTG,184.5350,T,184.5350,M,1.691,N,3.133,K,D*2B
$GPGGA,125638.00,4612.0488553,N,00607.3002128,E,4,08,1.5,368.555,M,49.480,M,4.16,0195*7A
$GPVTG,186.0051,T,186.0051,M,1.651,N,3.060,K,D*20
$GPGGA,125638.20,4612.0487693,N,00607.3002015,E,4,08,1.5,368.540,M,49.480,M,4.36,0195*71
$GPVTG,186.0172,T,186.0172,M,1.675,N,3.104,K,D*25
$RDENS,2531,4659688,PC
$GPGGA,125638.60,4612.0485910,N,00607.3001731,E,4,08,1.5,368.538,M,49.480,M,4.76,0195*7A
$GPVTG,186.8597,T,186.8597,M,1.553,N,2.879,K,D*20
$GPGGA,125638.80,4612.0485006,N,00607.3001660,E,4,08,1.5,368.539,M,49.480,M,4.96,0195*70
$GPVTG,185.9877,T,185.9877,M,1.484,N,2.751,K,D*2E
$GPGGA,125639.00,4612.0484184,N,00607.3001542,E,4,08,1.5,368.542,M,49.480,M,5.16,0195*75
$GPVTG,186.2184,T,186.2184,M,1.554,N,2.881,K,D*20
$GPGGA,125639.40,4612.0482559,N,00607.3001068,E,4,08,1.5,368.481,M,49.480,M,5.56,0195*74
$RDENS,2532,4659786,PC
$GPVTG,189.8359,T,189.8359,M,1.539,N,2.852,K,D*25
$GPGGA,125639.60,4612.0481787,N,00607.3000872,E,4,08,1.5,368.480,M,49.480,M,5.76,0195*75
$GPVTG,181.8778,T,181.8778,M,1.428,N,2.647,K,D*2E
$GPGGA,125640.00,4612.0480284,N,00607.3000584,E,4,08,1.5,368.437,M,49.480,M,6.16,0195*77
$GPVTG,188.8539,T,188.8539,M,1.381,N,2.560,K,D*2C
$GPGGA,125640.20,4612.0479504,N,00607.3000511,E,4,08,1.5,368.449,M,49.480,M,6.36,0195*7B
$GPVTG,186.6191,T,186.6191,M,1.360,N,2.521,K,D*26
$RDENS,2533,4659883,PC
$GPGGA,125640.60,4612.0477943,N,00607.3000216,E,4,08,1.5,368.460,M,49.480,M,6.76,0195*71
$GPVTG,188.4465,T,188.4465,M,1.475,N,2.734,K,D*23
$GPGGA,125640.80,4612.0477179,N,00607.3000083,E,4,08,1.5,368.466,M,49.480,M,6.96,0195*78
$GPVTG,186.4050,T,186.4050,M,1.357,N,2.515,K,D*25
$GPGGA,125641.20,4612.0475531,N,00607.3000131,E,4,08,1.5,368.516,M,49.480,M,7.36,0195*7C
$GPVTG,176.5264,T,176.5264,M,1.529,N,2.834,K,D*24
$RDENS,2534,4659980,PC
$GPGGA,125641.40,4612.0474687,N,00607.3000024,E,4,08,1.5,368.487,M,49.480,M,7.56,0195*7F
$GPVTG,177.5384,T,177.5384,M,1.444,N,2.675,K,D*25
$GPGGA,125641.80,4612.0473034,N,00607.3000215,E,4,08,1.5,368.498,M,49.480,M,7.96,0195*78
$GPVTG,177.4134,T,177.4134,M,1.449,N,2.685,K,D*27
$GPGGA,125642.00,4612.0472179,N,00607.3000416,E,4,08,1.5,368.542,M,49.480,M,8.16,0195*7E
$GPVTG,171.9242,T,171.9242,M,1.437,N,2.663,K,D*26
$GPGGA,125642.40,4612.0470594,N,00607.3000692,E,4,08,1.5,368.544,M,49.480,M,8.56,0195*73
$RDENS,2535,4660077,PC
$GPVTG,173.8179,T,173.8179,M,1.454,N,2.695,K,D*2A
$GPGGA,125642.60,4612.0469675,N,00607.3000874,E,4,08,1.5,368.543,M,49.480,M,8.76,0195*76
$GPVTG,171.6974,T,171.6974,M,1.482,N,2.746,K,D*2E
$GPGGA,125643.00,4612.0468055,N,00607.3001215,E,4,08,1.5,368.527,M,49.480,M,9.16,0195*7D
$GPVTG,169.8703,T,169.8703,M,1.523,N,2.823,K,D*28
$GPGGA,125643.20,4612.0467251,N,00607.3001363,E,4,08,1.5,368.478,M,49.480,M,9.36,0195*7F
$GPVTG,174.0015,T,174.0015,M,1.433,N,2.655,K,D*27
$RDENS,2536,4660174,PC
$GPGGA,125643.40,4612.0466391,N,00607.3001607,E,4,08,1.5,368.544,M,49.480,M,9.56,0195*7A
$GPVTG,171.2508,T,171.2508,M,1.408,N,2.609,K,D*26
$GPGGA,125643.80,4612.0464882,N,00607.3001900,E,4,08,1.5,368.518,M,49.480,M,9.96,0195*70
$GPVTG,168.8136,T,168.8136,M,1.465,N,2.715,K,D*21
$GPGGA,125644.00,4612.0464101,N,00607.3002077,E,4,08,1.5,368.532,M,49.480,M,10.16,0195*4F
$GPVTG,173.0208,T,173.0208,M,1.313,N,2.433,K,D*20
$RDENS,2537,4660271,PC
$GPGGA,125644.40,4612.0462655,N,00607.3002465,E,4,07,1.6,368.587,M,49.480,M,10.56,0195*4A
$GPVTG,168.9088,T,168.9088,M,1.297,N,2.404,K,D*29
$GPGGA,125644.60,4612.0461964,N,00607.3002562,E,4,07,1.6,368.593,M,49.480,M,10.76,0195*47
$GPVTG,173.2541,T,173.2541,M,1.266,N,2.347,K,D*27
$GPGGA,125645.00,4612.0460645,N,00607.3002671,E,4,07,1.6,368.537,M,49.480,M,11.16,0195*45
$GPVTG,175.6424,T,175.6424,M,1.208,N,2.239,K,D*27
$RDENS,2538,4660368,PC
$GPGGA,125645.20,4612.0459973,N,00607.3002714,E,4,07,1.6,368.536,M,49.480,M,11.36,0195*46
$GPVTG,176.2196,T,176.2196,M,1.233,N,2.285,K,D*28
$GPGGA,125645.60,4612.0458610,N,00607.3002867,E,4,07,1.6,368.573,M,49.480,M,11.76,0195*47
$GPVTG,176.2919,T,176.2919,M,1.204,N,2.232,K,D*20
$GPGGA,125645.80,4612.0458122,N,00607.3002884,E,4,07,1.6,368.512,M,49.480,M,11.96,0195*4B
$GPVTG,175.7838,T,175.7838,M,1.261,N,2.336,K,D*26
$GPGGA,125646.20,4612.0456700,N,00607.3003158,E,4,07,1.6,368.535,M,49.480,M,12.36,0195*4F
$RDENS,2539,4660465,PC
$GPVTG,176.5695,T,176.5695,M,1.159,N,2.149,K,D*24
$GPGGA,125646.40,4612.0456159,N,00607.3003211,E,4,07,1.6,368.535,M,49.480,M,12.56,0195*4B
$GPVTG,178.3219,T,178.3219,M,1.208,N,2.239,K,D*27
$GPGGA,125646.80,4612.0454825,N,00607.3003300,E,4,07,1.6,368.541,M,49.480,M,12.96,0195*49
$GPVTG,177.4212,T,177.4212,M,1.180,N,2.187,K,D*22
$GPGGA,125647.00,4612.0454269,N,00607.3003206,E,4,07,1.6,368.506,M,49.480,M,13.16,0195*4F
$GPVTG,182.4902,T,182.4902,M,1.003,N,1.859,K,D*21
$RDENS,2540,4660562,PC
$GPGGA,125647.40,4612.0453154,N,00607.3003159,E,4,07,1.6,368.497,M,49.480,M,13.56,0195*45
$GPVTG,174.5438,T,174.5438,M,1.113,N,2.062,K,D*22
$GPGGA,125647.60,4612.0452582,N,00607.3003225,E,4,07,1.6,368.494,M,49.480,M,13.76,0195*40
$GPVTG,180.0112,T,180.0112,M,0.887,N,1.643,K,D*21
$GPGGA,125648.00,4612.0451596,N,00607.3003239,E,4,07,1.6,368.504,M,49.480,M,14.16,0195*4B
$GPVTG,177.4738,T,177.4738,M,0.911,N,1.687,K,D*27
$RDENS,2541,4660659,PC
$GPGGA,125648.20,4612.0450929,N,00607.3003318,E,2,07,1.6,368.549,M,49.480,M,14.36,0195*4F
$GPVTG,182.0837,T,182.0837,M,0.806,N,1.493,K,D*27
$GPGGA,125648.60,4612.0449984,N,00607.3003167,E,2,07,1.6,368.511,M,49.480,M,14.76,0195*47
$GPVTG,182.1217,T,182.1217,M,0.996,N,1.846,K,D*2B
$GPGGA,125648.80,4612.0449517,N,00607.3003184,E,2,07,1.6,368.511,M,49.480,M,14.96,0195*4C
$GPVTG,182.9243,T,182.9243,M,1.073,N,1.988,K,D*2B
$RDENS,2542,4660749,PC
$GPGGA,125649.20,4612.0448459,N,00607.3003110,E,2,07,1.6,368.487,M,49.480,M,15.36,0195*45
$GPVTG,182.2483,T,182.2483,M,0.838,N,1.553,K,D*27
$GPGGA,125649.40,4612.0447965,N,00607.3003044,E,2,07,1.6,368.493,M,49.480,M,0.11,0195*7A
$GPVTG,191.9790,T,191.9790,M,0.890,N,1.650,K,D*25
$GPGGA,125649.80,4612.0446964,N,00607.3002806,E,4,07,1.6,368.504,M,49.480,M,0.23,0195*71
$GPVTG,185.5859,T,185.5859,M,0.918,N,1.702,K,D*22
$RDENS,2543,4660838,PC
$GPGGA,125650.00,4612.0446441,N,00607.3002861,E,4,07,1.6,368.474,M,49.480,M,0.43,0195*7A
$GPVTG,172.1553,T,172.1553,M,0.896,N,1.661,K,D*21
$GPGGA,125650.20,4612.0445920,N,00607.3003010,E,4,07,1.6,368.487,M,49.480,M,0.63,0195*70
$GPVTG,172.6177,T,172.6177,M,1.058,N,1.960,K,D*24
$GPGGA,125650.60,4612.0444863,N,00607.3003197,E,4,07,1.6,368.513,M,49.480,M,1.03,0195*76
$GPVTG,179.9112,T,179.9112,M,0.783,N,1.451,K,D*2B
$RDENS,2544,4660927,PC
$GPGGA,125650.80,4612.0444321,N,00607.3003272,E,4,07,1.6,368.494,M,49.480,M,1.23,0195*71
$GPVTG,183.3856,T,183.3856,M,0.972,N,1.801,K,D*22
$GPGGA,125651.20,4612.0443208,N,00607.3003436,E,4,07,1.6,368.507,M,49.480,M,1.63,0195*7E
$GPVTG,171.1760,T,171.1760,M,0.958,N,1.776,K,D*25
$GPGGA,125651.40,4612.0442679,N,00607.3003552,E,4,07,1.6,368.510,M,49.480,M,1.83,0195*70
$GPVTG,176.9762,T,176.9762,M,0.875,N,1.621,K,D*28
$RDENS,2545,4661016,PC
$GPGGA,125651.80,4612.0441803,N,00607.3003445,E,4,07,1.6,368.502,M,49.480,M,2.23,0195*71
$GPVTG,194.8250,T,194.8250,M,0.731,N,1.355,K,D*21
$GPGGA,125652.00,4612.0441402,N,00607.3003497,E,4,07,1.6,368.423,M,49.480,M,2.43,0195*7C
$GPVTG,170.6866,T,170.6866,M,1.364,N,2.528,K,D*2B
$GPGGA,125652.40,4612.0440330,N,00607.3003556,E,4,07,1.6,368.506,M,49.480,M,2.83,0195*79
$GPVTG,174.3553,T,174.3553,M,0.775,N,1.436,K,D*23
$RDENS,2546,4661105,PC
$GPGGA,125652.60,4612.0439961,N,00607.3003510,E,4,07,1.6,368.500,M,49.480,M,0.07,0195*71
$GPVTG,186.7601,T,186.7601,M,1.040,N,1.928,K,D*21
$GPGGA,125653.00,4612.0439080,N,00607.3003403,E,4,07,1.6,368.532,M,49.480,M,0.47,0195*76
$GPVTG,194.7746,T,194.7746,M,0.565,N,1.047,K,D*22
$GPGGA,125653.20,4612.0438602,N,00607.3003400,E,4,07,1.6,368.595,M,49.480,M,0.67,0195*75
$GPVTG,203.9557,T,203.9557,M,0.598,N,1.107,K,D*25
$GPGGA,125653.60,4612.0437924,N,00607.3003090,E,4,07,1.6,368.532,M,49.480,M,1.07,0195*72
$RDENS,2547,4661194,PC
$GPVTG,180.7124,T,180.7124,M,0.779,N,1.444,K,D*2A
$GPGGA,125653.80,4612.0437553,N,00607.3003019,E,4,07,1.6,368.516,M,49.480,M,1.27,0195*75
$GPVTG,193.6893,T,193.6893,M,0.878,N,1.627,K,D*23
$GPGGA,125654.20,4612.0436664,N,00607.3002811,E,4,07,1.6,368.545,M,49.480,M,1.67,0195*7D
$GPVTG,191.9204,T,191.9204,M,0.685,N,1.269,K,D*21
$GPGGA,125654.40,4612.0436214,N,00607.3002687,E,4,07,1.6,368.558,M,49.480,M,1.87,0195*7B
$RDENS,2548,4661283,PC
$GPVTG,194.0449,T,194.0449,M,0.561,N,1.039,K,D*2F
$GPGGA,125654.60,4612.0435949,N,00607.3002508,E,4,07,1.6,368.526,M,49.480,M,2.07,0195*7F
$GPVTG,190.9384,T,190.9384,M,0.765,N,1.417,K,D*21
$GPGGA,125655.00,4612.0435157,N,00607.3002197,E,4,07,1.6,368.500,M,49.480,M,2.47,0195*7D
$GPVTG,198.1956,T,198.1956,M,0.721,N,1.336,K,D*25
$GPGGA,125655.20,4612.0434663,N,00607.3002111,E,4,07,1.6,368.545,M,49.480,M,2.67,0195*73
$RDENS,2549,4661372,PC
$GPVTG,195.5562,T,195.5562,M,0.634,N,1.176,K,D*26
$GPGGA,125655.60,4612.0434003,N,00607.3001802,E,4,07,1.6,368.538,M,49.480,M,3.07,0195*72
$GPVTG,199.9803,T,199.9803,M,0.614,N,1.138,K,D*2E
$GPGGA,125655.80,4612.0433687,N,00607.3001670,E,4,07,1.6,368.549,M,49.480,M,3.27,0195*7E
$GPVTG,203.7791,T,203.7791,M,0.616,N,1.141,K,D*22
$RDENS,2550,4661461,PC
$GPVTG,197.0111,T,197.0111,M,0.603,N,1.118,K,D*2A
$GPGGA,125656.40,4612.0432672,N,00607.3001296,E,4,07,1.6,368.584,M,49.480,M,3.87,0195*7D
$GPVTG,211.9139,T,211.9139,M,0.576,N,1.068,K,D*2D
$GPGGA,125656.60,4612.0432380,N,00607.3001086,E,4,07,1.6,368.568,M,49.480,M,4.07,0195*79
$GPVTG,207.5744,T,207.5744,M,0.720,N,1.334,K,D*26
$GPGGA,125657.00,4612.0431814,N,00607.3000346,E,4,07,1.6,368.544,M,49.480,M,4.47,0195*7F
$RDENS,2551,4661550,PC
$GPVTG,221.3010,T,221.3010,M,0.666,N,1.233,K,D*23
$GPGGA,125657.20,4612.0431467,N,00607.3000155,E,4,07,1.6,368.556,M,49.480,M,4.67,0195*74
$GPVTG,210.0307,T,210.0307,M,0.532,N,0.986,K,D*25
$GPGGA,125657.60,4612.0430924,N,00607.2999742,E,4,07,1.6,368.566,M,49.480,M,5.07,0195*77
$GPVTG,200.8262,T,200.8262,M,0.585,N,1.084,K,D*23
$GPGGA,125657.80,4612.0430522,N,00607.2999491,E,4,07,1.6,368.589,M,49.480,M,5.27,0195*7D
$RDENS,2552,4661639,PC
$GPVTG,209.8721,T,209.8721,M,0.565,N,1.047,K,D*22
$GPGGA,125658.20,4612.0430074,N,00607.2998919,E,4,07,1.6,368.514,M,49.480,M,5.67,0195*72
$GPVTG,202.4080,T,202.4080,M,0.537,N,0.996,K,D*21
$GPGGA,125658.40,4612.0429780,N,00607.2998654,E,4,07,1.6,368.549,M,49.480,M,5.87,0195*70
$GPVTG,223.1345,T,223.1345,M,0.601,N,1.114,K,D*24
$GPGGA,125658.80,4612.0429305,N,00607.2998006,E,4,07,1.6,368.475,M,49.480,M,6.27,0195*73
$GPVTG,202.5714,T,202.5714,M,0.596,N,1.104,K,D*28
$RDENS,2553,4661728,PC
$GPGGA,125659.00,4612.0428950,N,00607.2997755,E,4,07,1.6,368.500,M,49.480,M,6.47,0195*7A
$GPVTG,237.6050,T,237.6050,M,0.473,N,0.877,K,D*2E
$GPGGA,125659.40,4612.0428637,N,00607.2997095,E,4,07,1.6,368.465,M,49.480,M,6.87,0195*75
$GPVTG,222.9627,T,222.9627,M,0.506,N,0.938,K,D*27
$GPGGA,125659.60,4612.0428396,N,00607.2996683,E,4,07,1.6,368.448,M,49.480,M,7.07,0195*7F
$GPVTG,221.2552,T,221.2552,M,0.513,N,0.951,K,D*2C
$RDENS,2554,4661817,PC
$GPGGA,125700.00,4612.0427961,N,00607.2996226,E,4,07,1.6,368.468,M,49.480,M,7.47,0195*74
$GPVTG,232.1717,T,232.1717,M,0.484,N,0.896,K,D*29
$GPGGA,125700.20,4612.0427692,N,00607.2995991,E,4,07,1.6,368.525,M,49.480,M,7.67,0195*7B
$GPVTG,235.2318,T,235.2318,M,0.572,N,1.060,K,D*21
$GPGGA,125700.60,4612.0427402,N,00607.2995145,E,4,07,1.6,368.467,M,49.480,M,8.07,0195*7B
$GPVTG,230.9168,T,230.9168,M,0.488,N,0.904,K,D*2F
$RDENS,2555,4661906,PC
$GPGGA,125700.80,4612.0427220,N,00607.2994938,E,4,07,1.6,368.469,M,49.480,M,8.27,0195*7C
$GPVTG,252.0849,T,252.0849,M,0.528,N,0.978,K,D*2F
$GPGGA,125701.00,4612.0427122,N,00607.2994577,E,4,07,1.6,368.455,M,49.480,M,8.47,0195*7A
$GPVTG,246.3173,T,246.3173,M,0.663,N,1.230,K,D*25
$GPGGA,125701.40,4612.0426842,N,00607.2993720,E,2,07,1.6,368.454,M,49.480,M,8.87,0195*7C
$GPVTG,244.5504,T,244.5504,M,0.577,N,1.069,K,D*2D
$RDENS,2556,4661995,PC
$GPGGA,125701.60,4612.0426680,N,00607.2993476,E,2,07,1.6,368.471,M,49.480,M,9.07,0195*70
$GPVTG,227.2041,T,227.2041,M,0.394,N,0.731,K,D*2D
$GPGGA,125702.00,4612.0426352,N,00607.2993010,E,2,07,1.6,368.518,M,49.480,M,9.47,0195*71
$GPVTG,241.7135,T,241.7135,M,0.445,N,0.824,K,D*2D
$GPGGA,125702.20,4612.0426199,N,00607.2992751,E,2,07,1.6,368.534,M,49.480,M,9.67,0195*79
$GPVTG,259.2634,T,259.2634,M,0.646,N,1.197,K,D*2C
$RDENS,2557,4662084,PC
$GPGGA,125702.60,4612.0426090,N,00607.2991737,E,2,07,1.6,368.481,M,49.480,M,10.07,0195*47
$GPVTG,254.4898,T,254.4898,M,0.580,N,1.075,K,D*28
$GPGGA,125702.80,4612.0425974,N,00607.2991471,E,2,07,1.6,368.503,M,49.480,M,10.27,0195*41
$GPVTG,250.0861,T,250.0861,M,0.471,N,0.873,K,D*28
$GPGGA,125703.20,4612.0425761,N,00607.2990939,E,2,07,1.6,368.521,M,49.480,M,10.67,0195*44
$GPVTG,244.7754,T,244.7754,M,0.371,N,0.687,K,D*2A
$RDENS,2558,4662172,PC
$GPGGA,125703.40,4612.0425639,N,00607.2990746,E,2,07,1.6,368.564,M,49.480,M,10.87,0195*47
$GPVTG,256.5191,T,256.5191,M,0.318,N,0.589,K,D*28
$GPGGA,125703.80,4612.0425522,N,00607.2990344,E,2,07,1.6,368.578,M,49.480,M,11.27,0195*42
$GPVTG,236.7468,T,236.7468,M,0.230,N,0.426,K,D*27
$GPGGA,125704.00,4612.0425455,N,00607.2990238,E,2,07,1.6,368.612,M,49.480,M,11.47,0195*4F
$GPVTG,217.2516,T,217.2516,M,0.447,N,0.829,K,D*22
$RDENS,2559,4662261,PC
$GPGGA,125704.40,4612.0425323,N,00607.2990109,E,2,06,1.6,368.742,M,49.480,M,11.87,0195*45
$GPVTG,247.3444,T,247.3444,M,0.160,N,0.296,K,D*2C
$GPGGA,125704.60,4612.0425351,N,00607.2989975,E,2,06,1.6,368.776,M,49.480,M,12.07,0195*45
$GPVTG,274.7105,T,274.7105,M,0.264,N,0.489,K,D*23
$GPGGA,125705.00,4612.0425351,N,00607.2989536,E,2,06,1.6,368.766,M,49.480,M,12.47,0195*4C
$GPVTG,267.9326,T,267.9326,M,0.290,N,0.537,K,D*2C
$RDENS,2560,4662350,PC
$GPGGA,125705.20,4612.0425280,N,00607.2989369,E,2,06,1.6,368.789,M,49.480,M,12.67,0195*4C
$GPVTG,249.9009,T,249.9009,M,0.211,N,0.392,K,D*2C
$GPGGA,125705.60,4612.0425185,N,00607.2988965,E,2,06,1.6,368.806,M,49.480,M,13.07,0195*46
$GPVTG,254.2616,T,254.2616,M,0.322,N,0.597,K,D*2E
$GPGGA,125705.80,4612.0425145,N,00607.2988722,E,2,06,1.6,368.814,M,49.480,M,13.27,0195*48
$GPVTG,273.7220,T,273.7220,M,0.357,N,0.661,K,D*26
$RDENS,2561,4662439,PC
$GPGGA,125706.20,4612.0425161,N,00607.2988184,E,2,06,1.6,368.807,M,49.480,M,13.67,0195*4B
$GPVTG,273.1677,T,273.1677,M,0.321,N,0.594,K,D*2E
$GPGGA,125706.40,4612.0425225,N,00607.2987913,E,2,06,1.6,368.809,M,49.480,M,13.87,0195*47
$GPVTG,283.9771,T,283.9771,M,0.315,N,0.584,K,D*28
$GPGGA,125706.80,4612.0425305,N,00607.2987374,E,2,06,1.6,368.836,M,49.480,M,14.27,0195*42
$GPVTG,282.0100,T,282.0100,M,0.380,N,0.705,K,D*2F
