$GPGGA,122028.60,4612.1517747,N,00607.5851245,E,4,07,1.3,368.702,M,49.480,M,0.05,019PVTG,341.6837,T,341.6837,M,0.413,N,0.765,K,D*24
$GPGGA,122029.00,4612.1518161,N,00607.5851023,E,4,07,1.3,368.715,M,49.480,M,0.35,0195*7F
$GPVTG,340.3663,T,340.3663,M,0.379,N,0.702,K,D*2E
$GPGGA,122029.20,4612.1518301,N,00607.5850923,E,4,07,1.3,368.710,M,49.480,M,0.55,0195*72
$GPVTG,327.5064,T,327.5064,M,0.362,N,0.671,K,D*21
$GPGGA,122029.40,4612.1518469,N,00607.5850815,E,4,07,1.3,368.682,M,49.480,M,0.75,0195*71
$GPVTG,314.7968,T,314.7968,M,0.305,N,0.565,K,D*26
$GPGGA,122029.80,4612.1518732,N,00607.5850505,E,4,07,1.3,368.673,M,49.480,M,0.09,0195*79
$GPVTG,321.7264,T,321.7264,M,0.327,N,0.605,K,D*23
$GPGGA,122030.00,4612.1518896,N,00607.5850328,E,4,07,1.3,368.679,M,49.480,M,0.11,0195*72
$GPVTG,327.4163,T,327.4163,M,0.314,N,0.583,K,D*2E
$GPGGA,122030.40,4612.1519266,N,00607.5850042,E,4,07,1.3,368.717,M,49.480,M,0.02,0195*76
$RDENS,75,4442880,PC
$GPVTG,330.0732,T,330.0732,M,0.375,N,0.695,K,D*2D
$GPGGA,122030.60,4612.1519500,N,00607.5849867,E,4,07,1.3,368.738,M,49.480,M,0.22,0195*7B
$GPVTG,325.5051,T,325.5051,M,0.357,N,0.662,K,D*25
$GPGGA,122031.00,4612.1519767,N,00607.5849516,E,4,06,1.9,368.737,M,49.480,M,0.62,0195*74
$GPVTG,324.8683,T,324.8683,M,0.359,N,0.666,K,D*2F
$GPGGA,122031.20,4612.1519903,N,00607.5849341,E,4,06,1.9,368.719,M,49.480,M,0.82,0195*7C
$RDENS,76,4442969,PC
$GPVTG,319.8708,T,319.8708,M,0.362,N,0.671,K,D*21
$GPGGA,122031.60,4612.1520179,N,00607.5848970,E,4,06,1.9,368.723,M,49.480,M,1.22,0195*7C
$GPVTG,327.3549,T,327.3549,M,0.389,N,0.721,K,D*20
$GPGGA,122031.80,4612.1520316,N,00607.5848802,E,4,06,1.9,368.736,M,49.480,M,1.42,0195*7F
$GPVTG,302.5893,T,302.5893,M,0.339,N,0.629,K,D*22
$GPGGA,122032.20,4612.1520548,N,00607.5848375,E,4,06,1.9,368.713,M,49.480,M,1.82,0195*7B
$RDENS,77,4443058,PC
$GPVTG,306.7631,T,306.7631,M,0.339,N,0.629,K,D*22
$GPGGA,122032.40,4612.1520697,N,00607.5848167,E,4,06,1.9,368.716,M,49.480,M,2.02,0195*73
$GPVTG,316.0194,T,316.0194,M,0.354,N,0.657,K,D*20
$GPGGA,122032.80,4612.1520976,N,00607.5847757,E,4,06,1.9,368.737,M,49.480,M,2.42,0195*72
$GPVTG,315.5079,T,315.5079,M,0.360,N,0.667,K,D*24
$GPGGA,122033.00,4612.1521113,N,00607.5847540,E,4,06,1.9,368.725,M,49.480,M,2.62,0195*74
$RDENS,78,4443146,PC
$GPVTG,301.2365,T,301.2365,M,0.375,N,0.695,K,D*2D
$GPGGA,122033.40,4612.1521292,N,00607.5847038,E,4,06,1.9,368.724,M,49.480,M,0.03,0195*74
$GPVTG,304.6879,T,304.6879,M,0.318,N,0.589,K,D*28
$GPGGA,122033.60,4612.1521432,N,00607.5846816,E,4,06,1.9,368.732,M,49.480,M,0.23,0195*7A
$GPVTG,302.8344,T,302.8344,M,0.386,N,0.716,K,D*2B
$GPGGA,122033.80,4612.1521534,N,00607.5846560,E,4,06,1.9,368.725,M,49.480,M,0.19,0195*70
$RDENS,79,4443235,PC
$GPVTG,306.8120,T,306.8120,M,0.364,N,0.675,K,D*23
$GPGGA,122034.20,4612.1521773,N,00607.5846093,E,4,06,1.9,368.730,M,49.480,M,0.21,0195*7A
$GPVTG,309.0965,T,309.0965,M,0.366,N,0.679,K,D*2D
$GPGGA,122034.40,4612.1521885,N,00607.5845792,E,4,06,1.9,368.712,M,49.480,M,0.10,0195*7D
$GPVTG,295.9233,T,295.9233,M,0.379,N,0.702,K,D*2E
$GPGGA,122034.80,4612.1522052,N,00607.5845244,E,4,06,1.9,368.683,M,49.480,M,0.30,0195*75
$RDENS,80,4443323,PC
$GPVTG,299.6064,T,299.6064,M,0.400,N,0.741,K,D*20
$GPGGA,122035.00,4612.1522196,N,00607.5844968,E,4,06,1.9,368.683,M,49.480,M,0.50,0195*77
$GPVTG,300.5818,T,300.5818,M,0.385,N,0.714,K,D*2A
$GPGGA,122035.40,4612.1522432,N,00607.5844463,E,4,06,1.9,368.703,M,49.480,M,0.90,0195*7B
$GPVTG,301.0534,T,301.0534,M,0.359,N,0.665,K,D*2C
$GPGGA,122035.60,4612.1522502,N,00607.5844216,E,4,06,1.9,368.690,M,49.480,M,1.10,0195*7D
$RDENS,81,4443411,PC
$GPVTG,303.8178,T,303.8178,M,0.321,N,0.595,K,D*2F
$GPGGA,122036.00,4612.1522752,N,00607.5843767,E,4,06,1.9,368.704,M,49.480,M,0.10,0195*76
$GPVTG,303.4151,T,303.4151,M,0.340,N,0.631,K,D*25
$GPGGA,122036.20,4612.1522851,N,00607.5843486,E,4,06,1.9,368.692,M,49.480,M,0.30,0195*78
$GPVTG,298.6881,T,298.6881,M,0.356,N,0.659,K,D*2C
$GPGGA,122036.60,4612.1523071,N,00607.5842996,E,4,06,1.9,368.681,M,49.480,M,0.70,0195*7C
$RDENS,82,4443499,PC
$GPVTG,302.9645,T,302.9645,M,0.357,N,0.661,K,D*26
$GPGGA,122036.80,4612.1523194,N,00607.5842748,E,4,06,1.9,368.681,M,49.480,M,0.90,0195*7B
$GPVTG,296.0987,T,296.0987,M,0.431,N,0.799,K,D*27
$GPGGA,122037.20,4612.1523361,N,00607.5842168,E,4,06,1.9,368.677,M,49.480,M,1.30,0195*7E
$GPVTG,295.9735,T,295.9735,M,0.372,N,0.689,K,D*27
$GPGGA,122037.40,4612.1523452,N,00607.5841901,E,4,06,1.9,368.694,M,49.480,M,0.09,0195*7D
$RDENS,83,4443587,PC
$GPVTG,287.6535,T,287.6535,M,0.447,N,0.828,K,D*23
$GPGGA,122037.80,4612.1523619,N,00607.5841271,E,4,06,1.9,368.712,M,49.480,M,0.09,0195*7F
$GPVTG,296.9108,T,296.9108,M,0.370,N,0.685,K,D*29
$GPGGA,122038.00,4612.1523695,N,00607.5840950,E,4,06,1.9,368.704,M,49.480,M,0.29,0195*70
$GPVTG,290.6566,T,290.6566,M,0.446,N,0.827,K,D*2D
$GPGGA,122038.40,4612.1523925,N,00607.5840337,E,4,06,1.9,368.703,M,49.480,M,0.69,0195*78
$RDENS,84,4443675,PC
$GPVTG,295.8348,T,295.8348,M,0.378,N,0.700,K,D*2D
$GPGGA,122038.60,4612.1523970,N,00607.5839976,E,4,06,1.9,368.662,M,49.480,M,0.89,0195*73
$GPVTG,300.0780,T,300.0780,M,0.358,N,0.664,K,D*2C
$GPGGA,122038.80,4612.1524104,N,00607.5839691,E,4,06,1.9,368.676,M,49.480,M,0.03,0195*70
$GPVTG,298.7044,T,298.7044,M,0.320,N,0.594,K,D*2F
$GPGGA,122039.20,4612.1524257,N,00607.5839245,E,4,06,1.9,368.649,M,49.480,M,0.43,0195*7B
$RDENS,85,4443764,PC
$GPVTG,290.8624,T,290.8624,M,0.304,N,0.564,K,D*26
$GPGGA,122039.40,4612.1524290,N,00607.5839029,E,4,06,1.9,368.642,M,49.480,M,0.00,0195*72
$GPVTG,306.9448,T,306.9448,M,0.242,N,0.448,K,D*2A
$GPGGA,122039.80,4612.1524437,N,00607.5838747,E,4,06,1.9,368.652,M,49.480,M,0.40,0195*7E
$GPVTG,307.6248,T,307.6248,M,0.227,N,0.420,K,D*27
$GPGGA,122040.00,4612.1524511,N,00607.5838633,E,4,06,1.9,368.657,M,49.480,M,0.60,0195*78
$RDENS,86,4443853,PC
$GPVTG,301.0558,T,301.0558,M,0.152,N,0.282,K,D*28
$GPGGA,122040.40,4612.1524626,N,00607.5838469,E,4,06,1.9,368.651,M,49.480,M,1.00,0195*77
$GPVTG,320.0596,T,320.0596,M,0.155,N,0.287,K,D*2A
$GPGGA,122040.60,4612.1524676,N,00607.5838431,E,4,06,1.9,368.656,M,49.480,M,0.10,0195*7A
$GPVTG,341.4657,T,341.4657,M,0.134,N,0.249,K,D*2F
$GPGGA,122041.00,4612.1524802,N,00607.5838426,E,4,06,1.9,368.632,M,49.480,M,0.30,0195*76
$RDENS,87,4443941,PC
$GPVTG,357.4053,T,357.4053,M,0.148,N,0.274,K,D*2A
$GPGGA,122041.20,4612.1524887,N,00607.5838488,E,4,06,1.9,368.646,M,49.480,M,0.50,0195*78
$GPVTG,30.8015,T,30.8015,M,0.224,N,0.416,K,D*21
$GPGGA,122041.60,4612.1525068,N,00607.5838619,E,4,06,1.9,368.684,M,49.480,M,0.90,0195*7C
$GPVTG,31.2523,T,31.2523,M,0.194,N,0.359,K,D*25
$GPGGA,122041.80,4612.1525199,N,00607.5838655,E,4,06,1.9,368.709,M,49.480,M,0.05,0195*7D
$RDENS,88,4444029,PC
$GPVTG,22.8583,T,22.8583,M,0.196,N,0.363,K,D*2E
$GPGGA,122042.20,4612.1525420,N,00607.5838744,E,4,06,1.9,368.728,M,49.480,M,0.35,0195*72
$GPVTG,15.8938,T,15.8938,M,0.219,N,0.405,K,D*2D
$GPGGA,122042.40,4612.1525526,N,00607.5838764,E,4,06,1.9,368.734,M,49.480,M,0.10,0195*7B
$GPVTG,7.2829,T,7.2829,M,0.242,N,0.449,K,D*2B
$GPGGA,122042.60,4612.1525697,N,00607.5838844,E,4,10,1.1,368.711,M,49.480,M,0.10,0195*75
$GPVTG,6.8096,T,6.8096,M,0.198,N,0.366,K,D*25
$RDENS,89,4444119,PC
$GPGGA,122042.80,4612.1525808,N,00607.5838865,E,4,10,1.1,368.699,M,49.480,M,0.30,0195*73
$GPVTG,5.8266,T,5.8266,M,0.245,N,0.453,K,D*27
$GPGGA,122043.20,4612.1526052,N,00607.5838861,E,4,10,1.1,368.661,M,49.480,M,0.70,0195*7B
$GPVTG,2.4203,T,2.4203,M,0.301,N,0.558,K,D*2C
$GPGGA,122043.40,4612.1526213,N,00607.5838859,E,4,10,1.1,368.661,M,49.480,M,0.02,0195*74
$GPVTG,12.7453,T,12.7453,M,0.313,N,0.580,K,D*2A
$RDENS,90,4444208,PC
$GPGGA,122043.80,4612.1526552,N,00607.5839002,E,4,10,1.1,368.679,M,49.480,M,0.42,0195*70
$GPVTG,19.9375,T,19.9375,M,0.462,N,0.856,K,D*2D
$GPGGA,122044.20,4612.1526988,N,00607.5839220,E,4,10,1.1,368.688,M,49.480,M,0.82,0195*76
$GPVTG,19.1822,T,19.1822,M,0.382,N,0.708,K,D*20
$GPGGA,122044.40,4612.1527236,N,00607.5839339,E,4,10,1.1,368.705,M,49.480,M,1.02,0195*7B
$GPVTG,15.8160,T,15.8160,M,0.467,N,0.865,K,D*28
$RDENS,91,4444296,PC
$GPGGA,122044.80,4612.1527704,N,00607.5839524,E,4,10,1.1,368.706,M,49.480,M,1.42,0195*7E
$GPVTG,15.7908,T,15.7908,M,0.433,N,0.802,K,D*28
$GPGGA,122045.00,4612.1528008,N,00607.5839721,E,4,10,1.1,368.698,M,49.480,M,0.15,0195*71
$GPVTG,23.3602,T,23.3602,M,0.574,N,1.064,K,D*23
$GPGGA,122045.20,4612.1528318,N,00607.5839938,E,4,10,1.1,368.693,M,49.480,M,0.35,0195*7E
$GPVTG,29.7355,T,29.7355,M,0.589,N,1.091,K,D*2B
$RDENS,92,4444385,PC
$GPGGA,122045.60,4612.1528944,N,00607.5840415,E,4,10,1.1,368.703,M,49.480,M,0.75,0195*79
$GPVTG,26.7591,T,26.7591,M,0.734,N,1.360,K,D*22
$GPGGA,122045.80,4612.1529319,N,00607.5840659,E,4,10,1.1,368.697,M,49.480,M,0.95,0195*7C
$GPVTG,30.2261,T,30.2261,M,0.624,N,1.157,K,D*24
$GPGGA,122046.20,4612.1530031,N,00607.5841259,E,4,10,1.1,368.685,M,49.480,M,0.10,0195*7F
$GPVTG,31.1979,T,31.1979,M,0.855,N,1.584,K,D*26
$RDENS,93,4444475,PC
$GPGGA,122046.40,4612.1530429,N,00607.5841596,E,4,10,1.1,368.689,M,49.480,M,0.30,0195*7E
$GPVTG,26.7488,T,26.7488,M,0.915,N,1.696,K,D*23
$GPVTG,28.9163,T,28.9163,M,0.946,N,1.753,K,D*2D
$GPGGA,122047.00,4612.1531774,N,00607.5842632,E,4,10,1.1,368.667,M,49.480,M,0.34,0195*7B
$GPVTG,28.4161,T,28.4161,M,1.080,N,2.002,K,D*2F
$RDENS,94,4444564,PC
$GPGGA,122047.20,4612.1532315,N,00607.5843051,E,4,10,1.1,368.679,M,49.480,M,0.54,0195*72
$GPVTG,27.8697,T,27.8697,M,0.992,N,1.838,K,D*26
$GPGGA,122047.60,4612.1533275,N,00607.5843835,E,4,10,1.1,368.648,M,49.480,M,0.94,0195*74
$GPVTG,31.2380,T,31.2380,M,1.041,N,1.929,K,D*21
$GPGGA,122047.80,4612.1533785,N,00607.5844239,E,4,10,1.1,368.662,M,49.480,M,1.14,0195*70
$GPVTG,29.6390,T,29.6390,M,1.028,N,1.905,K,D*20
$RDENS,95,4444654,PC
$GPGGA,122048.20,4612.1534794,N,00607.5845096,E,4,10,1.1,368.675,M,49.480,M,1.54,0195*76
$GPVTG,31.7467,T,31.7467,M,1.069,N,1.982,K,D*2A
$GPGGA,122048.40,4612.1535314,N,00607.5845545,E,4,10,1.1,368.675,M,49.480,M,1.74,0195*74
$GPVTG,31.2286,T,31.2286,M,1.101,N,2.040,K,D*21
$GPGGA,122048.80,4612.1536380,N,00607.5846499,E,4,10,1.1,368.679,M,49.480,M,2.14,0195*7C
$GPVTG,32.7000,T,32.7000,M,1.149,N,2.130,K,D*2B
$GPGGA,122049.00,4612.1536944,N,00607.5847006,E,4,10,1.1,368.668,M,49.480,M,0.10,0195*72
$RDENS,96,4444744,PC
$GPVTG,26.4672,T,26.4672,M,1.178,N,2.183,K,D*21
$GPGGA,122049.40,4612.1538141,N,00607.5847904,E,4,10,1.1,368.664,M,49.480,M,0.01,0195*72
$GPVTG,29.4439,T,29.4439,M,1.054,N,1.953,K,D*28
$GPGGA,122049.60,4612.1538743,N,00607.5848405,E,4,10,1.1,368.665,M,49.480,M,0.19,0195*7F
$GPVTG,28.0103,T,28.0103,M,1.247,N,2.311,K,D*27
$GPGGA,122049.80,4612.1539307,N,00607.5848836,E,4,10,1.1,368.668,M,49.480,M,0.39,0195*77
$RDENS,97,4444832,PC
$GPVTG,25.4024,T,25.4024,M,1.146,N,2.125,K,D*20
$GPGGA,122050.20,4612.1540413,N,00607.5849594,E,4,10,1.1,368.676,M,49.480,M,0.79,0195*76
$GPVTG,24.8641,T,24.8641,M,1.088,N,2.016,K,D*22
$GPGGA,122050.40,4612.1540931,N,00607.5849863,E,4,10,1.1,368.673,M,49.480,M,0.99,0195*73
$GPVTG,20.3381,T,20.3381,M,0.958,N,1.776,K,D*25
$GPGGA,122050.80,4612.1541979,N,00607.5850440,E,4,10,1.1,368.698,M,49.480,M,1.39,0195*79
$RDENS,98,4444922,PC
$GPVTG,22.5811,T,22.5811,M,1.124,N,2.083,K,D*29
$GPGGA,122051.00,4612.1542568,N,00607.5850661,E,4,10,1.1,368.672,M,49.480,M,0.10,0195*70
$GPVTG,16.0732,T,16.0732,M,0.982,N,1.820,K,D*2E
$GPGGA,122051.40,4612.1543607,N,00607.5851061,E,4,10,1.1,368.653,M,49.480,M,0.50,0195*7F
$GPVTG,14.4487,T,14.4487,M,0.973,N,1.803,K,D*21
$GPGGA,122051.60,4612.1544154,N,00607.5851255,E,4,10,1.1,368.668,M,49.480,M,0.70,0195*74
$RDENS,99,4445007,PC
$GPVTG,14.0085,T,14.0085,M,0.984,N,1.823,K,D*2B
$GPGGA,122052.00,4612.1545299,N,00607.5851685,E,4,10,1.1,368.706,M,49.480,M,1.10,0195*75
$GPVTG,13.2768,T,13.2768,M,1.032,N,1.913,K,D*2C
$GPGGA,122052.20,4612.1545857,N,00607.5851803,E,4,10,1.1,368.689,M,49.480,M,1.30,0195*7B
$GPVTG,7.0921,T,7.0921,M,0.985,N,1.825,K,D*2C
$GPGGA,122052.40,4612.1546386,N,00607.5851887,E,4,10,1.1,368.678,M,49.480,M,0.08,0195*71
$RDENS,100,4445093,PC
$GPVTG,6.1380,T,6.1380,M,1.027,N,1.903,K,D*29
$GPGGA,122052.60,4612.1546950,N,00607.5851993,E,4,10,1.1,368.669,M,49.480,M,0.12,0195*7D
$GPVTG,0.9824,T,0.9824,M,0.938,N,1.738,K,D*29
$GPGGA,122053.00,4612.1547960,N,00607.5851985,E,4,10,1.1,368.662,M,49.480,M,0.52,0195*70
$GPVTG,1.0519,T,1.0519,M,0.962,N,1.782,K,D*27
$GPGGA,122053.20,4612.1548469,N,00607.5851973,E,4,10,1.1,368.651,M,49.480,M,0.72,0195*72
$RDENS,101,4445179,PC
$GPVTG,352.1172,T,352.1172,M,0.863,N,1.600,K,D*2C
$GPGGA,122053.60,4612.1549492,N,00607.5851859,E,4,10,1.1,368.643,M,49.480,M,1.12,0195*7E
$GPVTG,352.8421,T,352.8421,M,0.969,N,1.796,K,D*29
$GPGGA,122054.00,4612.1550526,N,00607.5851632,E,4,10,1.1,368.641,M,49.480,M,1.52,0195*7C
$GPVTG,349.0973,T,349.0973,M,0.910,N,1.687,K,D*26
$GPGGA,122054.20,4612.1551088,N,00607.5851588,E,4,11,0.9,368.677,M,49.480,M,0.13,0195*75
$RDENS,102,4445265,PC
$GPVTG,350.6765,T,350.6765,M,0.969,N,1.796,K,D*29
$GPGGA,122054.60,4612.1552079,N,00607.5851308,E,4,11,0.9,368.694,M,49.480,M,0.23,0195*7C
$GPVTG,346.7147,T,346.7147,M,0.829,N,1.536,K,D*24
$GPGGA,122054.80,4612.1552547,N,00607.5851155,E,4,11,0.9,368.695,M,49.480,M,0.43,0195*77
$GPVTG,347.8123,T,347.8123,M,0.938,N,1.739,K,D*28
$RDENS,103,4445351,PC
$GPGGA,122055.20,4612.1553500,N,00607.5850737,E,4,11,0.9,368.691,M,49.480,M,0.83,0195*75
$GPVTG,337.6397,T,337.6397,M,0.842,N,1.561,K,D*2B
$GPGGA,122055.40,4612.1554024,N,00607.5850462,E,4,11,0.9,368.678,M,49.480,M,1.03,0195*7A
$GPVTG,340.9507,T,340.9507,M,0.899,N,1.667,K,D*28
$GPGGA,122055.80,4612.1555016,N,00607.5849900,E,4,11,0.9,368.674,M,49.480,M,1.43,0195*7F
$GPVTG,335.6617,T,335.6617,M,1.028,N,1.906,K,D*23
$RDENS,104,4445437,PC
$GPGGA,122056.00,4612.1555435,N,00607.5849601,E,4,11,0.9,368.695,M,49.480,M,0.05,0195*73
$GPVTG,339.9799,T,339.9799,M,0.953,N,1.765,K,D*2C
$GPGGA,122056.20,4612.1555938,N,00607.5849350,E,4,11,0.9,368.695,M,49.480,M,0.20,0195*77
$GPVTG,334.2043,T,334.2043,M,0.881,N,1.633,K,D*20
$GPGGA,122056.60,4612.1556825,N,00607.5848668,E,4,11,0.9,368.698,M,49.480,M,0.20,0195*7F
$GPVTG,329.9151,T,329.9151,M,0.923,N,1.710,K,D*29
$RDENS,105,4445523,PC
$GPGGA,122056.80,4612.1557306,N,00607.5848267,E,4,11,0.9,368.692,M,49.480,M,0.40,0195*7D
$GPVTG,329.8248,T,329.8248,M,0.959,N,1.777,K,D*25
$GPGGA,122057.20,4612.1558252,N,00607.5847486,E,4,11,0.9,368.685,M,49.480,M,0.80,0195*75
$GPVTG,330.0002,T,330.0002,M,0.995,N,1.844,K,D*2A
$GPGGA,122057.40,4612.1558697,N,00607.5847049,E,4,11,0.9,368.687,M,49.480,M,1.00,0195*72
$GPVTG,324.8394,T,324.8394,M,0.942,N,1.746,K,D*2D
$RDENS,106,4445610,PC
$GPGGA,122057.80,4612.1559579,N,00607.5846148,E,4,11,0.9,368.690,M,49.480,M,1.40,0195*7F
$GPVTG,324.4754,T,324.4754,M,0.996,N,1.845,K,D*28
$GPGGA,122058.00,4612.1560014,N,00607.5845669,E,4,11,0.9,368.672,M,49.480,M,1.60,0195*75
$GPVTG,321.5196,T,321.5196,M,0.973,N,1.804,K,D*26
$GPGGA,122058.40,4612.1560872,N,00607.5844670,E,4,11,0.9,368.678,M,49.480,M,2.00,0195*7F
$GPVTG,320.5073,T,320.5073,M,1.014,N,1.880,K,D*23
$RDENS,107,4445697,PC
$GPGGA,122058.60,4612.1561353,N,00607.5844161,E,4,11,0.9,368.682,M,49.480,M,0.05,0195*71
$GPVTG,331.4828,T,331.4828,M,1.049,N,1.944,K,D*22
$GPGGA,122059.00,4612.1562420,N,00607.5843324,E,4,11,0.9,368.693,M,49.480,M,0.22,0195*77
$GPVTG,332.1593,T,332.1593,M,1.153,N,2.137,K,D*27
$GPGGA,122059.20,4612.1562973,N,00607.5842865,E,4,11,0.9,368.704,M,49.480,M,0.42,0195*78
$GPVTG,329.2288,T,329.2288,M,1.188,N,2.202,K,D*24
$RDENS,108,4445784,PC
$GPGGA,122059.60,4612.1564079,N,00607.5841911,E,4,11,0.9,368.679,M,49.480,M,0.11,0195*75
$GPVTG,328.5506,T,328.5506,M,1.139,N,2.111,K,D*2F
$GPGGA,122059.80,4612.1564619,N,00607.5841362,E,4,11,0.9,368.672,M,49.480,M,0.31,0195*7C
$GPVTG,326.9216,T,326.9216,M,1.160,N,2.150,K,D*26
$GPGGA,122100.20,4612.1565643,N,00607.5840301,E,4,11,0.9,368.643,M,49.480,M,0.71,0195*77
$GPVTG,321.4846,T,321.4846,M,1.113,N,2.062,K,D*22
$RDENS,109,4445871,PC
$GPGGA,122100.40,4612.1566153,N,00607.5839792,E,4,11,0.9,368.641,M,49.480,M,0.91,0195*78
$GPVTG,322.0395,T,322.0395,M,1.064,N,1.971,K,D*2B
$GPGGA,122100.60,4612.1566621,N,00607.5839271,E,4,11,0.9,368.658,M,49.480,M,0.08,0195*78
$GPVTG,323.1818,T,323.1818,M,1.049,N,1.944,K,D*22
$GPGGA,122101.00,4612.1567584,N,00607.5838244,E,4,11,0.9,368.689,M,49.480,M,0.48,0195*7D
$GPVTG,325.0284,T,325.0284,M,1.092,N,2.023,K,D*2F
$RDENS,110,4445958,PC
$GPGGA,122101.20,4612.1568040,N,00607.5837686,E,4,11,0.9,368.689,M,49.480,M,0.68,0195*7A
$GPVTG,318.7153,T,318.7153,M,1.016,N,1.883,K,D*22
$GPGGA,122101.60,4612.1568915,N,00607.5836587,E,4,11,0.9,368.697,M,49.480,M,0.08,0195*7D
$GPVTG,320.1068,T,320.1068,M,1.053,N,1.951,K,D*2D
$GPGGA,122101.80,4612.1569346,N,00607.5835985,E,4,11,0.9,368.685,M,49.480,M,0.28,0195*72
$GPVTG,315.4669,T,315.4669,M,1.081,N,2.004,K,D*28
$RDENS,111,4446045,PC
$GPGGA,122102.20,4612.1570206,N,00607.5834788,E,4,11,0.9,368.664,M,49.480,M,0.68,0195*7F
$GPVTG,316.3321,T,316.3321,M,1.073,N,1.988,K,D*2B
$GPGGA,122102.40,4612.1570590,N,00607.5834184,E,4,11,0.9,368.660,M,49.480,M,0.88,0195*71
$GPVTG,315.0533,T,315.0533,M,1.075,N,1.992,K,D*26
$GPGGA,122102.80,4612.1571390,N,00607.5832922,E,4,11,0.9,368.662,M,49.480,M,1.28,0195*71
$GPVTG,309.2612,T,309.2612,M,1.067,N,1.978,K,D*21
$RDENS,112,4446132,PC
$GPGGA,122103.00,4612.1571781,N,00607.5832324,E,4,11,0.9,368.688,M,49.480,M,1.48,0195*72
$GPVTG,307.3474,T,307.3474,M,1.037,N,1.922,K,D*2B
$GPGGA,122103.40,4612.1572512,N,00607.5831046,E,4,11,0.9,368.679,M,49.480,M,1.88,0195*7B
$GPVTG,311.2603,T,311.2603,M,1.040,N,1.928,K,D*21
$GPGGA,122103.60,4612.1572876,N,00607.5830375,E,4,11,0.9,368.686,M,49.480,M,2.08,0195*7F
$GPVTG,307.4944,T,307.4944,M,1.080,N,2.001,K,D*2C
$RDENS,113,4446219,PC
$GPGGA,122104.00,4612.1573632,N,00607.5829020,E,4,11,0.9,368.674,M,49.480,M,0.00,0195*7D
$GPVTG,308.9040,T,308.9040,M,1.083,N,2.008,K,D*26
$GPGGA,122104.20,4612.1573999,N,00607.5828346,E,4,11,0.9,368.668,M,49.480,M,0.20,0195*7C
$GPVTG,308.2007,T,308.2007,M,1.070,N,1.983,K,D*23
$GPGGA,122104.60,4612.1574666,N,00607.5826977,E,4,11,0.9,368.667,M,49.480,M,0.08,0195*73
$GPVTG,302.3735,T,302.3735,M,1.015,N,1.881,K,D*23
$RDENS,114,4446307,PC
$GPGGA,122104.80,4612.1574983,N,00607.5826280,E,4,11,0.9,368.669,M,49.480,M,0.28,0195*76
$GPVTG,304.3621,T,304.3621,M,1.037,N,1.922,K,D*2B
$GPGGA,122105.00,4612.1575308,N,00607.5825601,E,4,11,0.9,368.676,M,49.480,M,0.48,0195*71
$GPVTG,301.9757,T,301.9757,M,1.021,N,1.893,K,D*27
$GPGGA,122105.40,4612.1575955,N,00607.5824254,E,4,11,0.9,368.692,M,49.480,M,0.88,0195*74
$GPVTG,306.0760,T,306.0760,M,1.029,N,1.908,K,D*2C
$RDENS,115,4446395,PC
$GPGGA,122105.60,4612.1576261,N,00607.5823504,E,4,11,0.9,368.686,M,49.480,M,1.08,0195*70
$GPVTG,299.3827,T,299.3827,M,1.042,N,1.930,K,D*2A
$GPGGA,122106.00,4612.1576837,N,00607.5822049,E,4,11,0.9,368.689,M,49.480,M,0.05,0195*72
$GPVTG,299.7187,T,299.7187,M,1.046,N,1.939,K,D*27
$GPGGA,122106.20,4612.1577134,N,00607.5821272,E,4,11,0.9,368.674,M,49.480,M,0.15,0195*71
$GPVTG,303.8728,T,303.8728,M,1.066,N,1.976,K,D*2E
$RDENS,116,4446483,PC
$GPGGA,122106.60,4612.1577729,N,00607.5819799,E,4,11,0.9,368.669,M,49.480,M,0.55,0195*7C
$GPVTG,296.5628,T,296.5628,M,1.083,N,2.008,K,D*26
$GPGGA,122106.80,4612.1578020,N,00607.5819066,E,4,11,0.9,368.694,M,49.480,M,0.75,0195*74
$GPVTG,293.1636,T,293.1636,M,1.084,N,2.009,K,D*20
$GPGGA,122107.20,4612.1578519,N,00607.5817511,E,4,11,0.9,368.703,M,49.480,M,1.15,0195*73
$GPVTG,296.6222,T,296.6222,M,1.064,N,1.972,K,D*28
$RDENS,117,4446571,PC
$GPGGA,122107.40,4612.1578796,N,00607.5816743,E,4,11,0.9,368.693,M,49.480,M,1.35,0195*7E
$GPVTG,294.5364,T,294.5364,M,1.075,N,1.992,K,D*26
$GPGGA,122107.80,4612.1579291,N,00607.5815178,E,4,11,0.9,368.682,M,49.480,M,0.22,0195*7B
$GPVTG,293.8242,T,293.8242,M,1.083,N,2.008,K,D*26
$GPGGA,122108.00,4612.1579551,N,00607.5814364,E,4,11,0.9,368.688,M,49.480,M,0.42,0195*75
$GPVTG,295.4502,T,295.4502,M,1.085,N,2.010,K,D*29
$RDENS,118,4446659,PC
$GPGGA,122108.40,4612.1580094,N,00607.5812828,E,4,11,0.9,368.677,M,49.480,M,0.82,0195*72
$GPVTG,298.8077,T,298.8077,M,1.075,N,1.992,K,D*26
$GPGGA,122108.60,4612.1580375,N,00607.5812077,E,4,11,0.9,368.669,M,49.480,M,1.02,0195*78
$GPVTG,303.5390,T,303.5390,M,1.057,N,1.958,K,D*20
$GPGGA,122109.00,4612.1581027,N,00607.5810678,E,4,11,0.9,368.663,M,49.480,M,0.14,0195*7D
$GPVTG,305.4307,T,305.4307,M,1.061,N,1.967,K,D*29
$RDENS,119,4446747,PC
$GPVTG,310.4152,T,310.4152,M,1.009,N,1.869,K,D*28
$GPGGA,122109.40,4612.1581753,N,00607.5809454,E,4,11,0.9,368.659,M,49.480,M,0.08,0195*7D
$GPVTG,316.3586,T,316.3586,M,1.024,N,1.897,K,D*26
$GPGGA,122109.60,4612.1582168,N,00607.5808889,E,4,11,0.9,368.676,M,49.480,M,0.28,0195*70
$GPVTG,313.5412,T,313.5412,M,1.011,N,1.874,K,D*2D
$RDENS,120,4446835,PC
$GPGGA,122110.00,4612.1582974,N,00607.5807740,E,4,11,0.9,368.663,M,49.480,M,0.68,0195*7E
$GPVTG,316.9201,T,316.9201,M,1.034,N,1.917,K,D*2E
$GPGGA,122110.20,4612.1583427,N,00607.5807204,E,4,11,0.9,368.672,M,49.480,M,0.88,0195*7D
$GPVTG,320.8487,T,320.8487,M,1.027,N,1.902,K,D*28
$GPGGA,122110.60,4612.1584355,N,00607.5806195,E,4,11,0.9,368.672,M,49.480,M,1.28,0195*7D
$GPVTG,324.7893,T,324.7893,M,1.063,N,1.971,K,D*2C
$RDENS,121,4446923,PC
$GPGGA,122110.80,4612.1584815,N,00607.5805704,E,4,11,0.9,368.674,M,49.480,M,0.13,0195*7E
$GPVTG,328.9166,T,328.9166,M,1.039,N,1.926,K,D*21
$GPGGA,122111.20,4612.1585797,N,00607.5804823,E,4,11,0.9,368.667,M,49.480,M,0.27,0195*7F
$GPVTG,327.2364,T,327.2364,M,1.047,N,1.940,K,D*28
$GPGGA,122111.40,4612.1586318,N,00607.5804401,E,4,11,0.9,368.663,M,49.480,M,0.47,0195*77
$GPVTG,330.0835,T,330.0835,M,1.095,N,2.029,K,D*22
$RDENS,122,4447010,PC
$GPGGA,122111.80,4612.1587394,N,00607.5803556,E,4,11,0.9,368.660,M,49.480,M,0.87,0195*75
$GPVTG,332.8683,T,332.8683,M,1.112,N,2.060,K,D*21
$GPGGA,122112.00,4612.1587932,N,00607.5803147,E,4,11,0.9,368.674,M,49.480,M,1.07,0195*70
$GPVTG,334.4910,T,334.4910,M,1.123,N,2.082,K,D*2F
$GPGGA,122112.40,4612.1589046,N,00607.5802356,E,4,11,0.9,368.679,M,49.480,M,1.47,0195*7A
$GPVTG,333.0967,T,333.0967,M,1.110,N,2.058,K,D*28
$RDENS,123,4447097,PC
$GPGGA,122112.60,4612.1589581,N,00607.5801997,E,4,11,0.9,368.658,M,49.480,M,0.00,0195*73
$GPVTG,338.7026,T,338.7026,M,1.150,N,2.132,K,D*21
$GPGGA,122113.00,4612.1590748,N,00607.5801339,E,4,11,0.9,368.659,M,49.480,M,0.40,0195*70
$GPVTG,338.9653,T,338.9653,M,1.090,N,2.020,K,D*2E
$GPGGA,122113.20,4612.1591336,N,00607.5801004,E,4,11,0.9,368.647,M,49.480,M,0.60,0195*7E
$GPVTG,340.2210,T,340.2210,M,1.196,N,2.216,K,D*2E
$RDENS,124,4447185,PC
$GPGGA,122113.60,4612.1592576,N,00607.5800416,E,4,11,0.9,368.667,M,49.480,M,1.00,0195*78
$GPVTG,343.5583,T,343.5583,M,1.146,N,2.124,K,D*21
$GPGGA,122113.80,4612.1593183,N,00607.5800107,E,4,11,0.9,368.664,M,49.480,M,0.10,0195*7F
$GPVTG,344.0353,T,344.0353,M,1.192,N,2.209,K,D*24
$GPGGA,122114.00,4612.1593822,N,00607.5799839,E,4,11,0.9,368.666,M,49.480,M,0.30,0195*79
$GPVTG,344.3877,T,344.3877,M,1.190,N,2.205,K,D*2A
$RDENS,125,4447273,PC
$GPGGA,122114.40,4612.1595074,N,00607.5799333,E,4,11,0.9,368.652,M,49.480,M,0.70,0195*72
$GPVTG,343.8636,T,343.8636,M,1.153,N,2.137,K,D*27
$GPGGA,122114.60,4612.1595711,N,00607.5799096,E,4,11,0.9,368.664,M,49.480,M,0.90,0195*73
$GPVTG,344.1140,T,344.1140,M,1.231,N,2.282,K,D*2D
$GPGGA,122115.00,4612.1597034,N,00607.5798562,E,4,11,0.9,368.657,M,49.480,M,1.30,0195*72
$GPVTG,344.6163,T,344.6163,M,1.240,N,2.298,K,D*20
$RDENS,126,4447361,PC
$GPGGA,122115.20,4612.1597656,N,00607.5798343,E,4,11,0.9,368.657,M,49.480,M,1.50,0195*71
$GPVTG,345.9286,T,345.9286,M,1.240,N,2.298,K,D*20
$GPGGA,122115.60,4612.1598942,N,00607.5797872,E,4,11,0.9,368.658,M,49.480,M,1.90,0195*75
$GPVTG,346.0001,T,346.0001,M,1.143,N,2.118,K,D*2B
$GPGGA,122115.80,4612.1599586,N,00607.5797661,E,4,11,0.9,368.663,M,49.480,M,2.10,0195*71
$GPVTG,346.8390,T,346.8390,M,1.215,N,2.251,K,D*25
$RDENS,127,4447449,PC
$GPGGA,122116.20,4612.1600899,N,00607.5797188,E,4,11,0.9,368.647,M,49.480,M,0.01,0195*7C
$GPVTG,344.6894,T,344.6894,M,1.241,N,2.300,K,D*21
$GPGGA,122116.40,4612.1601528,N,00607.5797000,E,4,11,0.9,368.640,M,49.480,M,0.19,0195*73
$GPVTG,346.5786,T,346.5786,M,1.156,N,2.143,K,D*21
$GPGGA,122116.80,4612.1602811,N,00607.5796638,E,4,11,0.9,368.637,M,49.480,M,0.59,0195*73
$GPVTG,351.3987,T,351.3987,M,1.184,N,2.195,K,D*25
$RDENS,128,4447537,PC
$GPGGA,122117.00,4612.1603493,N,00607.5796390,E,4,11,0.9,368.623,M,49.480,M,0.79,0195*7D
$GPVTG,346.7375,T,346.7375,M,1.218,N,2.257,K,D*2E
$GPGGA,122117.40,4612.1604794,N,00607.5795943,E,4,11,0.9,368.638,M,49.480,M,1.19,0195*70
$GPVTG,346.5860,T,346.5860,M,1.178,N,2.183,K,D*21
$GPGGA,122117.60,4612.1605420,N,00607.5795645,E,4,11,0.9,368.626,M,49.480,M,1.39,0195*7B
$GPVTG,345.8250,T,345.8250,M,1.225,N,2.269,K,D*2D
$RDENS,129,4447625,PC
$GPGGA,122118.00,4612.1606754,N,00607.5795206,E,4,11,0.9,368.638,M,49.480,M,1.79,0195*79
$GPVTG,347.8177,T,347.8177,M,1.240,N,2.298,K,D*20
$GPGGA,122118.20,4612.1607440,N,00607.5795031,E,4,11,0.9,368.656,M,49.480,M,1.99,0195*7C
$GPVTG,345.9761,T,345.9761,M,1.206,N,2.235,K,D*25
$GPGGA,122118.40,4612.1608093,N,00607.5794788,E,4,11,0.9,368.666,M,49.480,M,2.19,0195*73
$GPVTG,348.1467,T,348.1467,M,1.250,N,2.317,K,D*27
$RDENS,130,4447713,PC
$GPGGA,122118.80,4612.1609423,N,00607.5794357,E,4,11,0.9,368.653,M,49.480,M,0.08,0195*73
$GPVTG,345.7415,T,345.7415,M,1.200,N,2.223,K,D*24
$GPGGA,122119.00,4612.1610058,N,00607.5794108,E,4,11,0.9,368.642,M,49.480,M,0.12,0195*79
$GPVTG,346.5135,T,346.5135,M,1.296,N,2.401,K,D*2D
$GPGGA,122119.40,4612.1611430,N,00607.5793619,E,4,11,0.9,368.632,M,49.480,M,0.05,0195*77
$GPVTG,346.0574,T,346.0574,M,1.249,N,2.314,K,D*2C
$RDENS,131,4447801,PC
$GPGGA,122119.60,4612.1612070,N,00607.5793410,E,4,11,0.9,368.644,M,49.480,M,0.05,0195*7C
$GPVTG,344.1521,T,344.1521,M,1.232,N,2.283,K,D*2F
$GPGGA,122120.00,4612.1613412,N,00607.5792901,E,4,11,0.9,368.643,M,49.480,M,0.35,0195*79
$GPVTG,345.8292,T,345.8292,M,1.259,N,2.334,K,D*2F
$GPGGA,122120.20,4612.1614098,N,00607.5792644,E,4,11,0.9,368.648,M,49.480,M,0.55,0195*79
$GPVTG,346.4075,T,346.4075,M,1.264,N,2.343,K,D*21
$RDENS,132,4447889,PC
$GPGGA,122120.60,4612.1615431,N,00607.5792133,E,4,11,0.9,368.650,M,49.480,M,0.14,0195*70
$GPVTG,344.3457,T,344.3457,M,1.221,N,2.262,K,D*22
$GPGGA,122120.80,4612.1616125,N,00607.5791855,E,4,11,0.9,368.653,M,49.480,M,0.34,0195*76
$GPVTG,343.1844,T,343.1844,M,1.252,N,2.319,K,D*2B
$GPGGA,122121.20,4612.1617495,N,00607.5791304,E,4,11,0.9,368.644,M,49.480,M,0.74,0195*7F
$GPVTG,345.2448,T,345.2448,M,1.295,N,2.401,K,D*2E
$RDENS,133,4447977,PC
$GPGGA,122121.40,4612.1618175,N,00607.5791037,E,4,11,0.9,368.649,M,49.480,M,0.00,0195*70
$GPVTG,344.5463,T,344.5463,M,1.358,N,2.516,K,D*29
$GPGGA,122121.80,4612.1619588,N,00607.5790472,E,4,11,0.9,368.653,M,49.480,M,0.40,0195*70
$GPVTG,345.1355,T,345.1355,M,1.287,N,2.386,K,D*25
$GPGGA,122122.00,4612.1620278,N,00607.5790162,E,4,11,0.9,368.652,M,49.480,M,0.60,0195*7E
$GPVTG,342.5337,T,342.5337,M,1.346,N,2.494,K,D*2D
$RDENS,134,4448065,PC
$GPGGA,122122.40,4612.1621714,N,00607.5789521,E,4,11,0.9,368.661,M,49.480,M,1.00,0195*78
$GPVTG,343.0267,T,343.0267,M,1.361,N,2.523,K,D*25
$GPGGA,122122.60,4612.1622460,N,00607.5789238,E,4,11,0.9,368.661,M,49.480,M,1.20,0195*74
$GPVTG,343.3265,T,343.3265,M,1.374,N,2.547,K,D*23
$GPGGA,122123.00,4612.1623896,N,00607.5788576,E,4,11,0.9,368.661,M,49.480,M,1.60,0195*7F
$GPVTG,340.9264,T,340.9264,M,1.339,N,2.481,K,D*21
$RDENS,135,4448153,PC
$GPGGA,122123.20,4612.1624661,N,00607.5788258,E,4,11,0.9,368.660,M,49.480,M,1.80,0195*78
$GPVTG,343.2589,T,343.2589,M,1.401,N,2.596,K,D*2A
$GPGGA,122123.40,4612.1625402,N,00607.5787925,E,4,11,0.9,368.660,M,49.480,M,2.00,0195*7D
$GPVTG,342.3637,T,342.3637,M,1.417,N,2.627,K,D*24
$GPGGA,122123.80,4612.1626885,N,00607.5787242,E,4,11,0.9,368.664,M,49.480,M,2.40,0195*7B
$GPVTG,342.0571,T,342.0571,M,1.375,N,2.548,K,D*2D
$RDENS,136,4448241,PC
$GPGGA,122124.00,4612.1627622,N,00607.5786877,E,4,11,0.9,368.670,M,49.480,M,2.60,0195*7C
$GPVTG,342.6021,T,342.6021,M,1.416,N,2.625,K,D*27
$GPGGA,122124.40,4612.1629146,N,00607.5786177,E,4,11,0.9,368.657,M,49.480,M,3.00,0195*78
$GPVTG,341.5305,T,341.5305,M,1.469,N,2.722,K,D*29
$GPGGA,122124.60,4612.1629893,N,00607.5785818,E,4,11,0.9,368.660,M,49.480,M,0.09,0195*76
$GPVTG,341.3409,T,341.3409,M,1.395,N,2.584,K,D*23
$RDENS,137,4448329,PC
$GPGGA,122125.00,4612.1631362,N,00607.5785116,E,4,11,0.9,368.656,M,49.480,M,0.31,0195*74
$GPVTG,341.9572,T,341.9572,M,1.397,N,2.588,K,D*2D
$GPGGA,122125.20,4612.1632127,N,00607.5784768,E,4,11,0.9,368.666,M,49.480,M,0.51,0195*7D
$GPVTG,341.7105,T,341.7105,M,1.484,N,2.750,K,D*2F
$GPGGA,122125.60,4612.1633672,N,00607.5784047,E,4,11,0.9,368.650,M,49.480,M,0.91,0195*7C
$GPVTG,342.2057,T,342.2057,M,1.434,N,2.658,K,D*2D
$RDENS,138,4448417,PC
$GPGGA,122125.80,4612.1634425,N,00607.5783697,E,4,11,0.9,368.648,M,49.480,M,1.11,0195*79
$GPVTG,341.0804,T,341.0804,M,1.368,N,2.535,K,D*2B
$GPGGA,122126.20,4612.1635899,N,00607.5782964,E,4,11,0.9,368.645,M,49.480,M,0.10,0195*75
$GPVTG,340.3581,T,340.3581,M,1.432,N,2.655,K,D*26
$GPGGA,122126.40,4612.1636632,N,00607.5782619,E,4,11,0.9,368.646,M,49.480,M,0.30,0195*7B
$GPVTG,340.1076,T,340.1076,M,1.406,N,2.606,K,D*27
$RDENS,139,4448504,PC
$GPGGA,122126.80,4612.1638090,N,00607.5781871,E,4,11,0.9,368.633,M,49.480,M,0.70,0195*72
$GPVTG,341.2061,T,341.2061,M,1.392,N,2.579,K,D*26
$GPGGA,122127.00,4612.1638744,N,00607.5781429,E,4,11,0.9,368.627,M,49.480,M,0.14,0195*73
$GPVTG,340.4113,T,340.4113,M,1.346,N,2.495,K,D*2C
$GPGGA,122127.40,4612.1640154,N,00607.5780680,E,4,11,0.9,368.633,M,49.480,M,0.54,0195*7E
$GPVTG,338.4718,T,338.4718,M,1.325,N,2.455,K,D*25
$RDENS,140,4448592,PC
$GPGGA,122127.60,4612.1640849,N,00607.5780319,E,4,11,0.9,368.626,M,49.480,M,0.74,0195*7A
$GPVTG,339.9434,T,339.9434,M,1.282,N,2.376,K,D*2F
$GPGGA,122127.80,4612.1641517,N,00607.5779967,E,4,11,0.9,368.633,M,49.480,M,0.94,0195*7C
$GPVTG,338.4896,T,338.4896,M,1.288,N,2.387,K,D*2B
$GPGGA,122128.20,4612.1642846,N,00607.5779204,E,4,11,0.9,368.634,M,49.480,M,1.34,0195*71
$GPVTG,337.7047,T,337.7047,M,1.268,N,2.350,K,D*2F
$RDENS,141,4448680,PC
$GPGGA,122128.40,4612.1643506,N,00607.5778836,E,4,11,0.9,368.637,M,49.480,M,1.54,0195*70
$GPVTG,338.7892,T,338.7892,M,1.263,N,2.341,K,D*24
$GPGGA,122128.80,4612.1644809,N,00607.5778055,E,4,11,0.9,368.634,M,49.480,M,1.94,0195*7B
$GPVTG,335.8098,T,335.8098,M,1.269,N,2.352,K,D*2C
$GPGGA,122129.00,4612.1645442,N,00607.5777661,E,4,11,0.9,368.634,M,49.480,M,0.04,0195*76
$GPVTG,339.2552,T,339.2552,M,1.276,N,2.365,K,D*26
$RDENS,142,4448769,PC
$GPGGA,122129.40,4612.1646694,N,00607.5776895,E,4,11,0.9,368.644,M,49.480,M,0.06,0195*79
$GPVTG,334.4123,T,334.4123,M,1.183,N,2.192,K,D*25
$GPGGA,122129.60,4612.1647325,N,00607.5776497,E,4,11,0.9,368.650,M,49.480,M,0.14,0195*7D
$GPVTG,333.7760,T,333.7760,M,1.179,N,2.185,K,D*26
$GPGGA,122130.00,4612.1648569,N,00607.5775716,E,4,11,0.9,368.642,M,49.480,M,0.01,0195*7C
$GPVTG,338.0209,T,338.0209,M,1.256,N,2.328,K,D*2D
$RDENS,143,4448857,PC
$GPGGA,122130.20,4612.1649180,N,00607.5775344,E,4,11,0.9,368.636,M,49.480,M,0.19,0195*75
$GPVTG,334.9037,T,334.9037,M,1.140,N,2.113,K,D*23
$GPGGA,122130.60,4612.1650372,N,00607.5774560,E,4,11,0.9,368.644,M,49.480,M,0.59,0195*76
$GPVTG,335.7607,T,335.7607,M,1.202,N,2.227,K,D*22
$GPGGA,122130.80,4612.1650965,N,00607.5774180,E,4,11,0.9,368.656,M,49.480,M,0.79,0195*7F
$GPVTG,336.2603,T,336.2603,M,1.227,N,2.273,K,D*24
$RDENS,144,4448945,PC
$GPGGA,122131.20,4612.1652200,N,00607.5773423,E,4,11,0.9,368.639,M,49.480,M,0.05,0195*77
$GPVTG,336.7414,T,336.7414,M,1.223,N,2.267,K,D*25
$GPVTG,334.0769,T,334.0769,M,1.147,N,2.126,K,D*22
$GPGGA,122131.60,4612.1653366,N,00607.5772584,E,4,11,0.9,368.651,M,49.480,M,0.14,0195*70
$GPVTG,334.9338,T,334.9338,M,1.215,N,2.251,K,D*25
$GPGGA,122131.80,4612.1653965,N,00607.5772166,E,4,11,0.9,368.653,M,49.480,M,0.34,0195*7F
$RDENS,145,4449033,PC
$GPVTG,334.8666,T,334.8666,M,1.263,N,2.340,K,D*25
$GPGGA,122132.20,4612.1655182,N,00607.5771311,E,4,11,0.9,368.642,M,49.480,M,0.74,0195*74
$GPVTG,332.4980,T,332.4980,M,1.160,N,2.150,K,D*26
$GPGGA,122132.40,4612.1655831,N,00607.5770897,E,4,11,0.9,368.648,M,49.480,M,0.09,0195*77
$GPVTG,335.6737,T,335.6737,M,1.295,N,2.400,K,D*2F
$GPGGA,122132.80,4612.1657104,N,00607.5770063,E,4,11,0.9,368.644,M,49.480,M,0.31,0195*72
$RDENS,146,4449121,PC
$GPVTG,335.8357,T,335.8357,M,1.269,N,2.353,K,D*2D
$GPGGA,122133.00,4612.1657727,N,00607.5769646,E,4,11,0.9,368.647,M,49.480,M,0.51,0195*70
$GPVTG,337.4645,T,337.4645,M,1.294,N,2.398,K,D*28
$GPGGA,122133.40,4612.1659027,N,00607.5768801,E,4,11,0.9,368.656,M,49.480,M,0.04,0195*71
$GPVTG,334.0679,T,334.0679,M,1.283,N,2.377,K,D*2F
$GPGGA,122133.60,4612.1659710,N,00607.5768371,E,4,11,0.9,368.655,M,49.480,M,0.24,0195*7D
$RDENS,147,4449209,PC
$GPVTG,336.0013,T,336.0013,M,1.287,N,2.385,K,D*26
$GPGGA,122134.00,4612.1661045,N,00607.5767506,E,4,11,0.9,368.654,M,49.480,M,0.64,0195*7C
$GPVTG,336.2423,T,336.2423,M,1.338,N,2.480,K,D*21
$GPGGA,122134.20,4612.1661732,N,00607.5767047,E,4,11,0.9,368.650,M,49.480,M,0.84,0195*73
$GPVTG,335.8409,T,335.8409,M,1.399,N,2.592,K,D*28
$GPGGA,122134.60,4612.1663132,N,00607.5766120,E,4,11,0.9,368.646,M,49.480,M,0.08,0195*71
$RDENS,148,4449297,PC
$GPVTG,335.5540,T,335.5540,M,1.383,N,2.563,K,D*2D
$GPGGA,122134.80,4612.1663838,N,00607.5765667,E,4,11,0.9,368.648,M,49.480,M,0.28,0195*77
$GPVTG,337.1405,T,337.1405,M,1.413,N,2.619,K,D*2D
$GPGGA,122135.20,4612.1665275,N,00607.5764758,E,4,11,0.9,368.653,M,49.480,M,0.68,0195*7B
$GPVTG,334.9278,T,334.9278,M,1.409,N,2.611,K,D*2E
$GPGGA,122135.40,4612.1665981,N,00607.5764326,E,4,11,0.9,368.662,M,49.480,M,0.88,0195*7C
$RDENS,149,4449385,PC
$GPVTG,335.9869,T,335.9869,M,1.430,N,2.651,K,D*20
$GPGGA,122135.60,4612.1666702,N,00607.5763860,E,4,11,0.9,368.648,M,49.480,M,1.08,0195*77
$GPVTG,335.5550,T,335.5550,M,1.447,N,2.682,K,D*2E
$GPGGA,122136.00,4612.1668179,N,00607.5762959,E,4,11,0.9,368.653,M,49.480,M,1.48,0195*72
$GPVTG,338.4427,T,338.4427,M,1.427,N,2.645,K,D*23
$GPGGA,122136.20,4612.1668947,N,00607.5762530,E,4,11,0.9,368.648,M,49.480,M,1.68,0195*7E
$RDENS,150,4449473,PC
$GPVTG,337.6011,T,337.6011,M,1.421,N,2.634,K,D*23
$GPGGA,122136.60,4612.1670468,N,00607.5761702,E,4,11,0.9,368.642,M,49.480,M,2.08,0195*7C
$GPVTG,340.3956,T,340.3956,M,1.500,N,2.780,K,D*2F
$GPGGA,122136.80,4612.1671252,N,00607.5761309,E,4,11,0.9,368.640,M,49.480,M,0.00,0195*7B
$GPVTG,339.4082,T,339.4082,M,1.463,N,2.712,K,D*20
$GPGGA,122137.20,4612.1672773,N,00607.5760483,E,4,11,0.9,368.638,M,49.480,M,0.40,0195*7A
$RDENS,151,4449561,PC
$GPVTG,339.4293,T,339.4293,M,1.458,N,2.701,K,D*2A
$GPGGA,122137.40,4612.1673526,N,00607.5760094,E,4,11,0.9,368.649,M,49.480,M,0.06,0195*79
$GPVTG,339.7218,T,339.7218,M,1.531,N,2.838,K,D*21
$GPGGA,122137.80,4612.1675116,N,00607.5759284,E,4,11,0.9,368.642,M,49.480,M,0.06,0195*76
$GPVTG,340.2011,T,340.2011,M,1.483,N,2.748,K,D*21
$GPGGA,122138.00,4612.1675887,N,00607.5758903,E,4,11,0.9,368.647,M,49.480,M,0.14,0195*73
$RDENS,152,4449649,PC
$GPVTG,340.1706,T,340.1706,M,1.457,N,2.700,K,D*24
$GPGGA,122138.40,4612.1677413,N,00607.5758113,E,4,11,0.9,368.645,M,49.480,M,0.05,0195*7F
$GPVTG,339.8211,T,339.8211,M,1.458,N,2.702,K,D*29
$GPGGA,122138.60,4612.1678166,N,00607.5757702,E,4,11,0.9,368.648,M,49.480,M,0.15,0195*70
$GPVTG,340.8710,T,340.8710,M,1.436,N,2.661,K,D*25
$GPGGA,122139.00,4612.1679669,N,00607.5756942,E,4,11,0.9,368.649,M,49.480,M,0.55,0195*70
$RDENS,153,4449737,PC
$GPVTG,339.7581,T,339.7581,M,1.414,N,2.620,K,D*20
$GPGGA,122139.20,4612.1680379,N,00607.5756552,E,4,11,0.9,368.650,M,49.480,M,0.11,0195*75
$GPVTG,339.4345,T,339.4345,M,1.382,N,2.560,K,D*2F
$GPGGA,122139.60,4612.1681816,N,00607.5755753,E,4,11,0.9,368.651,M,49.480,M,0.29,0195*78
$GPVTG,338.3012,T,338.3012,M,1.397,N,2.588,K,D*2D
$GPGGA,122139.80,4612.1682533,N,00607.5755374,E,4,11,0.9,368.646,M,49.480,M,0.49,0195*7E
$RDENS,154,4449825,PC
$GPVTG,339.3334,T,339.3334,M,1.382,N,2.560,K,D*2F
$GPGGA,122140.20,4612.1683912,N,00607.5754562,E,4,11,0.9,368.642,M,49.480,M,0.89,0195*7C
$GPVTG,336.5202,T,336.5202,M,1.320,N,2.447,K,D*23
$GPGGA,122140.40,4612.1684624,N,00607.5754171,E,4,11,0.9,368.650,M,49.480,M,1.09,0195*7B
$GPVTG,339.3063,T,339.3063,M,1.327,N,2.459,K,D*2B
$GPGGA,122140.60,4612.1685305,N,00607.5753793,E,4,11,0.9,368.648,M,49.480,M,1.29,0195*78
$RDENS,155,4449913,PC
$GPVTG,338.2933,T,338.2933,M,1.314,N,2.436,K,D*22
$GPGGA,122141.00,4612.1686682,N,00607.5753051,E,4,11,0.9,368.658,M,49.480,M,1.69,0195*7A
$GPVTG,340.4314,T,340.4314,M,1.326,N,2.457,K,D*24
$GPGGA,122141.20,4612.1687348,N,00607.5752686,E,4,11,0.9,368.664,M,49.480,M,1.89,0195*76
$GPVTG,341.2995,T,341.2995,M,1.319,N,2.444,K,D*2A
$GPGGA,122141.60,4612.1688730,N,00607.5752022,E,4,11,0.9,368.646,M,49.480,M,2.29,0195*77
$RDENS,156,4450001,PC
$GPVTG,340.8266,T,340.8266,M,1.301,N,2.411,K,D*23
$GPGGA,122141.80,4612.1689366,N,00607.5751653,E,4,11,0.9,368.645,M,49.480,M,0.04,0195*72
$GPVTG,340.8824,T,340.8824,M,1.314,N,2.436,K,D*22
$GPGGA,122142.20,4612.1690734,N,00607.5750899,E,4,11,0.9,368.629,M,49.480,M,0.05,0195*72
$GPVTG,337.9934,T,337.9934,M,1.323,N,2.451,K,D*27
$GPGGA,122142.40,4612.1691430,N,00607.5750488,E,4,11,0.9,368.624,M,49.480,M,0.10,0195*77
$RDENS,157,4450089,PC
$GPVTG,336.9662,T,336.9662,M,1.315,N,2.437,K,D*22
$GPGGA,122142.80,4612.1692743,N,00607.5749646,E,4,11,0.9,368.631,M,49.480,M,0.30,0195*71
$GPVTG,334.1373,T,334.1373,M,1.241,N,2.299,K,D*20
$GPGGA,122143.00,4612.1693395,N,00607.5749228,E,4,11,0.9,368.652,M,49.480,M,0.50,0195*79
$GPVTG,338.2471,T,338.2471,M,1.390,N,2.576,K,D*2B
$GPGGA,122143.40,4612.1694783,N,00607.5748350,E,4,11,0.9,368.651,M,49.480,M,0.00,0195*70
$RDENS,158,4450177,PC
$GPVTG,335.8081,T,335.8081,M,1.374,N,2.547,K,D*23
$GPGGA,122143.60,4612.1695460,N,00607.5747896,E,4,11,0.9,368.636,M,49.480,M,0.20,0195*70
$GPVTG,335.8412,T,335.8412,M,1.329,N,2.463,K,D*2C
$GPGGA,122144.00,4612.1696806,N,00607.5747019,E,4,11,0.9,368.643,M,49.480,M,0.60,0195*77
$GPVTG,335.9124,T,335.9124,M,1.329,N,2.463,K,D*2C
$GPGGA,122144.20,4612.1697473,N,00607.5746528,E,4,11,0.9,368.641,M,49.480,M,0.80,0195*70
$RDENS,159,4450265,PC
$GPVTG,334.7794,T,334.7794,M,1.374,N,2.547,K,D*23
$GPGGA,122144.60,4612.1698860,N,00607.5745585,E,4,11,0.9,368.644,M,49.480,M,1.20,0195*7F
$GPVTG,334.2582,T,334.2582,M,1.399,N,2.593,K,D*29
$GPGGA,122144.80,4612.1699533,N,00607.5745079,E,4,11,0.9,368.648,M,49.480,M,1.40,0195*77
$GPVTG,334.6919,T,334.6919,M,1.419,N,2.630,K,D*2C
$GPGGA,122145.00,4612.1700255,N,00607.5744608,E,4,11,0.9,368.651,M,49.480,M,1.60,0195*73
$RDENS,160,4450353,PC
$GPVTG,331.5933,T,331.5933,M,1.451,N,2.690,K,D*2A
$GPGGA,122145.40,4612.1701706,N,00607.5743590,E,4,11,0.9,368.640,M,49.480,M,2.00,0195*75
$GPVTG,336.1486,T,336.1486,M,1.473,N,2.729,K,D*29
$GPGGA,122145.60,4612.1702398,N,00607.5743100,E,4,11,0.9,368.643,M,49.480,M,2.20,0195*7B
$GPVTG,333.6032,T,333.6032,M,1.461,N,2.707,K,D*26
$GPGGA,122146.00,4612.1703880,N,00607.5742049,E,4,11,0.9,368.641,M,49.480,M,0.07,0195*75
$RDENS,161,4450441,PC
$GPVTG,332.9500,T,332.9500,M,1.497,N,2.775,K,D*2A
$GPGGA,122146.20,4612.1704620,N,00607.5741522,E,4,11,0.9,368.640,M,49.480,M,0.27,0195*7C
$GPVTG,334.6613,T,334.6613,M,1.498,N,2.777,K,D*27
$GPGGA,122146.60,4612.1706129,N,00607.5740510,E,4,11,0.9,368.646,M,49.480,M,0.67,0195*76
$GPVTG,335.7524,T,335.7524,M,1.507,N,2.794,K,D*2D
$GPGGA,122146.80,4612.1706874,N,00607.5739984,E,4,11,0.9,368.645,M,49.480,M,0.06,0195*72
$RDENS,162,4450529,PC
$GPVTG,334.0260,T,334.0260,M,1.545,N,2.863,K,D*2C
$GPGGA,122147.20,4612.1708425,N,00607.5738914,E,4,11,0.9,368.632,M,49.480,M,0.34,0195*76
$GPVTG,334.8666,T,334.8666,M,1.547,N,2.866,K,D*2B
$GPGGA,122147.40,4612.1709173,N,00607.5738398,E,4,11,0.9,368.627,M,49.480,M,0.02,0195*78
$GPVTG,331.6491,T,331.6491,M,1.491,N,2.763,K,D*2B
$GPGGA,122147.80,4612.1710663,N,00607.5737291,E,4,11,0.9,368.632,M,49.480,M,0.42,0195*7D
$RDENS,163,4450617,PC
$GPVTG,334.2278,T,334.2278,M,1.538,N,2.851,K,D*27
$GPGGA,122148.00,4612.1711446,N,00607.5736810,E,4,11,0.9,368.629,M,49.480,M,0.62,0195*74
$GPVTG,334.2062,T,334.2062,M,1.492,N,2.765,K,D*2E
$GPGGA,122148.40,4612.1712962,N,00607.5735774,E,4,11,0.9,368.642,M,49.480,M,1.02,0195*7C
$GPVTG,335.3949,T,335.3949,M,1.528,N,2.831,K,D*20
$GPGGA,122148.60,4612.1713730,N,00607.5735247,E,4,11,0.9,368.640,M,49.480,M,1.22,0195*73
$RDENS,164,4450705,PC
$GPVTG,334.7788,T,334.7788,M,1.527,N,2.830,K,D*2E
$GPGGA,122149.00,4612.1715259,N,00607.5734191,E,4,11,0.9,368.637,M,49.480,M,1.62,0195*75
$GPVTG,333.6790,T,333.6790,M,1.502,N,2.783,K,D*2E
$GPGGA,122149.20,4612.1716033,N,00607.5733678,E,4,11,0.9,368.640,M,49.480,M,1.82,0195*73
$GPVTG,334.0006,T,334.0006,M,1.534,N,2.842,K,D*29
$GPGGA,122149.60,4612.1717553,N,00607.5732587,E,4,11,0.9,368.647,M,49.480,M,2.22,0195*79
$RDENS,165,4450793,PC
$GPVTG,332.7990,T,332.7990,M,1.501,N,2.782,K,D*2C
$GPGGA,122149.80,4612.1718297,N,00607.5732070,E,4,11,0.9,368.659,M,49.480,M,0.07,0195*70
$GPVTG,335.7655,T,335.7655,M,1.526,N,2.828,K,D*26
$GPGGA,122150.00,4612.1719081,N,00607.5731563,E,4,11,0.9,368.663,M,49.480,M,0.13,0195*7C
$GPVTG,334.3974,T,334.3974,M,1.514,N,2.807,K,D*2A
$GPGGA,122150.40,4612.1720616,N,00607.5730508,E,4,11,0.9,368.662,M,49.480,M,0.14,0195*70
$RDENS,166,4450881,PC
$GPVTG,334.1707,T,334.1707,M,1.542,N,2.858,K,D*23
$GPGGA,122150.60,4612.1721412,N,00607.5729983,E,4,11,0.9,368.664,M,49.480,M,0.34,0195*76
$GPVTG,334.6853,T,334.6853,M,1.538,N,2.851,K,D*27
$GPGGA,122151.00,4612.1722964,N,00607.5728924,E,4,11,0.9,368.657,M,49.480,M,0.74,0195*76
$GPVTG,335.0570,T,335.0570,M,1.568,N,2.905,K,D*22
$GPGGA,122151.20,4612.1723762,N,00607.5728377,E,4,11,0.9,368.654,M,49.480,M,0.94,0195*7C
$RDENS,167,4450969,PC
$GPVTG,335.8279,T,335.8279,M,1.490,N,2.761,K,D*28
$GPGGA,122151.60,4612.1725305,N,00607.5727363,E,4,11,0.9,368.666,M,49.480,M,1.34,0195*7B
$GPVTG,334.8573,T,334.8573,M,1.558,N,2.887,K,D*2A
$GPGGA,122151.80,4612.1726110,N,00607.5726834,E,4,11,0.9,368.671,M,49.480,M,1.54,0195*78
$GPVTG,334.2561,T,334.2561,M,1.553,N,2.878,K,D*21
$GPGGA,122152.20,4612.1727669,N,00607.5725754,E,4,11,0.9,368.674,M,49.480,M,0.15,0195*72
$RDENS,168,4451057,PC
$GPVTG,333.8279,T,333.8279,M,1.536,N,2.847,K,D*2E
$GPGGA,122152.40,4612.1728454,N,00607.5725257,E,4,11,0.9,368.678,M,49.481,M,0.35,0195*7E
$GPVTG,335.3077,T,335.3077,M,1.560,N,2.891,K,D*26
$GPGGA,122152.80,4612.1730026,N,00607.5724199,E,4,11,0.9,368.665,M,49.481,M,0.23,0195*71
$GPVTG,334.6366,T,334.6366,M,1.556,N,2.885,K,D*26
$GPGGA,122153.00,4612.1730794,N,00607.5723684,E,4,11,0.9,368.657,M,49.481,M,0.12,0195*79
$RDENS,169,4451145,PC
$GPVTG,334.7039,T,334.7039,M,1.461,N,2.708,K,D*29
$GPGGA,122153.40,4612.1732313,N,00607.5722691,E,4,11,0.9,368.669,M,49.481,M,0.28,0195*75
$GPVTG,335.6372,T,335.6372,M,1.516,N,2.810,K,D*2E
$GPVTG,336.7808,T,336.7808,M,1.534,N,2.842,K,D*29
$GPGGA,122153.80,4612.1733881,N,00607.5721722,E,4,11,0.9,368.655,M,49.481,M,0.33,0195*77
$GPVTG,333.3506,T,333.3506,M,1.482,N,2.747,K,D*2F
$RDENS,170,4451233,PC
$GPGGA,122154.00,4612.1734615,N,00607.5721190,E,4,11,0.9,368.665,M,49.481,M,0.53,0195*76
$GPVTG,335.0158,T,335.0158,M,1.476,N,2.734,K,D*20
$GPGGA,122154.40,4612.1736143,N,00607.5720244,E,4,11,0.9,368.677,M,49.481,M,0.93,0195*70
$GPVTG,337.7309,T,337.7309,M,1.507,N,2.793,K,D*2A
$GPGGA,122154.60,4612.1736930,N,00607.5719792,E,4,11,0.9,368.671,M,49.481,M,0.07,0195*71
$GPVTG,334.2357,T,334.2357,M,1.408,N,2.609,K,D*26
$RDENS,171,4451321,PC
$GPGGA,122155.00,4612.1738437,N,00607.5718865,E,4,11,0.9,368.691,M,49.481,M,0.47,0195*7E
$GPVTG,339.0811,T,339.0811,M,1.547,N,2.866,K,D*2B
$GPGGA,122155.20,4612.1739181,N,00607.5718372,E,4,11,0.9,368.676,M,49.481,M,0.67,0195*73
$GPVTG,335.6219,T,335.6219,M,1.458,N,2.703,K,D*28
$GPGGA,122155.60,4612.1740658,N,00607.5717430,E,4,11,0.9,368.678,M,49.481,M,1.07,0195*7D
$GPVTG,337.2847,T,337.2847,M,1.454,N,2.695,K,D*2A
$RDENS,172,4451409,PC
$GPGGA,122155.80,4612.1741377,N,00607.5716977,E,4,11,0.9,368.687,M,49.481,M,0.14,0195*76
$GPVTG,335.5501,T,335.5501,M,1.424,N,2.638,K,D*2A
$GPGGA,122156.20,4612.1742826,N,00607.5716105,E,4,11,0.9,368.675,M,49.481,M,0.26,0195*72
$GPVTG,338.6854,T,338.6854,M,1.407,N,2.608,K,D*28
$GPGGA,122156.40,4612.1743540,N,00607.5715692,E,4,11,0.9,368.665,M,49.481,M,0.46,0195*75
$GPVTG,337.3157,T,337.3157,M,1.432,N,2.653,K,D*20
$RDENS,173,4451497,PC
$GPGGA,122156.80,4612.1744966,N,00607.5714781,E,4,11,0.9,368.660,M,49.481,M,0.86,0195*7D
$GPVTG,335.6213,T,335.6213,M,1.384,N,2.566,K,D*2F
$GPGGA,122157.00,4612.1745668,N,00607.5714365,E,4,11,0.9,368.662,M,49.481,M,1.06,0195*71
$GPVTG,335.6849,T,335.6849,M,1.358,N,2.517,K,D*28
$GPGGA,122157.40,4612.1747054,N,00607.5713497,E,4,11,0.9,368.666,M,49.481,M,1.46,0195*73
$GPVTG,337.4489,T,337.4489,M,1.362,N,2.523,K,D*26
$RDENS,174,4451585,PC
$GPGGA,122157.60,4612.1747721,N,00607.5713066,E,4,11,0.9,368.663,M,49.481,M,1.66,0195*79
$GPVTG,336.9793,T,336.9793,M,1.339,N,2.482,K,D*22
$GPGGA,122157.80,4612.1748406,N,00607.5712645,E,4,11,0.9,368.671,M,49.481,M,1.86,0195*75
$GPVTG,338.4050,T,338.4050,M,1.364,N,2.528,K,D*2B
$GPGGA,122158.20,4612.1749763,N,00607.5711838,E,4,11,0.9,368.686,M,49.481,M,2.26,0195*77
$GPVTG,336.2175,T,336.2175,M,1.266,N,2.347,K,D*27
$RDENS,175,4451673,PC
$GPGGA,122158.40,4612.1750426,N,00607.5711427,E,4,11,0.9,368.681,M,49.481,M,2.46,0195*78
$GPVTG,335.5162,T,335.5162,M,1.265,N,2.344,K,D*27
$GPGGA,122158.80,4612.1751733,N,00607.5710559,E,4,11,0.9,368.685,M,49.481,M,2.86,0195*73
$GPVTG,334.6703,T,334.6703,M,1.312,N,2.432,K,D*20
$GPGGA,122159.00,4612.1752429,N,00607.5710161,E,4,11,0.9,368.671,M,49.481,M,0.04,0195*7D
$GPVTG,341.4596,T,341.4596,M,1.309,N,2.426,K,D*2F
$RDENS,176,4451761,PC
$GPGGA,122159.40,4612.1753749,N,00607.5709414,E,4,11,0.9,368.687,M,49.481,M,0.44,0195*7F
$GPVTG,335.7827,T,335.7827,M,1.251,N,2.318,K,D*29
$GPGGA,122159.60,4612.1754397,N,00607.5709029,E,4,11,0.9,368.695,M,49.481,M,0.64,0195*76
$GPVTG,340.9438,T,340.9438,M,1.287,N,2.385,K,D*26
$GPGGA,122200.00,4612.1755768,N,00607.5708357,E,4,11,0.9,368.684,M,49.481,M,1.04,0195*76
$GPVTG,341.6313,T,341.6313,M,1.320,N,2.446,K,D*22
$RDENS,177,4451849,PC
$GPGGA,122200.20,4612.1756428,N,00607.5707990,E,4,11,0.9,368.681,M,49.481,M,1.24,0195*79
$GPVTG,341.1676,T,341.1676,M,1.285,N,2.381,K,D*20
$GPGGA,122200.60,4612.1757722,N,00607.5707279,E,4,11,0.9,368.671,M,49.481,M,1.64,0195*72
$GPVTG,337.1963,T,337.1963,M,1.210,N,2.242,K,D*22
$GPGGA,122200.80,4612.1758404,N,00607.5706964,E,4,11,0.9,368.661,M,49.481,M,0.13,0195*72
$GPVTG,338.2426,T,338.2426,M,1.171,N,2.171,K,D*25
$RDENS,178,4451937,PC
$GPGGA,122201.20,4612.1759664,N,00607.5706313,E,4,11,0.9,368.661,M,49.481,M,0.27,0195*71
$GPVTG,342.8888,T,342.8888,M,1.224,N,2.269,K,D*2C
$GPGGA,122201.40,4612.1760297,N,00607.5706019,E,4,11,0.9,368.673,M,49.481,M,0.14,0195*7F
$GPVTG,337.7077,T,337.7077,M,1.186,N,2.198,K,D*2A
$GPGGA,122201.80,4612.1761527,N,00607.5705352,E,4,11,0.9,368.665,M,49.481,M,0.25,0195*74
$GPVTG,341.3452,T,341.3452,M,1.184,N,2.195,K,D*25
$RDENS,179,4452025,PC
$GPGGA,122202.00,4612.1762123,N,00607.5705055,E,4,11,0.9,368.670,M,49.481,M,0.15,0195*7F
$GPVTG,340.2648,T,340.2648,M,1.103,N,2.045,K,D*26
$GPGGA,122202.40,4612.1763310,N,00607.5704491,E,4,11,0.9,368.653,M,49.481,M,0.55,0195*70
$GPVTG,343.0132,T,343.0132,M,1.159,N,2.148,K,D*25
$GPGGA,122202.60,4612.1763880,N,00607.5704202,E,4,11,0.9,368.651,M,49.481,M,0.11,0195*7E
$GPVTG,344.5961,T,344.5961,M,1.138,N,2.110,K,D*2F
$RDENS,180,4452113,PC
$GPGGA,122202.80,4612.1764507,N,00607.5703958,E,4,11,0.9,368.665,M,49.481,M,0.09,0195*78
$GPVTG,336.6347,T,336.6347,M,1.070,N,1.982,K,D*22
$GPGGA,122203.20,4612.1765628,N,00607.5703319,E,4,11,0.9,368.649,M,49.481,M,0.49,0195*79
$GPVTG,340.2349,T,340.2349,M,1.106,N,2.050,K,D*27
$GPGGA,122203.40,4612.1766186,N,00607.5703027,E,4,11,0.9,368.646,M,49.481,M,0.05,0195*76
$GPVTG,340.3802,T,340.3802,M,1.068,N,1.979,K,D*2F
$RDENS,181,4452201,PC
$GPGGA,122203.80,4612.1767282,N,00607.5702479,E,4,11,0.9,368.650,M,49.481,M,0.35,0195*76
$GPVTG,341.3939,T,341.3939,M,1.021,N,1.893,K,D*27
$GPGGA,122204.00,4612.1767840,N,00607.5702206,E,4,11,0.9,368.657,M,49.481,M,0.55,0195*72
$GPVTG,342.4963,T,342.4963,M,1.083,N,2.007,K,D*29
$GPGGA,122204.40,4612.1768904,N,00607.5701652,E,4,11,0.9,368.660,M,49.481,M,0.95,0195*76
$GPVTG,336.4691,T,336.4691,M,0.932,N,1.727,K,D*2D
$RDENS,182,4452289,PC
$GPGGA,122204.60,4612.1769460,N,00607.5701427,E,4,10,1.0,368.651,M,49.481,M,1.15,0195*78
$GPVTG,341.9282,T,341.9282,M,1.030,N,1.909,K,D*25
$GPGGA,122205.00,4612.1770524,N,00607.5700893,E,4,10,1.0,368.645,M,49.481,M,1.55,0195*75
$GPVTG,339.6244,T,339.6244,M,1.001,N,1.855,K,D*2F
$GPGGA,122205.20,4612.1771051,N,00607.5700674,E,4,10,1.0,368.640,M,49.481,M,1.75,0195*71
$GPVTG,341.7649,T,341.7649,M,0.977,N,1.811,K,D*26
$RDENS,183,4452377,PC
$GPGGA,122205.60,4612.1772094,N,00607.5700197,E,4,10,1.0,368.636,M,49.481,M,2.15,0195*71
$GPVTG,342.9709,T,342.9709,M,0.998,N,1.850,K,D*22
$GPGGA,122205.80,4612.1772580,N,00607.5699983,E,4,10,1.0,368.633,M,49.481,M,0.11,0195*70
$GPVTG,344.9564,T,344.9564,M,0.990,N,1.834,K,D*28
$GPGGA,122206.20,4612.1773597,N,00607.5699560,E,4,10,1.0,368.631,M,49.481,M,0.12,0195*7E
$RDENS,184,4452465,PC
$GPVTG,342.3563,T,342.3563,M,0.913,N,1.692,K,D*21
$GPGGA,122206.40,4612.1774081,N,00607.5699378,E,4,10,1.0,368.623,M,49.481,M,0.06,0195*74
$GPVTG,350.3179,T,350.3179,M,0.959,N,1.777,K,D*25
$GPGGA,122206.80,4612.1775060,N,00607.5699026,E,4,10,1.0,368.637,M,49.481,M,0.34,0195*7A
$GPVTG,341.7621,T,341.7621,M,0.869,N,1.611,K,D*26
$GPGGA,122207.00,4612.1775534,N,00607.5698893,E,4,10,1.0,368.630,M,49.481,M,0.54,0195*71
$RDENS,185,4452553,PC
$GPVTG,349.1480,T,349.1480,M,0.879,N,1.629,K,D*2C
$GPGGA,122207.40,4612.1776479,N,00607.5698617,E,4,10,1.0,368.639,M,49.481,M,0.94,0195*79
$GPVTG,347.5367,T,347.5367,M,0.844,N,1.565,K,D*29
$GPGGA,122207.60,4612.1776924,N,00607.5698481,E,4,10,1.0,368.631,M,49.481,M,0.01,0195*77
$GPVTG,353.3508,T,353.3508,M,0.913,N,1.693,K,D*20
$GPGGA,122207.80,4612.1777426,N,00607.5698399,E,4,10,1.0,368.645,M,49.481,M,0.19,0195*73
$GPVTG,347.0219,T,347.0219,M,0.774,N,1.434,K,D*20
$RDENS,186,4452641,PC
$GPGGA,122208.20,4612.1778309,N,00607.5698176,E,4,10,1.0,368.651,M,49.481,M,0.59,0195*71
$GPVTG,352.7061,T,352.7061,M,0.822,N,1.523,K,D*2B
$GPGGA,122208.40,4612.1778776,N,00607.5698104,E,4,10,1.0,368.643,M,49.481,M,0.79,0195*7F
$GPVTG,351.2743,T,351.2743,M,0.741,N,1.374,K,D*25
$GPGGA,122208.80,4612.1779621,N,00607.5697945,E,4,10,1.0,368.655,M,49.481,M,0.15,0195*7E
$GPVTG,354.2611,T,354.2611,M,0.767,N,1.422,K,D*25
$RDENS,187,4452729,PC
$GPGGA,122209.00,4612.1780054,N,00607.5697903,E,4,10,1.0,368.665,M,49.481,M,0.35,0195*76
$GPVTG,350.7352,T,350.7352,M,0.726,N,1.345,K,D*26
$GPGGA,122209.40,4612.1780891,N,00607.5697796,E,4,10,1.0,368.656,M,49.481,M,0.75,0195*75
$GPVTG,358.7098,T,358.7098,M,0.784,N,1.453,K,D*2E
$GPGGA,122209.60,4612.1781286,N,00607.5697725,E,4,10,1.0,368.641,M,49.481,M,0.05,0195*73
$RDENS,188,4452817,PC
$GPVTG,359.9118,T,359.9118,M,0.736,N,1.364,K,D*24
$GPGGA,122210.00,4612.1782069,N,00607.5697656,E,4,10,1.0,368.639,M,49.481,M,0.45,0195*73
$GPVTG,352.7017,T,352.7017,M,0.696,N,1.289,K,D*2D
$GPGGA,122210.20,4612.1782458,N,00607.5697647,E,4,10,1.0,368.652,M,49.481,M,0.65,0195*78
$GPVTG,357.6985,T,357.6985,M,0.660,N,1.223,K,D*24
$GPGGA,122210.60,4612.1783217,N,00607.5697658,E,4,10,1.0,368.658,M,49.481,M,1.05,0195*73
$GPVTG,2.7333,T,2.7333,M,0.737,N,1.367,K,D*26
$RDENS,189,4452905,PC
$GPGGA,122210.80,4612.1783569,N,00607.5697676,E,4,10,1.0,368.659,M,49.481,M,1.25,0195*7C
$GPVTG,3.7349,T,3.7349,M,0.701,N,1.299,K,D*23
$GPGGA,122211.00,4612.1783956,N,00607.5697716,E,4,10,1.0,368.655,M,49.481,M,0.08,0195*70
$GPVTG,3.8827,T,3.8827,M,0.615,N,1.139,K,D*2E
$GPGGA,122211.20,4612.1784296,N,00607.5697757,E,4,10,1.0,368.654,M,49.481,M,0.12,0195*7D
$GPVTG,4.6174,T,4.6174,M,0.707,N,1.310,K,D*25
$RDENS,190,4452993,PC
$GPGGA,122211.60,4612.1785039,N,00607.5697877,E,4,10,1.0,368.661,M,49.481,M,0.52,0195*70
$GPVTG,4.1178,T,4.1178,M,0.656,N,1.215,K,D*24
$GPGGA,122211.80,4612.1785395,N,00607.5697910,E,4,10,1.0,368.652,M,49.481,M,0.08,0195*74
$GPVTG,7.5608,T,7.5608,M,0.614,N,1.138,K,D*2E
$GPGGA,122212.20,4612.1786106,N,00607.5697978,E,4,10,1.0,368.640,M,49.481,M,0.48,0195*7F
$GPVTG,8.5003,T,8.5003,M,0.665,N,1.232,K,D*21
$RDENS,191,4453081,PC
$GPGGA,122212.40,4612.1786474,N,00607.5698058,E,4,10,1.0,368.655,M,49.481,M,0.68,0195*7B
$GPVTG,357.9147,T,357.9147,M,0.555,N,1.028,K,D*28
$GPGGA,122212.80,4612.1787164,N,00607.5698129,E,4,10,1.0,368.644,M,49.481,M,1.08,0195*72
$GPVTG,2.2512,T,2.2512,M,0.662,N,1.227,K,D*22
$GPGGA,122213.00,4612.1787533,N,00607.5698151,E,4,10,1.0,368.629,M,49.481,M,1.28,0195*7B
$GPVTG,7.7578,T,7.7578,M,0.610,N,1.130,K,D*22
$RDENS,192,4453168,PC
$GPGGA,122213.40,4612.1788223,N,00607.5698300,E,4,10,1.0,368.631,M,49.481,M,1.68,0195*7D
$GPVTG,6.1263,T,6.1263,M,0.599,N,1.110,K,D*22
$GPGGA,122213.60,4612.1788555,N,00607.5698352,E,4,10,1.0,368.628,M,49.481,M,1.88,0195*78
$GPVTG,6.3243,T,6.3243,M,0.661,N,1.224,K,D*22
$GPGGA,122213.80,4612.1788916,N,00607.5698412,E,4,10,1.0,368.627,M,49.481,M,2.08,0195*7A
$GPVTG,10.2889,T,10.2889,M,0.685,N,1.269,K,D*21
$RDENS,193,4453257,PC
$GPGGA,122214.20,4612.1789648,N,00607.5698577,E,4,10,1.0,368.633,M,49.481,M,0.04,0195*7B
$GPVTG,11.0672,T,11.0672,M,0.674,N,1.248,K,D*2C
$GPGGA,122214.60,4612.1790369,N,00607.5698785,E,4,10,1.0,368.634,M,49.481,M,0.36,0195*78
$GPVTG,12.3034,T,12.3034,M,0.652,N,1.209,K,D*2D
$GPGGA,122214.80,4612.1790766,N,00607.5698925,E,4,10,1.0,368.636,M,49.481,M,0.56,0195*7D
$GPVTG,11.4089,T,11.4089,M,0.631,N,1.170,K,D*25
$RDENS,194,4453345,PC
$GPGGA,122215.20,4612.1791505,N,00607.5699155,E,4,10,1.0,368.643,M,49.481,M,0.96,0195*70
$GPVTG,12.4103,T,12.4103,M,0.731,N,1.355,K,D*21
$GPGGA,122215.40,4612.1791829,N,00607.5699238,E,4,10,1.0,368.644,M,49.481,M,1.16,0195*73
$GPVTG,10.8158,T,10.8158,M,0.699,N,1.296,K,D*2C
$GPVTG,10.2571,T,10.2571,M,0.636,N,1.178,K,D*2A
$RDENS,195,4453433,PC
$GPGGA,122216.00,4612.1792948,N,00607.5699559,E,4,10,1.0,368.662,M,49.481,M,1.76,0195*73
$GPVTG,17.6881,T,17.6881,M,0.721,N,1.337,K,D*24
$GPGGA,122216.20,4612.1793324,N,00607.5699738,E,4,10,1.0,368.669,M,49.481,M,1.96,0195*70
$GPVTG,11.9144,T,11.9144,M,0.673,N,1.248,K,D*2B
$GPGGA,122216.60,4612.1794082,N,00607.5699992,E,4,10,1.0,368.660,M,49.481,M,0.03,0195*76
$GPVTG,14.5883,T,14.5883,M,0.702,N,1.301,K,D*20
$RDENS,196,4453521,PC
$GPGGA,122216.80,4612.1794491,N,00607.5700182,E,4,10,1.0,368.662,M,49.481,M,0.23,0195*76
$GPVTG,13.8656,T,13.8656,M,0.692,N,1.282,K,D*22
$GPGGA,122217.20,4612.1795246,N,00607.5700484,E,4,10,1.0,368.643,M,49.481,M,0.63,0195*74
$GPVTG,17.2268,T,17.2268,M,0.723,N,1.340,K,D*26
$GPGGA,122217.40,4612.1795639,N,00607.5700668,E,4,10,1.0,368.645,M,49.481,M,0.83,0195*76
$GPVTG,17.6995,T,17.6995,M,0.683,N,1.265,K,D*2B
$RDENS,197,4453609,PC
$GPGGA,122217.80,4612.1796366,N,00607.5701012,E,4,10,1.0,368.643,M,49.481,M,1.23,0195*71
$GPVTG,18.9115,T,18.9115,M,0.694,N,1.286,K,D*20
$GPGGA,122218.00,4612.1796732,N,00607.5701157,E,4,10,1.0,368.649,M,49.481,M,1.43,0195*7F
$GPVTG,21.6799,T,21.6799,M,0.732,N,1.356,K,D*21
$GPGGA,122218.40,4612.1797475,N,00607.5701514,E,4,10,1.0,368.661,M,49.481,M,1.83,0195*7F
$GPVTG,15.3235,T,15.3235,M,0.679,N,1.257,K,D*2F
$RDENS,198,4453697,PC
$GPGGA,122218.60,4612.1797860,N,00607.5701712,E,4,10,1.0,368.666,M,49.481,M,2.03,0195*7D
$GPVTG,17.4042,T,17.4042,M,0.713,N,1.322,K,D*21
$GPGGA,122218.80,4612.1798239,N,00607.5701881,E,4,10,1.0,368.652,M,49.481,M,2.23,0195*7A
$GPVTG,14.7399,T,14.7399,M,0.700,N,1.297,K,D*2C
$GPGGA,122219.20,4612.1798983,N,00607.5702172,E,4,10,1.0,368.642,M,49.481,M,0.11,0195*7F
$GPVTG,17.0575,T,17.0575,M,0.701,N,1.299,K,D*23
$RDENS,199,4453785,PC
$GPGGA,122219.40,4612.1799395,N,00607.5702322,E,4,10,1.0,368.640,M,49.481,M,0.31,0195*72
$GPVTG,12.7193,T,12.7193,M,0.704,N,1.306,K,D*21
$GPGGA,122219.80,4612.1800188,N,00607.5702586,E,4,10,1.0,368.655,M,49.481,M,0.71,0195*77
$GPVTG,12.9577,T,12.9577,M,0.749,N,1.389,K,D*2F
$GPGGA,122220.00,4612.1800611,N,00607.5702699,E,4,10,1.0,368.672,M,49.481,M,0.91,0195*74
$GPVTG,6.7695,T,6.7695,M,0.785,N,1.454,K,D*28
$GPGGA,122220.20,4612.1801041,N,00607.5702777,E,4,10,1.0,368.664,M,49.481,M,1.11,0195*7B
$RDENS,200,4453873,PC
$GPVTG,6.8532,T,6.8532,M,0.863,N,1.599,K,D*2F
$GPGGA,122220.60,4612.1801984,N,00607.5702932,E,4,10,1.0,368.649,M,49.481,M,1.51,0195*7B
$GPVTG,5.3035,T,5.3035,M,0.938,N,1.738,K,D*29
$GPGGA,122220.80,4612.1802508,N,00607.5703004,E,4,10,1.0,368.641,M,49.481,M,1.71,0195*79
$GPVTG,4.9201,T,4.9201,M,0.892,N,1.654,K,D*23
$GPGGA,122221.00,4612.1803003,N,00607.5703071,E,4,10,1.0,368.649,M,49.481,M,1.91,0195*7B
$RDENS,201,4453961,PC
$GPVTG,2.3639,T,2.3639,M,0.923,N,1.710,K,D*29
$GPGGA,122221.40,4612.1804082,N,00607.5703134,E,4,10,1.0,368.647,M,49.481,M,2.31,0195*76
$GPVTG,1.1738,T,1.1738,M,1.027,N,1.902,K,D*28
$GPGGA,122221.60,4612.1804651,N,00607.5703155,E,4,10,1.0,368.655,M,49.481,M,0.17,0195*7E
$GPVTG,358.6450,T,358.6450,M,0.960,N,1.780,K,D*27
$GPGGA,122222.00,4612.1805762,N,00607.5703106,E,4,10,1.0,368.672,M,49.481,M,0.23,0195*7F
$RDENS,202,4454049,PC
$GPVTG,359.2816,T,359.2816,M,1.119,N,2.074,K,D*2F
$GPGGA,122222.40,4612.1806992,N,00607.5702990,E,4,10,1.0,368.679,M,49.481,M,0.63,0195*70
$GPVTG,353.2710,T,353.2710,M,1.099,N,2.036,K,D*20
$GPGGA,122222.60,4612.1807632,N,00607.5702911,E,4,10,1.0,368.676,M,49.481,M,0.83,0195*7E
$GPVTG,354.2997,T,354.2997,M,1.137,N,2.107,K,D*26
$GPGGA,122223.00,4612.1808937,N,00607.5702693,E,4,10,1.0,368.666,M,49.481,M,1.23,0195*73
$RDENS,203,4454137,PC
$GPVTG,352.4760,T,352.4760,M,1.221,N,2.262,K,D*22
$GPGGA,122223.20,4612.1809625,N,00607.5702574,E,4,10,1.0,368.663,M,49.481,M,1.43,0195*75
$GPVTG,352.2492,T,352.2492,M,1.290,N,2.390,K,D*24
$GPGGA,122223.60,4612.1811050,N,00607.5702244,E,4,10,1.0,368.662,M,49.481,M,1.83,0195*75
$GPVTG,349.5610,T,349.5610,M,1.305,N,2.418,K,D*2E
$GPGGA,122223.80,4612.1811791,N,00607.5702057,E,4,10,1.0,368.664,M,49.481,M,2.03,0195*7C
$RDENS,204,4454225,PC
$GPVTG,348.7612,T,348.7612,M,1.362,N,2.524,K,D*21
$GPGGA,122224.20,4612.1813297,N,00607.5701644,E,4,10,1.0,368.665,M,49.481,M,2.43,0195*72
$GPVTG,349.7018,T,349.7018,M,1.389,N,2.575,K,D*20
$GPGGA,122224.40,4612.1814043,N,00607.5701456,E,4,10,1.0,368.669,M,49.481,M,2.63,0195*77
$GPVTG,349.1729,T,349.1729,M,1.412,N,2.616,K,D*23
$GPGGA,122224.60,4612.1814809,N,00607.5701244,E,4,10,1.0,368.669,M,49.481,M,2.83,0195*78
$RDENS,205,4454313,PC
$GPVTG,350.4717,T,350.4717,M,1.418,N,2.628,K,D*24
$GPGGA,122225.00,4612.1816365,N,00607.5700833,E,4,10,1.0,368.654,M,49.481,M,3.23,0195*72
$GPVTG,348.7762,T,348.7762,M,1.431,N,2.651,K,D*21
$GPGGA,122225.20,4612.1817168,N,00607.5700645,E,4,10,1.0,368.668,M,49.481,M,3.43,0195*78
$GPVTG,350.6363,T,350.6363,M,1.429,N,2.649,K,D*21
$GPGGA,122225.60,4612.1818721,N,00607.5700273,E,4,10,1.0,368.668,M,49.481,M,3.83,0195*75
$RDENS,206,4454401,PC
$GPVTG,350.5309,T,350.5309,M,1.394,N,2.583,K,D*25
$GPGGA,122225.80,4612.1819503,N,00607.5700081,E,4,10,1.0,368.671,M,49.481,M,4.03,0195*70
$GPVTG,352.1253,T,352.1253,M,1.438,N,2.665,K,D*2F
$GPGGA,122226.20,4612.1821061,N,00607.5699734,E,4,10,1.0,368.663,M,49.481,M,4.43,0195*7C
$GPVTG,350.2859,T,350.2859,M,1.392,N,2.579,K,D*26
$GPGGA,122226.40,4612.1821817,N,00607.5699570,E,4,10,1.0,368.656,M,49.481,M,4.63,0195*75
$RDENS,207,4454487,PC
$GPVTG,352.6366,T,352.6366,M,1.354,N,2.510,K,D*23
$GPGGA,122226.80,4612.1823301,N,00607.5699225,E,4,10,1.0,368.657,M,49.481,M,5.03,0195*76
$GPVTG,349.0800,T,349.0800,M,1.356,N,2.513,K,D*22
$GPGGA,122227.00,4612.1824036,N,00607.5699065,E,4,10,1.0,368.661,M,49.481,M,5.23,0195*7E
$GPVTG,351.2193,T,351.2193,M,1.313,N,2.434,K,D*27
$GPGGA,122227.40,4612.1825478,N,00607.5698743,E,4,10,1.0,368.661,M,49.481,M,5.63,0195*73
$RDENS,208,4454574,PC
$GPVTG,351.2127,T,351.2127,M,1.305,N,2.419,K,D*2F
$GPGGA,122227.60,4612.1826187,N,00607.5698612,E,4,10,1.0,368.674,M,49.481,M,5.83,0195*78
$GPVTG,351.7816,T,351.7816,M,1.237,N,2.293,K,D*2B
$GPGGA,122228.00,4612.1827573,N,00607.5698368,E,4,10,1.0,368.670,M,49.481,M,6.23,0195*7A
$GPVTG,354.3179,T,354.3179,M,1.271,N,2.356,K,D*21
$RDENS,209,4454661,PC
$GPGGA,122228.20,4612.1828238,N,00607.5698250,E,4,10,1.0,368.662,M,49.481,M,6.43,0195*70
$GPVTG,353.8175,T,353.8175,M,1.204,N,2.232,K,D*20
$GPGGA,122228.60,4612.1829569,N,00607.5698068,E,4,10,1.0,368.674,M,49.481,M,6.83,0195*74
$GPVTG,355.4279,T,355.4279,M,1.191,N,2.207,K,D*29
$GPGGA,122228.80,4612.1830204,N,00607.5697990,E,4,10,1.0,368.676,M,49.481,M,7.03,0195*74
$GPVTG,356.1506,T,356.1506,M,1.173,N,2.174,K,D*22
$RDENS,210,4454748,PC
$GPGGA,122229.20,4612.1831431,N,00607.5697787,E,4,10,1.0,368.655,M,49.481,M,0.01,0195*72
$GPVTG,354.3159,T,354.3159,M,1.158,N,2.146,K,D*2A
$GPGGA,122229.40,4612.1832094,N,00607.5697711,E,4,10,1.0,368.655,M,49.481,M,0.08,0195*7A
$GPVTG,354.1108,T,354.1108,M,1.108,N,2.054,K,D*2D
