$GPGGA,130015.40,4612.0731958,N,00607.3046069,E,4,06,1.7,368.513,M,49.481,M,0.41,0195*78
$GPVTG,120.5007,T,120.5007,M,0.308,N,0.572,K,D*2D
$GPGGA,130015.80,4612.0731803,N,00607.3046505,E,4,06,1.7,368.499,M,49.481,M,0.08,0195*7A
$GPVTG,111.4088,T,111.4088,M,0.292,N,0.541,K,D*2F
$GPGGA,130016.00,4612.0731794,N,00607.3046698,E,4,06,1.7,368.497,M,49.481,M,0.28,0195*7B
$GPVTG,95.1298,T,95.1298,M,0.324,N,0.601,K,D*24
$GPGGA,130016.40,4612.0731880,N,00607.3047036,E,4,06,1.7,368.483,M,49.481,M,0.68,0195*77
$GPVTG,51.6274,T,51.6274,M,0.217,N,0.403,K,D*25
$GPGGA,130016.60,4612.0731974,N,00607.3047144,E,4,06,1.7,368.480,M,49.481,M,0.00,0195*76
$GPVTG,39.4726,T,39.4726,M,0.253,N,0.468,K,D*28
$RDENS,2777,4681519,PC
$GPGGA,130016.80,4612.0732094,N,00607.3047255,E,4,06,1.7,368.480,M,49.481,M,0.20,0195*7D
$GPVTG,26.7775,T,26.7775,M,0.272,N,0.504,K,D*20
$GPGGA,130017.20,4612.0732382,N,00607.3047444,E,4,06,1.7,368.494,M,49.481,M,0.60,0195*75
$GPVTG,19.7352,T,19.7352,M,0.293,N,0.544,K,D*2B
$GPGGA,130017.40,4612.0732593,N,00607.3047533,E,4,06,1.7,368.490,M,49.481,M,0.17,0195*70
$GPVTG,11.9250,T,11.9250,M,0.426,N,0.790,K,D*28
$RDENS,2778,4681605,PC
$GPGGA,130017.80,4612.0733021,N,00607.3047685,E,4,06,1.7,368.494,M,49.481,M,0.23,0195*7C
$GPVTG,13.2874,T,13.2874,M,0.375,N,0.695,K,D*2D
$GPGGA,130018.00,4612.0733249,N,00607.3047782,E,4,06,1.7,368.493,M,49.481,M,0.43,0195*70
$GPVTG,5.3926,T,5.3926,M,0.479,N,0.888,K,D*24
$GPGGA,130018.20,4612.0733521,N,00607.3047823,E,4,06,1.7,368.497,M,49.481,M,0.63,0195*79
$GPVTG,355.7663,T,355.7663,M,0.523,N,0.969,K,D*24
$RDENS,2779,4681691,PC
$GPGGA,130018.60,4612.0734111,N,00607.3047747,E,4,06,1.7,368.477,M,49.481,M,0.15,0195*7F
$GPVTG,349.9580,T,349.9580,M,0.558,N,1.034,K,D*28
$GPGGA,130019.00,4612.0734673,N,00607.3047732,E,4,06,1.7,368.491,M,49.481,M,0.55,0195*75
$GPVTG,359.8467,T,359.8467,M,0.527,N,0.977,K,D*2F
$GPGGA,130019.20,4612.0734997,N,00607.3047627,E,4,06,1.7,368.484,M,49.481,M,0.75,0195*71
$GPVTG,359.5151,T,359.5151,M,0.566,N,1.049,K,D*2F
$RDENS,2780,4681777,PC
$GPGGA,130019.60,4612.0735684,N,00607.3047473,E,4,06,1.7,368.493,M,49.481,M,0.01,0195*7F
$GPVTG,346.2661,T,346.2661,M,0.647,N,1.200,K,D*20
$GPGGA,130019.80,4612.0736053,N,00607.3047362,E,4,06,1.7,368.497,M,49.481,M,0.19,0195*74
$GPVTG,348.3238,T,348.3238,M,0.694,N,1.287,K,D*21
$GPGGA,130020.00,4612.0736426,N,00607.3047274,E,4,06,1.7,368.506,M,49.481,M,0.39,0195*7D
$GPVTG,344.5292,T,344.5292,M,0.665,N,1.232,K,D*21
$RDENS,2781,4681863,PC
$GPGGA,130020.40,4612.0737141,N,00607.3046951,E,4,06,1.7,368.497,M,49.481,M,0.79,0195*7C
$GPVTG,342.6371,T,342.6371,M,0.633,N,1.174,K,D*23
$GPGGA,130020.60,4612.0737476,N,00607.3046754,E,4,06,1.7,368.480,M,49.481,M,0.99,0195*7C
$GPVTG,343.8717,T,343.8717,M,0.555,N,1.029,K,D*29
$GPGGA,130021.00,4612.0738023,N,00607.3046556,E,4,06,1.7,368.507,M,49.481,M,0.15,0195*7A
$RDENS,2782,4681949,PC
$GPVTG,341.6632,T,341.6632,M,0.548,N,1.016,K,D*29
$GPGGA,130021.20,4612.0738282,N,00607.3046350,E,4,06,1.7,368.508,M,49.481,M,0.35,0195*7C
$GPVTG,331.0180,T,331.0180,M,0.524,N,0.971,K,D*2A
$GPGGA,130021.60,4612.0738835,N,00607.3045935,E,4,06,1.7,368.515,M,49.481,M,0.10,0195*7F
$GPVTG,335.4795,T,335.4795,M,0.512,N,0.948,K,D*25
$GPGGA,130021.80,4612.0739091,N,00607.3045702,E,4,06,1.7,368.514,M,49.481,M,0.30,0195*7F
$RDENS,2783,4682035,PC
$GPVTG,324.9088,T,324.9088,M,0.515,N,0.955,K,D*2E
$GPGGA,130022.20,4612.0739537,N,00607.3045306,E,4,06,1.7,368.545,M,49.481,M,0.70,0195*7F
$GPVTG,324.8198,T,324.8198,M,0.468,N,0.867,K,D*25
$GPGGA,130022.40,4612.0739769,N,00607.3045028,E,4,06,1.7,368.534,M,49.481,M,0.90,0195*77
$GPVTG,318.4791,T,318.4791,M,0.433,N,0.802,K,D*28
$GPGGA,130022.80,4612.0740133,N,00607.3044558,E,4,06,1.7,368.516,M,49.481,M,0.15,0195*72
$RDENS,2784,4682121,PC
$GPVTG,319.0028,T,319.0028,M,0.439,N,0.813,K,D*22
$GPGGA,130023.00,4612.0740263,N,00607.3044377,E,4,06,1.7,368.510,M,49.481,M,0.35,0195*72
$GPVTG,311.1325,T,311.1325,M,0.343,N,0.636,K,D*21
$GPGGA,130023.40,4612.0740534,N,00607.3043903,E,4,06,1.7,368.491,M,49.481,M,0.75,0195*71
$GPVTG,303.4059,T,303.4059,M,0.347,N,0.643,K,D*27
$GPGGA,130023.60,4612.0740632,N,00607.3043668,E,4,06,1.7,368.516,M,49.481,M,0.11,0195*78
$RDENS,2785,4682207,PC
$GPVTG,311.9949,T,311.9949,M,0.285,N,0.528,K,D*26
$GPGGA,130024.00,4612.0740829,N,00607.3043271,E,4,06,1.7,368.499,M,49.481,M,0.51,0195*73
$GPVTG,308.9971,T,308.9971,M,0.413,N,0.766,K,D*27
$GPGGA,130024.20,4612.0740952,N,00607.3043007,E,4,06,1.7,368.485,M,49.481,M,0.71,0195*70
$GPVTG,293.5359,T,293.5359,M,0.272,N,0.505,K,D*21
$GPGGA,130024.40,4612.0741043,N,00607.3042776,E,4,06,1.7,368.475,M,49.481,M,0.91,0195*7F
$RDENS,2786,4682293,PC
$GPVTG,289.2478,T,289.2478,M,0.299,N,0.554,K,D*20
$GPGGA,130024.80,4612.0741137,N,00607.3042353,E,4,06,1.7,368.478,M,49.481,M,0.06,0195*71
$GPVTG,275.4602,T,275.4602,M,0.205,N,0.380,K,D*2A
$GPGGA,130025.00,4612.0741156,N,00607.3042131,E,4,06,1.7,368.475,M,49.481,M,0.26,0195*76
$GPVTG,305.1091,T,305.1091,M,0.274,N,0.507,K,D*25
$RDENS,2787,4682379,PC
$GPGGA,130025.40,4612.0741331,N,00607.3041817,E,4,06,1.7,368.460,M,49.481,M,0.66,0195*7F
$GPVTG,315.9482,T,315.9482,M,0.196,N,0.363,K,D*2E
$GPGGA,130025.60,4612.0741334,N,00607.3041797,E,4,06,1.7,368.486,M,49.481,M,0.04,0195*73
$GPVTG,334.4336,T,334.4336,M,0.081,N,0.151,K,D*2A
$GPGGA,130026.00,4612.0741430,N,00607.3041771,E,4,06,1.7,368.515,M,49.481,M,0.36,0195*77
$GPVTG,342.2155,T,342.2155,M,0.149,N,0.277,K,D*28
$RDENS,2788,4682465,PC
$GPGGA,130026.20,4612.0741512,N,00607.3041769,E,4,06,1.7,368.507,M,49.481,M,0.56,0195*78
$GPVTG,38.2502,T,38.2502,M,0.081,N,0.151,K,D*2A
$GPGGA,130026.60,4612.0741649,N,00607.3041887,E,4,06,1.7,368.514,M,49.481,M,0.06,0195*79
$GPVTG,54.0183,T,54.0183,M,0.144,N,0.267,K,D*24
$GPGGA,130026.80,4612.0741743,N,00607.3041992,E,4,06,1.7,368.510,M,49.481,M,0.26,0195*7F
$GPVTG,72.5771,T,72.5771,M,0.218,N,0.405,K,D*2C
$RDENS,2789,4682551,PC
$GPGGA,130027.20,4612.0741811,N,00607.3042310,E,4,06,1.7,368.504,M,49.481,M,0.66,0195*7E
$GPVTG,81.3615,T,81.3615,M,0.245,N,0.453,K,D*27
$GPVTG,76.2850,T,76.2850,M,0.320,N,0.594,K,D*2F
$GPGGA,130027.60,4612.0741869,N,00607.3042724,E,4,06,1.7,368.459,M,49.481,M,1.06,0195*78
$GPVTG,88.6264,T,88.6264,M,0.389,N,0.722,K,D*23
$GPGGA,130027.80,4612.0741899,N,00607.3042996,E,4,06,1.7,368.457,M,49.481,M,1.26,0195*72
$RDENS,2790,4682637,PC
$GPVTG,98.7527,T,98.7527,M,0.416,N,0.771,K,D*24
$GPGGA,130028.20,4612.0741948,N,00607.3043624,E,4,06,1.7,368.459,M,49.481,M,1.66,0195*77
$GPVTG,79.2036,T,79.2036,M,0.440,N,0.815,K,D*2A
$GPGGA,130028.40,4612.0741786,N,00607.3044094,E,4,06,1.7,368.469,M,49.481,M,1.86,0195*7A
$GPVTG,109.3449,T,109.3449,M,0.642,N,1.191,K,D*2E
$GPGGA,130028.80,4612.0741428,N,00607.3045140,E,4,06,1.7,368.470,M,49.481,M,2.26,0195*79
$RDENS,2791,4682723,PC
$GPVTG,120.5352,T,120.5352,M,0.874,N,1.621,K,D*29
$GPGGA,130029.00,4612.0741328,N,00607.3045662,E,4,06,1.7,368.462,M,49.481,M,2.46,0195*75
$GPVTG,122.0613,T,122.0613,M,0.813,N,1.506,K,D*2E
$GPGGA,130029.40,4612.0740833,N,00607.3046807,E,4,06,1.7,368.467,M,49.481,M,2.86,0195*76
$GPVTG,118.7824,T,118.7824,M,0.795,N,1.473,K,D*2C
$GPGGA,130029.60,4612.0740598,N,00607.3047392,E,4,06,1.7,368.443,M,49.481,M,0.10,0195*75
$RDENS,2792,4682809,PC
$GPVTG,123.6226,T,123.6226,M,0.929,N,1.722,K,D*22
$GPGGA,130030.00,4612.0739950,N,00607.3048765,E,4,06,1.7,368.464,M,49.481,M,0.30,0195*79
$GPVTG,125.6039,T,125.6039,M,1.084,N,2.009,K,D*20
$GPGGA,130030.20,4612.0739617,N,00607.3049501,E,4,06,1.7,368.476,M,49.481,M,0.14,0195*73
$GPVTG,127.1672,T,127.1672,M,1.106,N,2.050,K,D*27
$GPGGA,130030.60,4612.0738797,N,00607.3050986,E,4,06,1.7,368.480,M,49.481,M,0.54,0195*79
$RDENS,2793,4682895,PC
$GPVTG,128.4408,T,128.4408,M,1.243,N,2.303,K,D*20
$GPGGA,130030.80,4612.0738330,N,00607.3051785,E,4,06,1.7,368.487,M,49.481,M,0.74,0195*77
$GPVTG,130.4072,T,130.4072,M,1.343,N,2.488,K,D*25
$GPGGA,130031.00,4612.0737864,N,00607.3052567,E,4,06,1.7,368.474,M,49.481,M,0.94,0195*74
$GPVTG,132.3993,T,132.3993,M,1.410,N,2.613,K,D*24
$GPGGA,130031.40,4612.0736840,N,00607.3054217,E,4,06,1.7,368.466,M,49.481,M,1.34,0195*79
$RDENS,2794,4682981,PC
$GPVTG,131.8457,T,131.8457,M,1.420,N,2.632,K,D*24
$GPGGA,130031.60,4612.0736291,N,00607.3055033,E,4,06,1.7,368.431,M,49.481,M,0.05,0195*79
$GPVTG,133.4641,T,133.4641,M,1.532,N,2.840,K,D*2D
$GPGGA,130032.00,4612.0735042,N,00607.3057037,E,4,06,1.7,368.509,M,49.481,M,0.12,0195*79
$GPVTG,132.6485,T,132.6485,M,1.761,N,3.263,K,D*23
$GPGGA,130032.20,4612.0734419,N,00607.3057933,E,4,06,1.7,368.520,M,49.481,M,0.32,0195*74
$RDENS,2795,4683068,PC
$GPVTG,135.7895,T,135.7895,M,1.640,N,3.039,K,D*2C
$GPGGA,130032.60,4612.0733116,N,00607.3059716,E,4,06,1.7,368.530,M,49.481,M,0.01,0195*7B
$GPVTG,138.3564,T,138.3564,M,1.636,N,3.032,K,D*26
$GPGGA,130032.80,4612.0732497,N,00607.3060594,E,4,06,1.7,368.495,M,49.481,M,0.19,0195*7D
$GPVTG,137.1980,T,137.1980,M,1.703,N,3.155,K,D*21
$RDENS,2796,4683154,PC
$GPGGA,130033.20,4612.0731047,N,00607.3062464,E,4,06,1.7,368.495,M,49.481,M,0.59,0195*74
$GPVTG,139.5679,T,139.5679,M,1.836,N,3.402,K,D*2F
$GPGGA,130033.40,4612.0730301,N,00607.3063413,E,4,06,1.7,368.473,M,49.481,M,0.79,0195*79
$GPVTG,138.0804,T,138.0804,M,1.855,N,3.438,K,D*23
$GPGGA,130033.80,4612.0728752,N,00607.3065397,E,4,06,1.7,368.481,M,49.481,M,1.19,0195*79
$GPVTG,138.1779,T,138.1779,M,1.915,N,3.549,K,D*21
$RDENS,2797,4683240,PC
$GPGGA,130034.00,4612.0727978,N,00607.3066398,E,4,06,1.7,368.476,M,49.481,M,0.12,0195*71
$GPVTG,139.1583,T,139.1583,M,1.942,N,3.600,K,D*2D
$GPGGA,130034.40,4612.0726355,N,00607.3068402,E,4,06,1.7,368.493,M,49.481,M,0.52,0195*74
$GPVTG,139.1991,T,139.1991,M,1.869,N,3.463,K,D*22
$GPGGA,130034.60,4612.0725498,N,00607.3069375,E,4,06,1.7,368.489,M,49.481,M,0.72,0195*7C
$GPVTG,140.0689,T,140.0689,M,1.782,N,3.302,K,D*28
$RDENS,2798,4683326,PC
$GPGGA,130035.00,4612.0723932,N,00607.3071217,E,4,06,1.7,368.472,M,49.481,M,0.25,0195*7A
$GPVTG,141.6172,T,141.6172,M,1.816,N,3.365,K,D*2B
$GPGGA,130035.20,4612.0723063,N,00607.3072149,E,4,06,1.7,368.501,M,49.481,M,0.45,0195*7D
$GPVTG,144.2238,T,144.2238,M,1.825,N,3.383,K,D*23
$GPGGA,130035.60,4612.0721437,N,00607.3073829,E,4,06,1.7,368.510,M,49.480,M,0.04,0195*74
$GPVTG,144.9383,T,144.9383,M,1.773,N,3.285,K,D*28
$RDENS,2799,4683412,PC
$GPGGA,130035.80,4612.0720620,N,00607.3074619,E,4,06,1.7,368.531,M,49.480,M,0.24,0195*74
$GPVTG,146.3609,T,146.3609,M,1.780,N,3.298,K,D*28
$GPGGA,130036.00,4612.0719805,N,00607.3075377,E,4,06,1.7,368.528,M,49.480,M,0.44,0195*7E
$GPVTG,146.0987,T,146.0987,M,1.684,N,3.120,K,D*2D
$GPGGA,130036.40,4612.0718209,N,00607.3076876,E,4,06,1.7,368.529,M,49.480,M,0.84,0195*79
$GPVTG,148.0867,T,148.0867,M,1.664,N,3.083,K,D*2B
$RDENS,2800,4683498,PC
$GPGGA,130036.60,4612.0717460,N,00607.3077558,E,4,06,1.7,368.522,M,49.480,M,1.04,0195*7F
$GPVTG,148.3094,T,148.3094,M,1.564,N,2.899,K,D*2A
$GPGGA,130037.00,4612.0715938,N,00607.3078890,E,4,06,1.7,368.523,M,49.480,M,1.44,0195*79
$GPVTG,149.0722,T,149.0722,M,1.581,N,2.931,K,D*22
$GPGGA,130037.20,4612.0715183,N,00607.3079526,E,4,06,1.7,368.528,M,49.480,M,1.64,0195*7B
$GPVTG,150.5294,T,150.5294,M,1.523,N,2.823,K,D*28
$RDENS,2801,4683584,PC
$GPGGA,130037.60,4612.0713770,N,00607.3080692,E,4,06,1.7,368.525,M,49.480,M,2.04,0195*71
$GPVTG,148.6034,T,148.6034,M,1.484,N,2.750,K,D*2F
$GPGGA,130037.80,4612.0713057,N,00607.3081297,E,4,06,1.7,368.528,M,49.480,M,0.08,0195*7E
$GPVTG,149.4857,T,149.4857,M,1.503,N,2.785,K,D*29
$GPGGA,130038.20,4612.0711716,N,00607.3082401,E,4,06,1.7,368.521,M,49.480,M,0.48,0195*7C
$GPVTG,148.4921,T,148.4921,M,1.394,N,2.584,K,D*22
$RDENS,2802,4683670,PC
$GPGGA,130038.40,4612.0711014,N,00607.3082938,E,4,06,1.7,368.537,M,49.480,M,0.11,0195*73
$GPVTG,149.7875,T,149.7875,M,1.334,N,2.472,K,D*20
$GPGGA,130038.80,4612.0709731,N,00607.3083949,E,4,06,1.7,368.507,M,49.480,M,0.51,0195*76
$GPVTG,150.3168,T,150.3168,M,1.423,N,2.638,K,D*2D
$GPGGA,130039.00,4612.0709060,N,00607.3084481,E,4,06,1.7,368.519,M,49.480,M,0.71,0195*7F
$GPVTG,151.7692,T,151.7692,M,1.301,N,2.412,K,D*20
$RDENS,2803,4683756,PC
$GPGGA,130039.40,4612.0707744,N,00607.3085543,E,4,06,1.7,368.521,M,49.480,M,1.11,0195*76
$GPVTG,149.9055,T,149.9055,M,1.348,N,2.499,K,D*2E
$GPGGA,130039.60,4612.0707146,N,00607.3085982,E,4,06,1.7,368.500,M,49.480,M,1.31,0195*70
$GPVTG,148.2260,T,148.2260,M,1.281,N,2.374,K,D*2E
$GPGGA,130040.00,4612.0705965,N,00607.3086956,E,4,06,1.7,368.499,M,49.480,M,0.15,0195*7F
$RDENS,2804,4683841,PC
$GPVTG,153.4015,T,153.4015,M,1.221,N,2.263,K,D*23
$GPGGA,130040.20,4612.0705328,N,00607.3087445,E,4,06,1.7,368.509,M,49.480,M,0.08,0195*74
$GPVTG,147.7621,T,147.7621,M,1.250,N,2.316,K,D*26
$GPGGA,130040.40,4612.0704751,N,00607.3087969,E,4,06,1.7,368.519,M,49.480,M,0.28,0195*79
$GPVTG,153.0648,T,153.0648,M,1.207,N,2.236,K,D*27
$GPGGA,130040.80,4612.0703593,N,00607.3088810,E,4,06,1.7,368.526,M,49.480,M,0.15,0195*7C
$RDENS,2805,4683927,PC
$GPVTG,151.7833,T,151.7833,M,1.193,N,2.211,K,D*2C
$GPGGA,130041.00,4612.0703024,N,00607.3089331,E,4,06,1.7,368.533,M,49.480,M,0.35,0195*73
$GPVTG,152.9922,T,152.9922,M,1.130,N,2.095,K,D*2B
$GPGGA,130041.40,4612.0701907,N,00607.3090196,E,4,06,1.7,368.531,M,49.480,M,0.75,0195*7C
$GPVTG,149.6132,T,149.6132,M,1.118,N,2.071,K,D*2B
$GPGGA,130041.60,4612.0701409,N,00607.3090523,E,4,06,1.7,368.495,M,49.480,M,0.95,0195*76
$RDENS,2806,4684013,PC
$GPVTG,154.0593,T,154.0593,M,1.146,N,2.125,K,D*20
$GPGGA,130042.00,4612.0700278,N,00607.3091326,E,4,06,1.7,368.510,M,49.480,M,1.35,0195*77
$GPVTG,152.9773,T,152.9773,M,1.114,N,2.065,K,D*22
$GPGGA,130042.20,4612.0699724,N,00607.3091755,E,4,06,1.7,368.499,M,49.480,M,1.55,0195*7E
$GPVTG,155.3800,T,155.3800,M,1.134,N,2.102,K,D*20
$GPGGA,130042.60,4612.0698609,N,00607.3092520,E,4,06,1.7,368.510,M,49.480,M,1.95,0195*7A
$RDENS,2807,4684099,PC
$GPVTG,154.3007,T,154.3007,M,1.066,N,1.975,K,D*2D
$GPGGA,130042.80,4612.0698077,N,00607.3092893,E,4,06,1.7,368.514,M,49.480,M,0.14,0195*72
$GPVTG,153.7488,T,153.7488,M,1.089,N,2.018,K,D*2D
$GPGGA,130043.20,4612.0696944,N,00607.3093770,E,4,06,1.7,368.540,M,49.480,M,0.19,0195*71
$GPVTG,155.3488,T,155.3488,M,1.066,N,1.975,K,D*2D
$GPGGA,130043.40,4612.0696402,N,00607.3094142,E,4,06,1.7,368.539,M,49.480,M,0.39,0195*74
$RDENS,2808,4684186,PC
$GPVTG,153.6476,T,153.6476,M,1.051,N,1.948,K,D*27
$GPGGA,130043.80,4612.0695365,N,00607.3094798,E,4,06,1.7,368.525,M,49.480,M,0.79,0195*75
$GPVTG,156.8377,T,156.8377,M,1.011,N,1.873,K,D*2A
$GPGGA,130044.00,4612.0694835,N,00607.3095133,E,4,06,1.7,368.529,M,49.480,M,0.99,0195*71
$GPVTG,156.3494,T,156.3494,M,0.995,N,1.844,K,D*2A
$RDENS,2809,4684272,PC
$GPGGA,130044.40,4612.0693783,N,00607.3095764,E,4,06,1.7,368.525,M,49.480,M,1.39,0195*73
$GPVTG,157.8970,T,157.8970,M,1.077,N,1.996,K,D*20
$GPGGA,130044.60,4612.0693303,N,00607.3096068,E,4,06,1.7,368.517,M,49.480,M,0.10,0195*7E
$GPVTG,158.6702,T,158.6702,M,1.025,N,1.900,K,D*28
$GPGGA,130044.80,4612.0692802,N,00607.3096316,E,4,06,1.7,368.512,M,49.480,M,0.10,0195*74
$GPVTG,160.4590,T,160.4590,M,1.001,N,1.856,K,D*2C
$RDENS,2810,4684358,PC
$GPGGA,130045.20,4612.0691771,N,00607.3096874,E,4,06,1.7,368.511,M,49.480,M,0.14,0195*7F
$GPVTG,158.9613,T,158.9613,M,0.964,N,1.786,K,D*25
$GPGGA,130045.40,4612.0691228,N,00607.3097225,E,4,06,1.7,368.532,M,49.480,M,0.06,0195*7D
$GPVTG,162.5068,T,162.5068,M,0.937,N,1.736,K,D*28
$GPGGA,130045.80,4612.0690196,N,00607.3097690,E,4,06,1.7,368.537,M,49.480,M,0.34,0195*78
$GPVTG,161.4492,T,161.4492,M,1.035,N,1.918,K,D*20
$RDENS,2811,4684444,PC
$GPGGA,130046.00,4612.0689670,N,00607.3098011,E,4,06,1.7,368.549,M,49.480,M,0.54,0195*7B
$GPVTG,163.9402,T,163.9402,M,0.908,N,1.683,K,D*2B
$GPGGA,130046.40,4612.0688626,N,00607.3098456,E,4,06,1.7,368.554,M,49.480,M,0.04,0195*73
$GPVTG,164.2252,T,164.2252,M,0.977,N,1.811,K,D*26
$GPGGA,130046.60,4612.0688143,N,00607.3098698,E,4,06,1.7,368.556,M,49.480,M,0.16,0195*74
$GPVTG,165.0853,T,165.0853,M,0.871,N,1.614,K,D*2A
$RDENS,2812,4684530,PC
$GPGGA,130047.00,4612.0687138,N,00607.3099162,E,4,06,1.7,368.564,M,49.480,M,0.56,0195*76
$GPVTG,163.8393,T,163.8393,M,0.958,N,1.775,K,D*26
$GPGGA,130047.20,4612.0686642,N,00607.3099292,E,4,06,1.7,368.539,M,49.480,M,0.76,0195*79
$GPVTG,164.6746,T,164.6746,M,0.906,N,1.678,K,D*21
$GPGGA,130047.60,4612.0685600,N,00607.3099811,E,4,06,1.7,368.552,M,49.480,M,0.11,0195*75
$GPVTG,159.6196,T,159.6196,M,1.043,N,1.933,K,D*28
$RDENS,2813,4684616,PC
$GPGGA,130047.80,4612.0685035,N,00607.3100041,E,4,06,1.7,368.555,M,49.480,M,0.31,0195*72
$GPVTG,159.6569,T,159.6569,M,1.099,N,2.038,K,D*2E
$GPGGA,130048.20,4612.0683962,N,00607.3100571,E,4,06,1.7,368.543,M,49.480,M,0.71,0195*7F
$GPVTG,155.8252,T,155.8252,M,1.083,N,2.006,K,D*28
$GPGGA,130048.40,4612.0683376,N,00607.3100991,E,4,06,1.7,368.532,M,49.480,M,0.91,0195*7C
$GPVTG,154.4233,T,154.4233,M,1.283,N,2.377,K,D*2F
$RDENS,2814,4684702,PC
$GPGGA,130048.80,4612.0682091,N,00607.3101873,E,4,06,1.7,368.531,M,49.480,M,0.19,0195*74
$GPVTG,155.2111,T,155.2111,M,1.265,N,2.345,K,D*26
$GPGGA,130049.00,4612.0681396,N,00607.3102505,E,4,06,1.7,368.557,M,49.480,M,0.39,0195*77
$GPVTG,154.6404,T,154.6404,M,1.390,N,2.577,K,D*2A
$GPGGA,130049.40,4612.0680056,N,00607.3103299,E,4,06,1.7,368.489,M,49.480,M,0.79,0195*78
$GPVTG,155.3584,T,155.3584,M,1.419,N,2.630,K,D*2C
$RDENS,2815,4684788,PC
$GPVTG,157.9179,T,157.9179,M,1.491,N,2.763,K,D*2B
$GPGGA,130049.80,4612.0678593,N,00607.3104174,E,4,06,1.7,368.471,M,49.480,M,1.19,0195*78
$GPVTG,157.9067,T,157.9067,M,1.527,N,2.829,K,D*26
$GPGGA,130050.00,4612.0677797,N,00607.3104652,E,4,06,1.7,368.476,M,49.480,M,1.39,0195*77
$GPVTG,160.1708,T,160.1708,M,1.547,N,2.868,K,D*25
$RDENS,2816,4684874,PC
$GPGGA,130050.40,4612.0676199,N,00607.3105470,E,4,06,1.7,368.477,M,49.480,M,1.79,0195*7C
$GPVTG,161.1077,T,161.1077,M,1.542,N,2.858,K,D*23
$GPGGA,130050.60,4612.0675367,N,00607.3105855,E,4,06,1.7,368.461,M,49.480,M,1.99,0195*7C
$GPVTG,162.0002,T,162.0002,M,1.593,N,2.951,K,D*27
$GPGGA,130051.00,4612.0673601,N,00607.3106806,E,4,06,1.7,368.490,M,49.480,M,0.01,0195*73
$GPVTG,162.8421,T,162.8421,M,1.590,N,2.947,K,D*23
$RDENS,2817,4684960,PC
$GPGGA,130051.20,4612.0672720,N,00607.3107101,E,4,06,1.7,368.472,M,49.480,M,0.21,0195*73
$GPVTG,165.8638,T,165.8638,M,1.653,N,3.064,K,D*26
$GPGGA,130051.60,4612.0670914,N,00607.3107750,E,4,06,1.7,368.457,M,49.480,M,0.61,0195*7D
$GPVTG,165.9781,T,165.9781,M,1.664,N,3.083,K,D*2B
$GPGGA,130051.80,4612.0670002,N,00607.3108016,E,4,06,1.7,368.442,M,49.480,M,0.81,0195*7D
$GPVTG,169.0492,T,169.0492,M,1.737,N,3.219,K,D*2D
$RDENS,2818,4685046,PC
$GPGGA,130052.20,4612.0668106,N,00607.3108497,E,4,06,1.7,368.427,M,49.480,M,1.21,0195*7D
$GPVTG,170.2403,T,170.2403,M,1.729,N,3.205,K,D*2F
$GPGGA,130052.40,4612.0667113,N,00607.3108802,E,4,06,1.7,368.443,M,49.480,M,1.41,0195*74
$GPVTG,169.8808,T,169.8808,M,1.800,N,3.336,K,D*2A
$GPGGA,130052.80,4612.0665132,N,00607.3109290,E,4,06,1.7,368.446,M,49.480,M,1.81,0195*70
$GPVTG,170.7791,T,170.7791,M,1.805,N,3.345,K,D*2B
$RDENS,2819,4685132,PC
$GPGGA,130053.00,4612.0664090,N,00607.3109514,E,4,06,1.7,368.454,M,49.480,M,2.01,0195*72
$GPVTG,170.9946,T,170.9946,M,1.855,N,3.437,K,D*2C
$GPGGA,130053.40,4612.0662033,N,00607.3110032,E,4,06,1.7,368.467,M,49.480,M,0.04,0195*77
$GPVTG,170.6035,T,170.6035,M,1.893,N,3.507,K,D*24
$GPGGA,130053.60,4612.0660976,N,00607.3110292,E,4,06,1.7,368.490,M,49.480,M,0.05,0195*7E
$GPVTG,170.3406,T,170.3406,M,1.879,N,3.482,K,D*2C
$RDENS,2820,4685218,PC
$GPGGA,130053.80,4612.0659944,N,00607.3110577,E,4,06,1.7,368.500,M,49.480,M,0.15,0195*7E
$GPVTG,171.5491,T,171.5491,M,1.958,N,3.628,K,D*2C
$GPGGA,130054.20,4612.0657924,N,00607.3110855,E,4,06,1.7,368.460,M,49.480,M,0.55,0195*75
$GPVTG,170.8716,T,170.8716,M,1.871,N,3.467,K,D*2F
$GPGGA,130054.40,4612.0656821,N,00607.3111097,E,4,06,1.7,368.482,M,49.480,M,0.75,0195*7F
$GPVTG,170.0463,T,170.0463,M,1.963,N,3.638,K,D*25
$RDENS,2821,4685304,PC
$GPGGA,130054.80,4612.0654657,N,00607.3111682,E,4,06,1.7,368.492,M,49.480,M,0.13,0195*7D
$GPVTG,170.1521,T,170.1521,M,1.992,N,3.692,K,D*2B
$GPGGA,130055.00,4612.0653590,N,00607.3111970,E,4,06,1.7,368.491,M,49.480,M,0.33,0195*78
$GPVTG,167.5500,T,167.5500,M,2.054,N,3.807,K,D*29
$GPGGA,130055.40,4612.0651376,N,00607.3112651,E,4,06,1.7,368.476,M,49.480,M,0.73,0195*72
$GPVTG,167.7701,T,167.7701,M,2.044,N,3.788,K,D*20
$RDENS,2822,4685390,PC
$GPGGA,130055.60,4612.0650225,N,00607.3113049,E,4,06,1.7,368.495,M,49.480,M,0.09,0195*78
$GPVTG,165.8012,T,165.8012,M,2.080,N,3.855,K,D*27
$GPGGA,130056.00,4612.0648079,N,00607.3113737,E,4,06,1.7,368.439,M,49.480,M,0.49,0195*73
$GPVTG,164.6402,T,164.6402,M,2.080,N,3.855,K,D*27
$GPGGA,130056.20,4612.0646829,N,00607.3114290,E,4,06,1.7,368.499,M,49.480,M,0.69,0195*75
$RDENS,2823,4685476,PC
$GPVTG,166.3845,T,166.3845,M,2.221,N,4.115,K,D*24
$GPGGA,130056.60,4612.0644396,N,00607.3115208,E,4,06,1.7,368.532,M,49.480,M,0.08,0195*7B
$GPVTG,167.0955,T,167.0955,M,2.251,N,4.171,K,D*21
$GPGGA,130056.80,4612.0643180,N,00607.3115663,E,4,06,1.7,368.515,M,49.480,M,0.28,0195*79
$GPVTG,165.5885,T,165.5885,M,2.282,N,4.229,K,D*21
$GPGGA,130057.20,4612.0640618,N,00607.3116590,E,4,06,1.7,368.528,M,49.480,M,0.68,0195*71
$RDENS,2824,4685562,PC
$GPVTG,167.4478,T,167.4478,M,2.329,N,4.316,K,D*2C
$GPGGA,130057.40,4612.0639353,N,00607.3116832,E,4,06,1.7,368.497,M,49.480,M,0.88,0195*7D
$GPVTG,168.3031,T,168.3031,M,2.434,N,4.511,K,D*26
$GPGGA,130057.80,4612.0636670,N,00607.3117672,E,4,06,1.7,368.537,M,49.480,M,1.28,0195*71
$GPVTG,169.6975,T,169.6975,M,2.409,N,4.464,K,D*2B
$GPGGA,130058.00,4612.0635366,N,00607.3117860,E,4,06,1.7,368.517,M,49.480,M,1.48,0195*7E
$RDENS,2825,4685648,PC
$GPVTG,171.4321,T,171.4321,M,2.447,N,4.535,K,D*24
$GPGGA,130058.40,4612.0632613,N,00607.3118192,E,4,06,1.7,368.533,M,49.480,M,1.88,0195*7B
$GPVTG,177.9097,T,177.9097,M,2.498,N,4.630,K,D*20
$GPGGA,130058.60,4612.0631297,N,00607.3118121,E,4,06,1.7,368.509,M,49.480,M,2.08,0195*78
$GPVTG,179.1741,T,179.1741,M,2.543,N,4.712,K,D*26
$GPGGA,130058.80,4612.0629940,N,00607.3118012,E,4,06,1.7,368.483,M,49.480,M,2.28,0195*7E
$RDENS,2826,4685734,PC
$GPVTG,185.5782,T,185.5782,M,2.418,N,4.481,K,D*20
$GPGGA,130059.20,4612.0627119,N,00607.3117823,E,4,06,1.7,368.482,M,49.480,M,2.68,0195*7F
$GPVTG,183.4617,T,183.4617,M,2.574,N,4.771,K,D*27
$GPGGA,130059.40,4612.0625722,N,00607.3117623,E,4,06,1.7,368.489,M,49.480,M,2.88,0195*7E
$GPVTG,188.5386,T,188.5386,M,2.542,N,4.710,K,D*25
$GPGGA,130059.80,4612.0622978,N,00607.3116907,E,4,06,1.7,368.458,M,49.480,M,3.28,0195*7B
$RDENS,2827,4685820,PC
$GPVTG,190.0353,T,190.0353,M,2.511,N,4.653,K,D*25
$GPGGA,130100.00,4612.0621594,N,00607.3116499,E,4,06,1.7,368.448,M,49.480,M,3.48,0195*7E
$GPVTG,194.4648,T,194.4648,M,2.579,N,4.779,K,D*22
$GPGGA,130100.40,4612.0618807,N,00607.3115463,E,4,06,1.7,368.458,M,49.480,M,3.88,0195*7C
$GPVTG,194.9143,T,194.9143,M,2.578,N,4.778,K,D*22
$GPGGA,130100.60,4612.0617459,N,00607.3114821,E,4,06,1.7,368.442,M,49.480,M,4.08,0195*79
$RDENS,2828,4685917,PC
$GPVTG,197.0757,T,197.0757,M,2.599,N,4.817,K,D*2B
$GPGGA,130101.00,4612.0614657,N,00607.3113624,E,4,06,1.7,368.477,M,49.480,M,4.48,0195*7F
$GPVTG,198.1622,T,198.1622,M,2.588,N,4.796,K,D*2D
$GPGGA,130101.20,4612.0613283,N,00607.3112943,E,4,06,1.7,368.476,M,49.480,M,4.68,0195*7B
$GPVTG,201.6035,T,201.6035,M,2.575,N,4.772,K,D*25
$GPGGA,130101.60,4612.0610635,N,00607.3111410,E,4,06,1.7,368.461,M,49.480,M,5.08,0195*7C
$GPVTG,201.8576,T,201.8576,M,2.549,N,4.725,K,D*28
$RDENS,2829,4686014,PC
$GPGGA,130101.80,4612.0609343,N,00607.3110498,E,4,06,1.7,368.454,M,49.480,M,5.28,0195*7B
$GPVTG,205.5559,T,205.5559,M,2.587,N,4.794,K,D*20
$GPGGA,130102.20,4612.0606775,N,00607.3108725,E,4,06,1.7,368.464,M,49.480,M,5.68,0195*77
$GPVTG,205.9863,T,205.9863,M,2.523,N,4.676,K,D*23
$GPGGA,130102.40,4612.0605513,N,00607.3107795,E,4,06,1.7,368.453,M,49.480,M,5.88,0195*7E
$GPVTG,206.1984,T,206.1984,M,2.557,N,4.739,K,D*2A
$RDENS,2830,4686111,PC
$GPGGA,130102.80,4612.0602932,N,00607.3106032,E,4,06,1.7,368.472,M,49.480,M,6.28,0195*7B
$GPVTG,205.8758,T,205.8758,M,2.543,N,4.713,K,D*27
$GPGGA,130103.00,4612.0601697,N,00607.3105062,E,4,06,1.7,368.458,M,49.480,M,6.48,0195*79
$GPVTG,205.6071,T,205.6071,M,2.594,N,4.808,K,D*28
$GPGGA,130103.40,4612.0599060,N,00607.3103287,E,4,06,1.7,368.473,M,49.480,M,6.88,0195*7B
$GPVTG,205.7762,T,205.7762,M,2.588,N,4.795,K,D*2E
$GPGGA,130103.60,4612.0597803,N,00607.3102372,E,4,06,1.7,368.475,M,49.480,M,7.08,0195*7F
$RDENS,2831,4686203,PC
$GPVTG,205.7649,T,205.7649,M,2.584,N,4.790,K,D*27
$GPGGA,130103.80,4612.0596516,N,00607.3101468,E,4,06,1.7,368.474,M,49.480,M,7.28,0195*75
$GPVTG,205.2401,T,205.2401,M,2.619,N,4.854,K,D*27
$GPGGA,130104.20,4612.0593884,N,00607.3099707,E,4,06,1.7,368.468,M,49.480,M,7.68,0195*78
$GPVTG,205.3213,T,205.3213,M,2.556,N,4.736,K,D*24
$GPGGA,130104.40,4612.0592559,N,00607.3098871,E,4,06,1.7,368.474,M,49.480,M,7.88,0195*7E
$RDENS,2832,4686295,PC
$GPVTG,202.9312,T,202.9312,M,2.571,N,4.766,K,D*24
$GPGGA,130104.80,4612.0589952,N,00607.3097197,E,4,06,1.7,368.463,M,49.480,M,8.28,0195*72
$GPVTG,203.5737,T,203.5737,M,2.566,N,4.756,K,D*21
$GPGGA,130105.00,4612.0588571,N,00607.3096482,E,4,06,1.7,368.470,M,49.480,M,8.48,0195*73
$GPVTG,202.0287,T,202.0287,M,2.621,N,4.858,K,D*20
$GPGGA,130105.40,4612.0585872,N,00607.3094955,E,4,06,1.7,368.467,M,49.480,M,0.03,0195*70
$RDENS,2833,4686387,PC
$GPVTG,201.4933,T,201.4933,M,2.553,N,4.732,K,D*25
$GPGGA,130105.60,4612.0584527,N,00607.3094220,E,4,06,1.7,368.437,M,49.480,M,0.23,0195*70
$GPVTG,195.5604,T,195.5604,M,2.700,N,5.005,K,D*23
$GPGGA,130106.00,4612.0581695,N,00607.3093056,E,4,06,1.7,368.486,M,49.480,M,0.05,0195*70
$GPVTG,198.6728,T,198.6728,M,2.588,N,4.797,K,D*2C
$GPGGA,130106.20,4612.0580324,N,00607.3092409,E,4,06,1.7,368.476,M,49.480,M,0.25,0195*7E
$GPVTG,195.0623,T,195.0623,M,2.707,N,5.016,K,D*26
$RDENS,2834,4686478,PC
$GPGGA,130106.60,4612.0577506,N,00607.3091248,E,4,06,1.7,368.478,M,49.480,M,0.13,0195*7F
$GPVTG,196.0991,T,196.0991,M,2.616,N,4.848,K,D*25
$GPGGA,130106.80,4612.0576153,N,00607.3090732,E,4,06,1.7,368.474,M,49.480,M,0.06,0195*75
$GPVTG,195.1542,T,195.1542,M,2.652,N,4.915,K,D*2C
$GPGGA,130107.20,4612.0573350,N,00607.3089742,E,4,06,1.7,368.478,M,49.480,M,0.34,0195*78
$GPVTG,193.5979,T,193.5979,M,2.560,N,4.744,K,D*24
$RDENS,2835,4686569,PC
$GPGGA,130107.40,4612.0571951,N,00607.3089282,E,4,06,1.7,368.473,M,49.480,M,0.54,0195*73
$GPVTG,189.7754,T,189.7754,M,2.656,N,4.922,K,D*2C
$GPGGA,130107.80,4612.0569203,N,00607.3088454,E,4,06,1.7,368.487,M,49.480,M,0.19,0195*74
$GPVTG,193.0357,T,193.0357,M,2.448,N,4.537,K,D*29
$GPGGA,130108.00,4612.0567803,N,00607.3088046,E,4,06,1.7,368.480,M,49.480,M,0.39,0195*75
$GPVTG,191.1680,T,191.1680,M,2.560,N,4.744,K,D*24
$RDENS,2836,4686661,PC
$GPGGA,130108.20,4612.0566384,N,00607.3087666,E,4,06,1.7,368.465,M,49.480,M,0.16,0195*7F
$GPVTG,188.6089,T,188.6089,M,2.621,N,4.857,K,D*2F
$GPGGA,130108.60,4612.0563547,N,00607.3087136,E,4,06,1.7,368.485,M,49.480,M,0.24,0195*7A
$GPVTG,186.8279,T,186.8279,M,2.547,N,4.720,K,D*23
$GPGGA,130108.80,4612.0562145,N,00607.3086815,E,4,06,1.7,368.466,M,49.480,M,0.44,0195*71
$GPVTG,187.9155,T,187.9155,M,2.592,N,4.804,K,D*22
$RDENS,2837,4686751,PC
$GPGGA,130109.20,4612.0559316,N,00607.3086224,E,4,06,1.7,368.460,M,49.480,M,0.84,0195*74
$GPVTG,188.2652,T,188.2652,M,2.565,N,4.754,K,D*20
$GPGGA,130109.40,4612.0557882,N,00607.3086006,E,4,06,1.7,368.455,M,49.480,M,1.04,0195*77
$GPVTG,184.4447,T,184.4447,M,2.564,N,4.753,K,D*26
$GPGGA,130109.80,4612.0555054,N,00607.3085617,E,4,06,1.7,368.461,M,49.480,M,1.44,0195*7C
$GPVTG,186.6307,T,186.6307,M,2.545,N,4.717,K,D*25
$RDENS,2838,4686842,PC
$GPGGA,130110.00,4612.0553648,N,00607.3085399,E,4,06,1.7,368.433,M,49.480,M,1.64,0195*77
$GPVTG,183.8365,T,183.8365,M,2.568,N,4.759,K,D*20
$GPGGA,130110.40,4612.0550825,N,00607.3085152,E,4,06,1.7,368.440,M,49.480,M,2.04,0195*71
$GPVTG,183.0204,T,183.0204,M,2.561,N,4.746,K,D*27
$GPGGA,130110.60,4612.0549357,N,00607.3085014,E,4,06,1.7,368.435,M,49.480,M,2.24,0195*76
$GPVTG,183.2575,T,183.2575,M,2.549,N,4.724,K,D*29
$RDENS,2839,4686934,PC
$GPGGA,130111.00,4612.0546498,N,00607.3084793,E,4,06,1.7,368.437,M,49.480,M,2.64,0195*75
$GPVTG,182.5558,T,182.5558,M,2.599,N,4.816,K,D*2A
$GPGGA,130111.20,4612.0545087,N,00607.3084608,E,4,06,1.7,368.427,M,49.480,M,2.84,0195*72
$GPVTG,180.6750,T,180.6750,M,2.651,N,4.913,K,D*29
$GPGGA,130111.60,4612.0542109,N,00607.3084613,E,4,06,1.7,368.471,M,49.480,M,3.24,0195*74
$GPVTG,180.8471,T,180.8471,M,2.649,N,4.910,K,D*23
$GPVTG,182.0915,T,182.0915,M,2.595,N,4.809,K,D*28
$RDENS,2840,4687025,PC
$GPGGA,130112.00,4612.0539197,N,00607.3084466,E,4,06,1.7,368.492,M,49.480,M,0.35,0195*74
$GPVTG,181.1526,T,181.1526,M,2.658,N,4.926,K,D*26
$GPGGA,130112.20,4612.0537717,N,00607.3084427,E,4,06,1.7,368.501,M,49.480,M,0.55,0195*7E
$GPVTG,182.1529,T,182.1529,M,2.655,N,4.921,K,D*2C
$GPGGA,130112.60,4612.0534782,N,00607.3084224,E,4,06,1.7,368.489,M,49.480,M,0.95,0195*7D
$GPVTG,183.0722,T,183.0722,M,2.633,N,4.879,K,D*20
$RDENS,2841,4687117,PC
$GPGGA,130112.80,4612.0533291,N,00607.3084211,E,4,06,1.7,368.508,M,49.480,M,0.15,0195*75
$GPVTG,183.3322,T,183.3322,M,2.643,N,4.897,K,D*27
$GPGGA,130113.20,4612.0530281,N,00607.3084048,E,4,06,1.7,368.512,M,49.480,M,0.25,0195*7A
$GPVTG,181.9509,T,181.9509,M,2.720,N,5.041,K,D*21
$GPGGA,130113.40,4612.0528787,N,00607.3083938,E,4,06,1.7,368.509,M,49.480,M,0.16,0195*75
$GPVTG,183.0265,T,183.0265,M,2.733,N,5.065,K,D*25
$RDENS,2842,4687209,PC
$GPGGA,130113.80,4612.0525762,N,00607.3083699,E,4,06,1.7,368.527,M,49.480,M,0.17,0195*76
$GPVTG,184.0068,T,184.0068,M,2.719,N,5.038,K,D*25
$GPGGA,130114.00,4612.0524328,N,00607.3083532,E,4,06,1.7,368.477,M,49.480,M,0.37,0195*76
$GPVTG,183.2709,T,183.2709,M,2.683,N,4.972,K,D*21
$GPGGA,130114.40,4612.0521357,N,00607.3083284,E,4,06,1.7,368.469,M,49.480,M,0.77,0195*7E
$GPVTG,182.4501,T,182.4501,M,2.726,N,5.051,K,D*26
$RDENS,2843,4687301,PC
$GPGGA,130114.60,4612.0519836,N,00607.3083167,E,4,06,1.7,368.487,M,49.480,M,0.06,0195*73
$GPVTG,182.3296,T,182.3296,M,2.706,N,5.016,K,D*27
$GPGGA,130115.00,4612.0516782,N,00607.3082890,E,4,06,1.7,368.480,M,49.480,M,0.46,0195*78
$GPVTG,185.1166,T,185.1166,M,2.756,N,5.108,K,D*2C
$GPGGA,130115.20,4612.0515274,N,00607.3082753,E,4,06,1.7,368.488,M,49.480,M,0.66,0195*7F
$GPVTG,190.0816,T,190.0816,M,2.628,N,4.870,K,D*23
$RDENS,2844,4687393,PC
$GPGGA,130115.60,4612.0512307,N,00607.3082166,E,4,06,1.7,368.461,M,49.480,M,1.06,0195*79
$GPVTG,187.1376,T,187.1376,M,2.629,N,4.873,K,D*21
$GPGGA,130115.80,4612.0510919,N,00607.3081836,E,4,06,1.7,368.413,M,49.480,M,0.11,0195*7D
$GPVTG,184.1816,T,184.1816,M,2.557,N,4.739,K,D*2A
$GPGGA,130116.20,4612.0508045,N,00607.3081513,E,4,06,1.7,368.452,M,49.480,M,0.29,0195*79
$GPVTG,187.2988,T,187.2988,M,2.534,N,4.696,K,D*2B
$GPGGA,130116.40,4612.0506633,N,00607.3081211,E,4,06,1.7,368.473,M,49.480,M,0.49,0195*76
$RDENS,2845,4687484,PC
$GPVTG,188.5658,T,188.5658,M,2.419,N,4.483,K,D*23
$GPGGA,130116.60,4612.0505310,N,00607.3080910,E,4,06,1.7,368.455,M,49.480,M,0.69,0195*7E
$GPVTG,187.7168,T,187.7168,M,2.454,N,4.548,K,D*2C
$GPGGA,130117.00,4612.0502563,N,00607.3080351,E,4,06,1.7,368.462,M,49.480,M,1.09,0195*70
$GPVTG,189.8030,T,189.8030,M,2.478,N,4.593,K,D*24
$GPGGA,130117.20,4612.0501209,N,00607.3080091,E,4,06,1.7,368.487,M,49.480,M,1.29,0195*7C
$RDENS,2846,4687574,PC
$GPVTG,191.5142,T,191.5142,M,2.426,N,4.496,K,D*2B
$GPGGA,130117.60,4612.0498629,N,00607.3079329,E,4,06,1.7,368.487,M,49.480,M,0.20,0195*71
$GPVTG,192.2127,T,192.2127,M,2.327,N,4.312,K,D*26
$GPGGA,130117.80,4612.0497347,N,00607.3078919,E,4,06,1.7,368.491,M,49.480,M,0.02,0195*72
$GPVTG,194.2476,T,194.2476,M,2.290,N,4.243,K,D*2E
$GPGGA,130118.20,4612.0494844,N,00607.3078159,E,4,06,1.7,368.498,M,49.480,M,0.42,0195*7D
$RDENS,2847,4687666,PC
$GPVTG,190.7244,T,190.7244,M,2.257,N,4.182,K,D*2B
$GPGGA,130118.40,4612.0493609,N,00607.3077766,E,4,06,1.7,368.492,M,49.480,M,0.09,0195*7B
$GPVTG,191.2893,T,191.2893,M,2.299,N,4.260,K,D*26
$GPGGA,130118.80,4612.0491198,N,00607.3077015,E,4,06,1.7,368.520,M,49.480,M,0.31,0195*7A
$GPVTG,194.9053,T,194.9053,M,2.119,N,3.927,K,D*22
$GPGGA,130119.00,4612.0490025,N,00607.3076586,E,4,06,1.7,368.528,M,49.480,M,0.51,0195*75
$GPVTG,192.2213,T,192.2213,M,2.149,N,3.982,K,D*28
$RDENS,2848,4687758,PC
$GPGGA,130119.40,4612.0487649,N,00607.3075804,E,4,06,1.7,368.559,M,49.480,M,0.91,0195*75
$GPVTG,195.0283,T,195.0283,M,2.198,N,4.073,K,D*24
$GPGGA,130119.60,4612.0486527,N,00607.3075386,E,4,06,1.7,368.552,M,49.480,M,0.03,0195*7C
$GPVTG,198.2844,T,198.2844,M,2.138,N,3.963,K,D*21
$GPGGA,130120.00,4612.0484360,N,00607.3074180,E,4,06,1.7,368.491,M,49.480,M,0.43,0195*78
$GPVTG,200.5830,T,200.5830,M,2.060,N,3.818,K,D*20
$RDENS,2849,4687849,PC
$GPGGA,130120.20,4612.0483288,N,00607.3073511,E,4,06,1.7,368.451,M,49.480,M,0.63,0195*7F
$GPVTG,199.3601,T,199.3601,M,2.016,N,3.736,K,D*22
$GPGGA,130120.60,4612.0481134,N,00607.3072710,E,4,06,1.7,368.512,M,49.480,M,0.14,0195*79
$GPVTG,191.9309,T,191.9309,M,1.988,N,3.685,K,D*26
$GPGGA,130120.80,4612.0480034,N,00607.3072260,E,4,06,1.7,368.526,M,49.480,M,0.34,0195*70
$GPVTG,191.7282,T,191.7282,M,1.931,N,3.579,K,D*24
$RDENS,2850,4687946,PC
$GPGGA,130121.20,4612.0477965,N,00607.3071415,E,4,06,1.7,368.544,M,49.480,M,0.74,0195*79
$GPVTG,202.0659,T,202.0659,M,1.929,N,3.574,K,D*20
$GPGGA,130121.40,4612.0477067,N,00607.3070604,E,4,06,1.7,368.488,M,49.480,M,0.94,0195*78
$GPVTG,204.5468,T,204.5468,M,1.959,N,3.630,K,D*24
$GPGGA,130121.60,4612.0476068,N,00607.3069968,E,4,06,1.7,368.446,M,49.480,M,0.05,0195*73
$GPVTG,202.4198,T,202.4198,M,1.758,N,3.258,K,D*21
$GPGGA,130122.00,4612.0474127,N,00607.3068921,E,4,06,1.7,368.452,M,49.480,M,0.45,0195*73
$RDENS,2851,4688043,PC
$GPVTG,198.7996,T,198.7996,M,1.948,N,3.609,K,D*2E
$GPGGA,130122.20,4612.0473182,N,00607.3068590,E,4,06,1.7,368.500,M,49.480,M,0.65,0195*7B
$GPVTG,201.2071,T,201.2071,M,1.807,N,3.350,K,D*2D
$GPGGA,130122.60,4612.0471294,N,00607.3067517,E,4,06,1.7,368.466,M,49.480,M,1.05,0195*7F
$GPVTG,198.7944,T,198.7944,M,1.875,N,3.475,K,D*28
$GPGGA,130122.80,4612.0470448,N,00607.3066919,E,4,06,1.7,368.429,M,49.480,M,0.01,0195*7A
$GPVTG,204.0043,T,204.0043,M,1.629,N,3.018,K,D*20
$RDENS,2852,4688140,PC
$GPGGA,130123.20,4612.0468692,N,00607.3065960,E,4,06,1.7,368.427,M,49.480,M,0.39,0195*75
$GPVTG,198.9112,T,198.9112,M,1.704,N,3.157,K,D*24
$GPGGA,130123.40,4612.0467887,N,00607.3065415,E,4,06,1.7,368.427,M,49.480,M,0.08,0195*7B
$GPVTG,196.9081,T,196.9081,M,1.537,N,2.849,K,D*21
$GPGGA,130123.80,4612.0466299,N,00607.3064977,E,4,06,1.7,368.564,M,49.480,M,0.32,0195*74
$GPVTG,188.2575,T,188.2575,M,1.462,N,2.709,K,D*2B
$RDENS,2853,4688237,PC
$GPGGA,130124.00,4612.0465452,N,00607.3064133,E,4,06,1.7,368.541,M,49.480,M,0.52,0195*70
$GPVTG,195.1190,T,195.1190,M,1.565,N,2.900,K,D*2A
$GPGGA,130124.40,4612.0464346,N,00607.3060157,E,2,08,1.1,367.947,M,49.480,M,0.92,0195*76
$GPVTG,207.5573,T,207.5573,M,1.561,N,2.892,K,D*24
$GPGGA,130124.60,4612.0463627,N,00607.3059569,E,2,08,1.1,367.904,M,49.480,M,1.12,0195*7C
$GPVTG,198.8868,T,198.8868,M,1.427,N,2.644,K,D*22
$GPGGA,130125.00,4612.0462487,N,00607.3059765,E,2,08,1.1,368.244,M,49.480,M,0.07,0195*79
$RDENS,2854,4688334,PC
$GPVTG,213.6373,T,213.6373,M,1.397,N,2.590,K,D*24
$GPGGA,130125.20,4612.0461795,N,00607.3059421,E,2,08,1.1,368.266,M,49.480,M,0.27,0195*79
$GPVTG,202.4332,T,202.4332,M,1.603,N,2.971,K,D*2F
$GPGGA,130125.60,4612.0460506,N,00607.3058312,E,2,08,1.1,368.242,M,49.480,M,0.67,0195*70
$GPVTG,204.0506,T,204.0506,M,1.413,N,2.618,K,D*2C
$GPGGA,130125.80,4612.0459613,N,00607.3057961,E,2,08,1.1,368.257,M,49.480,M,0.11,0195*77
$RDENS,2855,4688431,PC
$GPVTG,208.3138,T,208.3138,M,1.351,N,2.504,K,D*23
$GPGGA,130126.00,4612.0459012,N,00607.3057359,E,2,08,1.1,368.201,M,49.480,M,0.31,0195*7B
$GPVTG,206.1322,T,206.1322,M,1.294,N,2.397,K,D*27
$GPGGA,130126.40,4612.0457367,N,00607.3056140,E,2,08,1.1,368.083,M,49.480,M,0.71,0195*77
$GPVTG,194.9543,T,194.9543,M,1.376,N,2.550,K,D*27
$GPGGA,130126.60,4612.0456495,N,00607.3055858,E,2,08,1.1,368.079,M,49.480,M,0.91,0195*76
$RDENS,2856,4688521,PC
$GPVTG,201.8386,T,201.8386,M,1.310,N,2.429,K,D*28
$GPGGA,130127.00,4612.0455024,N,00607.3055254,E,2,08,1.1,368.092,M,49.480,M,1.31,0195*74
$GPVTG,193.1763,T,193.1763,M,1.527,N,2.830,K,D*2E
$GPGGA,130127.20,4612.0454364,N,00607.3054873,E,2,08,1.1,368.090,M,49.480,M,1.51,0195*7A
$GPVTG,187.9778,T,187.9778,M,1.381,N,2.560,K,D*2C
$GPGGA,130127.60,4612.0452912,N,00607.3054520,E,2,08,1.1,368.102,M,49.480,M,0.19,0195*7F
$GPVTG,186.4507,T,186.4507,M,1.327,N,2.459,K,D*2B
$RDENS,2857,4688611,PC
$GPGGA,130127.80,4612.0451809,N,00607.3054230,E,2,08,1.1,368.062,M,49.480,M,0.07,0195*77
$GPVTG,184.9146,T,184.9146,M,1.447,N,2.681,K,D*2D
$GPGGA,130128.20,4612.0450624,N,00607.3054212,E,2,08,1.1,368.099,M,49.480,M,0.47,0195*72
$GPVTG,188.5850,T,188.5850,M,1.197,N,2.219,K,D*20
$GPGGA,130128.40,4612.0449759,N,00607.3054173,E,2,08,1.1,368.078,M,49.480,M,0.12,0195*7C
$GPVTG,182.4362,T,182.4362,M,1.304,N,2.417,K,D*20
$RDENS,2858,4688700,PC
$GPGGA,130128.80,4612.0447656,N,00607.3053986,E,2,08,1.1,367.929,M,49.480,M,0.28,0195*7E
$GPVTG,175.1650,T,175.1650,M,1.330,N,2.464,K,D*23
$GPGGA,130129.00,4612.0446872,N,00607.3054306,E,2,08,1.1,367.982,M,49.480,M,0.48,0195*7C
$GPVTG,175.3234,T,175.3234,M,1.187,N,2.199,K,D*2A
$GPGGA,130129.40,4612.0444537,N,00607.3054269,E,2,07,1.3,367.823,M,49.480,M,0.01,0195*74
$GPVTG,175.0310,T,175.0310,M,1.507,N,2.793,K,D*2A
$RDENS,2859,4688789,PC
$GPGGA,130129.60,4612.0443652,N,00607.3054399,E,2,07,1.3,367.788,M,49.480,M,0.21,0195*73
$GPVTG,172.3088,T,172.3088,M,1.378,N,2.553,K,D*2A
$GPGGA,130130.00,4612.0442323,N,00607.3055148,E,2,07,1.3,367.902,M,49.480,M,0.61,0195*78
$GPVTG,175.8994,T,175.8994,M,1.326,N,2.457,K,D*24
$GPGGA,130130.20,4612.0441341,N,00607.3055717,E,2,07,1.3,368.021,M,49.480,M,0.81,0195*78
$GPVTG,172.7177,T,172.7177,M,1.183,N,2.192,K,D*25
$RDENS,2860,4688878,PC
$GPGGA,130130.60,4612.0440053,N,00607.3056123,E,2,07,1.3,367.984,M,49.480,M,1.21,0195*7D
$GPVTG,163.2375,T,163.2375,M,1.208,N,2.238,K,D*26
$GPGGA,130130.80,4612.0439391,N,00607.3056442,E,2,07,1.3,367.997,M,49.480,M,1.41,0195*76
$GPVTG,169.4486,T,169.4486,M,1.305,N,2.419,K,D*2F
$GPGGA,130131.00,4612.0438699,N,00607.3056555,E,2,07,1.3,367.953,M,49.480,M,1.61,0195*7E
$GPVTG,165.4803,T,165.4803,M,1.105,N,2.048,K,D*2D
$RDENS,2861,4688967,PC
$GPGGA,130131.40,4612.0437541,N,00607.3057148,E,2,07,1.3,368.003,M,49.480,M,2.01,0195*7C
$GPVTG,165.1977,T,165.1977,M,0.946,N,1.754,K,D*2A
$GPGGA,130131.60,4612.0436868,N,00607.3057231,E,2,07,1.3,367.955,M,49.480,M,0.06,0195*74
$GPVTG,154.8688,T,154.8688,M,1.016,N,1.883,K,D*22
$GPGGA,130132.00,4612.0435839,N,00607.3057878,E,2,07,1.3,368.043,M,49.480,M,0.34,0195*71
$GPVTG,157.5189,T,157.5189,M,1.143,N,2.119,K,D*2A
$RDENS,2862,4689057,PC
$GPGGA,130132.20,4612.0435358,N,00607.3058054,E,2,07,1.3,368.001,M,49.480,M,0.05,0195*72
$GPVTG,160.4254,T,160.4254,M,0.975,N,1.806,K,D*22
$GPGGA,130132.60,4612.0434456,N,00607.3058547,E,2,07,1.3,368.014,M,49.480,M,0.35,0195*7E
$GPVTG,147.6351,T,147.6351,M,1.009,N,1.869,K,D*28
$GPGGA,130132.80,4612.0434113,N,00607.3058858,E,2,07,1.3,368.034,M,49.480,M,0.06,0195*75
$GPVTG,158.1186,T,158.1186,M,0.883,N,1.636,K,D*27
$RDENS,2863,4689146,PC
$GPGGA,130133.20,4612.0433459,N,00607.3059406,E,2,07,1.3,368.047,M,49.480,M,0.34,0195*71
$GPVTG,163.4809,T,163.4809,M,0.755,N,1.399,K,D*23
$GPGGA,130133.40,4612.0433030,N,00607.3059812,E,2,07,1.3,368.102,M,49.480,M,0.06,0195*74
$GPVTG,166.8862,T,166.8862,M,0.686,N,1.271,K,D*2B
$GPGGA,130133.80,4612.0432392,N,00607.3060258,E,2,07,1.3,368.131,M,49.480,M,0.34,0195*7D
$GPVTG,164.8660,T,164.8660,M,0.753,N,1.396,K,D*2A
$RDENS,2864,4689235,PC
$GPVTG,154.9132,T,154.9132,M,0.828,N,1.534,K,D*27
$GPGGA,130134.20,4612.0431854,N,00607.3060698,E,2,07,1.3,368.135,M,49.480,M,0.74,0195*7A
$GPVTG,158.9258,T,158.9258,M,0.481,N,0.891,K,D*2B
$GPGGA,130134.40,4612.0431598,N,00607.3060710,E,2,07,1.3,368.098,M,49.480,M,0.17,0195*73
$GPVTG,153.5434,T,153.5434,M,0.428,N,0.794,K,D*22
$GPGGA,130134.80,4612.0431212,N,00607.3061032,E,2,07,1.3,368.112,M,49.480,M,0.23,0195*78
$RDENS,2865,4689324,PC
$GPVTG,154.6583,T,154.6583,M,0.558,N,1.034,K,D*28
