$GPVTG,60.2662,T,60.2662,M,0.348,N,0.645,K,D*2E
$GPGGA,122329.40,4612.1966069,N,00607.5702454,E,2,07,2.4,368.953,M,49.481,M,16.75,0195*45
$GPVTG,84.0056,T,84.0056,M,0.220,N,0.408,K,D*2A
$GPGGA,122329.80,4612.1966061,N,00607.5702705,E,2,07,2.4,368.871,M,49.481,M,17.15,0195*40
$GPVTG,89.0503,T,89.0503,M,0.268,N,0.497,K,D*20
$RDENS,279,4460826,PC
$GPGGA,122330.00,4612.1966020,N,00607.5702784,E,2,07,2.4,368.816,M,49.481,M,0.15,0195*7B
$GPVTG,98.2824,T,98.2824,M,0.246,N,0.456,K,D*21
$GPGGA,122330.40,4612.1966043,N,00607.5703117,E,2,07,2.4,368.829,M,49.481,M,0.20,0195*7D
$GPVTG,130.3735,T,130.3735,M,0.161,N,0.299,K,D*22
$GPGGA,122330.60,4612.1966038,N,00607.5703276,E,2,07,2.4,368.843,M,49.481,M,0.40,0195*7D
$GPVTG,128.6309,T,128.6309,M,0.146,N,0.271,K,D*21
$RDENS,280,4460914,PC
$GPGGA,122331.00,4612.1965900,N,00607.5703376,E,2,07,2.4,368.829,M,49.481,M,0.80,0195*7A
$GPVTG,167.4482,T,167.4482,M,0.147,N,0.272,K,D*23
$GPGGA,122331.20,4612.1965815,N,00607.5703340,E,2,07,2.4,368.793,M,49.481,M,1.00,0195*7F
$GPVTG,176.2952,T,176.2952,M,0.196,N,0.363,K,D*2E
$GPGGA,122331.60,4612.1965632,N,00607.5703354,E,2,07,2.4,368.769,M,49.481,M,1.40,0195*74
$GPVTG,182.4546,T,182.4546,M,0.155,N,0.288,K,D*25
$RDENS,281,4461002,PC
$GPGGA,122331.80,4612.1965565,N,00607.5703362,E,2,07,2.4,368.780,M,49.481,M,1.60,0195*7B
$GPVTG,176.5616,T,176.5616,M,0.103,N,0.190,K,D*2C
$GPGGA,122332.00,4612.1965480,N,00607.5703282,E,2,07,2.4,368.759,M,49.481,M,1.80,0195*7F
$GPVTG,195.9477,T,195.9477,M,0.161,N,0.299,K,D*22
$GPGGA,122332.40,4612.1965372,N,00607.5703263,E,2,07,2.4,368.777,M,49.481,M,2.20,0195*7B
$GPVTG,182.3821,T,182.3821,M,0.098,N,0.182,K,D*2C
$RDENS,282,4461090,PC
$GPGGA,122332.60,4612.1965270,N,00607.5703220,E,2,07,2.4,368.791,M,49.481,M,0.18,0195*7C
$GPVTG,197.9998,T,197.9998,M,0.208,N,0.385,K,D*22
$GPGGA,122333.00,4612.1965131,N,00607.5703300,E,2,07,2.4,368.890,M,49.481,M,0.22,0195*79
$GPVTG,197.0263,T,197.0263,M,0.242,N,0.448,K,D*2A
$GPGGA,122333.20,4612.1964989,N,00607.5703077,E,2,07,2.4,368.847,M,49.481,M,0.42,0195*7E
$GPVTG,218.6356,T,218.6356,M,0.276,N,0.512,K,D*23
$RDENS,283,4461178,PC
$GPGGA,122333.60,4612.1964772,N,00607.5702821,E,2,07,2.4,368.835,M,49.481,M,0.82,0195*73
$GPVTG,217.8316,T,217.8316,M,0.400,N,0.742,K,D*23
$GPGGA,122333.80,4612.1964663,N,00607.5702677,E,2,07,2.4,368.826,M,49.481,M,1.02,0195*7A
$GPVTG,225.1929,T,225.1929,M,0.272,N,0.505,K,D*21
$GPGGA,122334.20,4612.1964320,N,00607.5702286,E,2,07,2.4,368.775,M,49.481,M,1.42,0195*72
$GPVTG,205.5408,T,205.5408,M,0.497,N,0.922,K,D*25
$RDENS,284,4461266,PC
$GPGGA,122334.40,4612.1964158,N,00607.5702093,E,2,07,2.4,368.751,M,49.481,M,1.62,0195*7B
$GPVTG,208.2945,T,208.2945,M,0.359,N,0.665,K,D*2C
$GPGGA,122334.80,4612.1963905,N,00607.5701790,E,2,07,2.4,368.724,M,49.481,M,2.02,0195*70
$GPVTG,214.3986,T,214.3986,M,0.288,N,0.534,K,D*26
$GPGGA,122335.00,4612.1963791,N,00607.5701849,E,2,07,2.4,368.790,M,49.481,M,2.22,0195*7C
$GPVTG,226.9937,T,226.9937,M,0.252,N,0.468,K,D*29
$RDENS,285,4461354,PC
$GPGGA,122335.40,4612.1963552,N,00607.5701878,E,2,07,2.4,368.897,M,49.481,M,2.62,0195*7B
$GPVTG,208.8481,T,208.8481,M,0.175,N,0.324,K,D*20
$GPGGA,122335.60,4612.1963378,N,00607.5701608,E,2,07,2.4,368.856,M,49.481,M,2.82,0195*7D
$GPVTG,218.3689,T,218.3689,M,0.246,N,0.456,K,D*21
$GPGGA,122336.00,4612.1963097,N,00607.5701229,E,2,07,2.4,368.852,M,49.481,M,3.22,0195*72
$GPVTG,233.5103,T,233.5103,M,0.264,N,0.488,K,D*22
$RDENS,286,4461442,PC
$GPGGA,122336.20,4612.1962958,N,00607.5701079,E,2,07,2.4,368.859,M,49.481,M,3.42,0195*71
$GPVTG,216.1385,T,216.1385,M,0.423,N,0.784,K,D*28
$GPGGA,122336.40,4612.1962756,N,00607.5700683,E,2,07,2.4,368.774,M,49.481,M,3.62,0195*77
$GPVTG,213.1936,T,213.1936,M,0.347,N,0.643,K,D*27
$GPGGA,122336.80,4612.1962436,N,00607.5700510,E,2,07,2.4,368.885,M,49.481,M,4.02,0195*77
$GPVTG,226.1168,T,226.1168,M,0.446,N,0.826,K,D*2C
$RDENS,287,4461530,PC
$GPGGA,122337.00,4612.1962220,N,00607.5700134,E,2,07,2.4,368.840,M,49.481,M,4.22,0195*76
$GPVTG,223.6967,T,223.6967,M,0.362,N,0.671,K,D*21
$GPGGA,122337.40,4612.1961819,N,00607.5699750,E,2,07,2.4,368.851,M,49.481,M,4.62,0195*70
$GPVTG,212.2025,T,212.2025,M,0.392,N,0.726,K,D*2D
$GPGGA,122337.60,4612.1961573,N,00607.5699418,E,2,07,2.4,368.762,M,49.481,M,4.82,0195*7D
$GPVTG,209.0459,T,209.0459,M,0.421,N,0.780,K,D*2E
$RDENS,288,4461618,PC
$GPGGA,122338.00,4612.1961152,N,00607.5698814,E,2,07,2.4,368.591,M,49.481,M,5.22,0195*77
$GPVTG,200.3957,T,200.3957,M,0.469,N,0.870,K,D*22
$GPGGA,122338.20,4612.1960865,N,00607.5698839,E,2,07,2.4,368.707,M,49.481,M,5.42,0195*7D
$GPVTG,190.0784,T,190.0784,M,0.452,N,0.838,K,D*26
$GPGGA,122338.60,4612.1960323,N,00607.5698753,E,2,07,2.4,368.747,M,49.481,M,5.82,0195*7B
$RDENS,289,4461706,PC
$GPVTG,194.9287,T,194.9287,M,0.588,N,1.091,K,D*2A
$GPGGA,122338.80,4612.1960107,N,00607.5698969,E,2,07,2.4,368.842,M,49.481,M,6.02,0195*77
$GPVTG,173.7208,T,173.7208,M,0.589,N,1.092,K,D*28
$GPGGA,122339.20,4612.1959502,N,00607.5699118,E,2,07,2.4,368.915,M,49.481,M,6.42,0195*7F
$GPVTG,173.3028,T,173.3028,M,0.513,N,0.950,K,D*2D
$GPGGA,122339.40,4612.1959247,N,00607.5699392,E,2,07,2.4,368.950,M,49.481,M,6.62,0195*7C
$GPVTG,155.9507,T,155.9507,M,0.598,N,1.108,K,D*2A
$RDENS,290,4461794,PC
$GPGGA,122339.80,4612.1958671,N,00607.5699627,E,2,07,2.4,368.857,M,49.481,M,0.01,0195*7E
$GPVTG,126.8738,T,126.8738,M,0.474,N,0.879,K,D*27
$GPGGA,122340.00,4612.1958403,N,00607.5699891,E,2,07,2.4,368.849,M,49.481,M,0.08,0195*7A
$GPVTG,144.7957,T,144.7957,M,0.640,N,1.186,K,D*2A
$GPGGA,122340.40,4612.1957958,N,00607.5701035,E,4,07,2.4,368.961,M,49.481,M,0.32,0195*70
$GPVTG,131.8498,T,131.8498,M,0.745,N,1.381,K,D*2B
$RDENS,291,4461882,PC
$GPGGA,122340.60,4612.1957541,N,00607.5701167,E,4,07,2.4,368.875,M,49.481,M,0.07,0195*72
$GPVTG,133.7310,T,133.7310,M,0.880,N,1.631,K,D*23
$GPGGA,122341.00,4612.1956873,N,00607.5702092,E,4,07,2.4,368.868,M,49.481,M,0.05,0195*7E
$GPVTG,125.4467,T,125.4467,M,0.746,N,1.383,K,D*2A
$GPGGA,122341.20,4612.1956559,N,00607.5702598,E,4,07,2.4,368.853,M,49.481,M,0.25,0195*7C
$GPVTG,128.2880,T,128.2880,M,0.886,N,1.642,K,D*21
$RDENS,292,4461970,PC
$GPGGA,122341.40,4612.1956250,N,00607.5703123,E,4,07,2.4,368.819,M,49.481,M,0.45,0195*79
$GPVTG,137.9738,T,137.9738,M,1.045,N,1.936,K,D*2B
$GPGGA,122341.80,4612.1955573,N,00607.5704694,E,4,07,2.4,368.910,M,49.481,M,0.85,0195*78
$GPVTG,126.5933,T,126.5933,M,1.131,N,2.095,K,D*2A
$GPGGA,122342.00,4612.1955284,N,00607.5705516,E,4,07,2.4,368.895,M,49.481,M,1.05,0195*71
$GPVTG,125.6610,T,125.6610,M,1.014,N,1.879,K,D*25
$RDENS,293,4462060,PC
$GPGGA,122342.40,4612.1954544,N,00607.5706512,E,4,07,2.4,368.721,M,49.481,M,0.05,0195*79
$GPVTG,122.1111,T,122.1111,M,1.159,N,2.148,K,D*25
$GPGGA,122342.60,4612.1954099,N,00607.5706955,E,4,07,2.4,368.628,M,49.481,M,0.10,0195*7D
$GPVTG,122.9203,T,122.9203,M,1.238,N,2.295,K,D*22
$GPGGA,122343.00,4612.1953261,N,00607.5708754,E,4,07,2.4,368.720,M,49.481,M,0.50,0195*74
$GPVTG,118.8814,T,118.8814,M,1.220,N,2.261,K,D*20
$RDENS,294,4462148,PC
$GPGGA,122343.20,4612.1952847,N,00607.5709679,E,4,07,2.4,368.731,M,49.481,M,0.70,0195*74
$GPVTG,131.3383,T,131.3383,M,1.302,N,2.412,K,D*23
$GPGGA,122343.60,4612.1951819,N,00607.5711076,E,4,07,2.4,368.662,M,49.481,M,1.10,0195*78
$GPVTG,131.4021,T,131.4021,M,1.412,N,2.617,K,D*22
$GPGGA,122343.80,4612.1951354,N,00607.5711911,E,4,07,2.4,368.637,M,49.481,M,1.30,0195*7E
$GPVTG,128.8139,T,128.8139,M,1.344,N,2.491,K,D*2A
$RDENS,295,4462238,PC
$GPGGA,122344.20,4612.1950368,N,00607.5713710,E,4,07,2.4,368.696,M,49.481,M,1.70,0195*7F
$GPVTG,136.8851,T,136.8851,M,1.423,N,2.636,K,D*23
$GPGGA,122344.40,4612.1949781,N,00607.5714522,E,4,07,2.4,368.702,M,49.481,M,1.90,0195*74
$GPVTG,134.1837,T,134.1837,M,1.463,N,2.712,K,D*20
$GPGGA,122344.80,4612.1948648,N,00607.5716559,E,4,07,2.4,368.841,M,49.481,M,0.21,0195*70
$GPVTG,136.0035,T,136.0035,M,1.451,N,2.690,K,D*2A
$RDENS,296,4462328,PC
$GPGGA,122345.00,4612.1948062,N,00607.5717301,E,4,07,2.4,368.826,M,49.481,M,0.41,0195*7A
$GPVTG,137.5566,T,137.5566,M,1.461,N,2.707,K,D*26
$GPGGA,122345.40,4612.1946953,N,00607.5718707,E,4,07,2.4,368.728,M,49.481,M,0.21,0195*71
$GPVTG,139.2936,T,139.2936,M,1.407,N,2.607,K,D*27
$GPGGA,122345.60,4612.1946231,N,00607.5719334,E,4,07,2.4,368.746,M,49.481,M,0.41,0195*77
$GPVTG,140.6293,T,140.6293,M,1.395,N,2.585,K,D*22
$RDENS,297,4462417,PC
$GPGGA,122345.80,4612.1945636,N,00607.5720127,E,4,07,2.4,368.780,M,49.481,M,0.61,0195*7B
$GPVTG,144.0308,T,144.0308,M,1.462,N,2.709,K,D*2B
$GPGGA,122346.20,4612.1944345,N,00607.5721531,E,4,07,2.4,368.778,M,49.481,M,1.01,0195*70
$GPVTG,139.8660,T,139.8660,M,1.422,N,2.635,K,D*21
$GPGGA,122346.40,4612.1943692,N,00607.5722246,E,4,07,2.4,368.767,M,49.481,M,1.21,0195*76
$GPVTG,143.6365,T,143.6365,M,1.504,N,2.786,K,D*2D
$RDENS,298,4462506,PC
$GPGGA,122346.80,4612.1942321,N,00607.5723709,E,4,07,2.4,368.799,M,49.481,M,1.61,0195*7C
$GPVTG,144.9753,T,144.9753,M,1.523,N,2.822,K,D*29
$GPGGA,122347.00,4612.1941559,N,00607.5724207,E,4,07,2.4,368.717,M,49.481,M,0.05,0195*76
$GPVTG,148.3790,T,148.3790,M,1.529,N,2.833,K,D*23
$GPGGA,122347.40,4612.1940208,N,00607.5725851,E,4,07,2.4,368.804,M,49.481,M,0.45,0195*71
$GPVTG,143.2296,T,143.2296,M,1.531,N,2.838,K,D*21
$RDENS,299,4462595,PC
$GPGGA,122347.60,4612.1939478,N,00607.5726382,E,4,07,2.4,368.726,M,49.481,M,0.65,0195*77
$GPVTG,145.5941,T,145.5941,M,1.573,N,2.915,K,D*29
$GPGGA,122348.00,4612.1938008,N,00607.5727813,E,4,07,2.4,368.730,M,49.481,M,1.05,0195*7E
$GPVTG,144.7445,T,144.7445,M,1.558,N,2.887,K,D*2A
$GPGGA,122348.20,4612.1937226,N,00607.5728421,E,4,07,2.4,368.686,M,49.481,M,1.25,0195*71
$GPVTG,145.5336,T,145.5336,M,1.566,N,2.902,K,D*2B
$RDENS,300,4462680,PC
$GPGGA,122348.60,4612.1935809,N,00607.5730064,E,4,07,2.4,368.739,M,49.481,M,1.65,0195*7D
$GPVTG,146.1061,T,146.1061,M,1.688,N,3.129,K,D*28
$GPGGA,122348.80,4612.1935001,N,00607.5730798,E,4,07,2.4,368.757,M,49.481,M,1.85,0195*71
$GPVTG,144.3382,T,144.3382,M,1.615,N,2.994,K,D*23
$GPGGA,122349.20,4612.1933515,N,00607.5732388,E,4,07,2.4,368.740,M,49.481,M,2.25,0195*74
$GPVTG,145.2910,T,145.2910,M,1.766,N,3.273,K,D*25
$RDENS,301,4462766,PC
$GPGGA,122349.40,4612.1932763,N,00607.5733310,E,4,07,2.4,368.791,M,49.481,M,2.45,0195*7A
$GPVTG,144.7519,T,144.7519,M,1.761,N,3.264,K,D*24
$GPGGA,122349.80,4612.1931193,N,00607.5734851,E,4,07,2.4,368.770,M,49.481,M,2.85,0195*76
$GPVTG,142.0909,T,142.0909,M,1.702,N,3.153,K,D*26
$GPVTG,145.7883,T,145.7883,M,1.782,N,3.302,K,D*28
$RDENS,302,4462852,PC
$GPGGA,122350.20,4612.1929557,N,00607.5736257,E,4,07,2.4,368.676,M,49.481,M,3.25,0195*73
$GPVTG,145.4798,T,145.4798,M,1.784,N,3.306,K,D*2A
$GPGGA,122350.40,4612.1928707,N,00607.5737078,E,4,07,2.4,368.716,M,49.481,M,3.45,0195*7C
$GPVTG,146.5802,T,146.5802,M,1.841,N,3.412,K,D*2E
$GPGGA,122350.80,4612.1926996,N,00607.5738469,E,4,07,2.4,368.645,M,49.481,M,3.85,0195*78
$GPVTG,147.0458,T,147.0458,M,1.748,N,3.239,K,D*27
$RDENS,303,4462938,PC
$GPGGA,122351.00,4612.1926115,N,00607.5739216,E,4,07,2.4,368.624,M,49.481,M,4.05,0195*75
$GPVTG,147.6972,T,147.6972,M,1.879,N,3.482,K,D*2C
$GPGGA,122351.40,4612.1924416,N,00607.5741077,E,4,07,2.4,368.716,M,49.481,M,4.45,0195*7B
$GPVTG,147.9206,T,147.9206,M,1.793,N,3.323,K,D*2B
$GPGGA,122351.60,4612.1923568,N,00607.5741844,E,4,07,2.4,368.706,M,49.481,M,4.65,0195*7D
$GPVTG,150.3546,T,150.3546,M,1.823,N,3.378,K,D*21
$RDENS,304,4463024,PC
$GPGGA,122352.00,4612.1921865,N,00607.5743348,E,4,07,2.4,368.716,M,49.481,M,5.05,0195*79
$GPVTG,148.4905,T,148.4905,M,1.826,N,3.385,K,D*26
$GPGGA,122352.20,4612.1920949,N,00607.5743941,E,4,07,2.4,368.674,M,49.481,M,5.25,0195*71
$GPVTG,152.7113,T,152.7113,M,1.852,N,3.432,K,D*2E
$GPGGA,122352.60,4612.1919136,N,00607.5745193,E,4,07,2.4,368.629,M,49.481,M,5.65,0195*72
$GPVTG,152.3142,T,152.3142,M,1.829,N,3.390,K,D*2D
$RDENS,305,4463111,PC
$GPGGA,122352.80,4612.1918186,N,00607.5745923,E,2,07,2.4,368.652,M,49.481,M,5.85,0195*71
$GPVTG,152.8360,T,152.8360,M,1.812,N,3.358,K,D*21
$GPGGA,122353.20,4612.1916362,N,00607.5747341,E,2,07,2.4,368.660,M,49.481,M,6.25,0195*78
$GPVTG,154.2745,T,154.2745,M,1.906,N,3.533,K,D*2E
$GPGGA,122353.40,4612.1915451,N,00607.5748054,E,2,07,2.4,368.680,M,49.481,M,0.13,0195*7F
$GPVTG,154.4526,T,154.4526,M,1.865,N,3.456,K,D*28
$RDENS,306,4463198,PC
$GPGGA,122353.80,4612.1913590,N,00607.5749560,E,2,07,2.4,368.761,M,49.481,M,0.53,0195*70
$GPVTG,153.2847,T,153.2847,M,1.914,N,3.547,K,D*2E
$GPGGA,122354.00,4612.1912631,N,00607.5750130,E,4,07,2.4,368.745,M,49.481,M,0.07,0195*7E
$GPVTG,154.6390,T,154.6390,M,1.817,N,3.368,K,D*27
$GPGGA,122354.40,4612.1910733,N,00607.5751522,E,4,07,2.4,368.800,M,49.481,M,0.47,0195*77
$GPVTG,154.2341,T,154.2341,M,1.916,N,3.551,K,D*2B
$RDENS,307,4463285,PC
$GPGGA,122354.60,4612.1909747,N,00607.5752242,E,4,07,2.4,368.825,M,49.481,M,0.67,0195*79
$GPVTG,158.0896,T,158.0896,M,1.944,N,3.603,K,D*28
$GPGGA,122354.80,4612.1908712,N,00607.5752748,E,4,07,2.4,368.807,M,49.481,M,0.87,0195*77
$GPVTG,157.9499,T,157.9499,M,1.890,N,3.503,K,D*23
$GPGGA,122355.20,4612.1906923,N,00607.5754171,E,4,07,2.4,368.861,M,49.481,M,0.09,0195*72
$GPVTG,158.0747,T,158.0747,M,2.035,N,3.771,K,D*20
$RDENS,308,4463372,PC
$GPGGA,122355.40,4612.1905789,N,00607.5754633,E,4,07,2.4,368.850,M,49.481,M,0.11,0195*73
$GPVTG,159.5302,T,159.5302,M,2.030,N,3.763,K,D*26
$GPGGA,122355.80,4612.1903744,N,00607.5755974,E,4,07,2.4,368.904,M,49.481,M,0.51,0195*71
$GPVTG,160.5338,T,160.5338,M,1.980,N,3.669,K,D*2C
$GPGGA,122356.00,4612.1902676,N,00607.5756432,E,4,07,2.4,368.866,M,49.481,M,0.71,0195*70
$GPVTG,160.9060,T,160.9060,M,2.143,N,3.972,K,D*2D
$RDENS,309,4463459,PC
$GPGGA,122356.40,4612.1900418,N,00607.5757376,E,4,07,2.4,368.830,M,49.481,M,1.11,0195*7E
$GPVTG,163.3066,T,163.3066,M,2.213,N,4.101,K,D*20
$GPGGA,122356.60,4612.1899260,N,00607.5757917,E,4,07,2.4,368.877,M,49.481,M,1.31,0195*78
$GPVTG,163.9021,T,163.9021,M,2.171,N,4.024,K,D*21
$GPGGA,122357.00,4612.1896925,N,00607.5758574,E,4,07,2.4,368.821,M,49.481,M,1.71,0195*7B
$GPVTG,166.7329,T,166.7329,M,2.160,N,4.003,K,D*24
$RDENS,310,4463546,PC
$GPGGA,122357.20,4612.1895802,N,00607.5759114,E,4,07,2.4,368.883,M,49.481,M,0.12,0195*71
$GPVTG,169.7332,T,169.7332,M,2.038,N,3.777,K,D*2B
$GPGGA,122357.60,4612.1893534,N,00607.5759642,E,4,07,2.4,368.873,M,49.481,M,0.52,0195*74
$GPVTG,171.0045,T,171.0045,M,2.133,N,3.953,K,D*29
$GPGGA,122357.80,4612.1892375,N,00607.5759601,E,4,07,2.4,368.756,M,49.481,M,0.72,0195*75
$RDENS,311,4463633,PC
$GPVTG,172.4144,T,172.4144,M,2.029,N,3.761,K,D*2C
$GPGGA,122358.20,4612.1890123,N,00607.5759909,E,4,07,2.4,368.770,M,49.481,M,1.12,0195*77
$GPVTG,176.5417,T,176.5417,M,2.055,N,3.808,K,D*27
$GPGGA,122358.40,4612.1889009,N,00607.5759989,E,4,07,2.4,368.760,M,49.481,M,1.32,0195*7B
$GPVTG,178.2312,T,178.2312,M,2.051,N,3.801,K,D*2A
$GPGGA,122358.80,4612.1886765,N,00607.5759789,E,4,07,2.4,368.677,M,49.481,M,0.10,0195*7D
$RDENS,312,4463720,PC
$GPVTG,181.5144,T,181.5144,M,1.948,N,3.610,K,D*26
$GPGGA,122359.00,4612.1885680,N,00607.5759728,E,4,07,2.4,368.689,M,49.481,M,0.30,0195*75
$GPVTG,185.4481,T,185.4481,M,2.003,N,3.712,K,D*20
$GPGGA,122359.20,4612.1884537,N,00607.5759578,E,4,07,2.4,368.696,M,49.481,M,0.50,0195*76
$GPVTG,187.4149,T,187.4149,M,1.880,N,3.485,K,D*2D
$GPGGA,122359.60,4612.1882401,N,00607.5759156,E,4,07,2.4,368.714,M,49.481,M,0.90,0195*7F
$RDENS,313,4463807,PC
$GPVTG,188.5049,T,188.5049,M,1.971,N,3.653,K,D*2B
$GPGGA,122359.80,4612.1881430,N,00607.5758953,E,4,07,2.4,368.716,M,49.481,M,1.10,0195*77
$GPVTG,190.6915,T,190.6915,M,1.860,N,3.447,K,D*2D
$GPGGA,122400.20,4612.1879385,N,00607.5758382,E,4,07,2.4,368.731,M,49.481,M,1.50,0195*7F
$GPVTG,193.6618,T,193.6618,M,1.873,N,3.471,K,D*2A
$GPGGA,122400.40,4612.1878387,N,00607.5758005,E,4,07,2.4,368.723,M,49.481,M,0.06,0195*77
$RDENS,314,4463894,PC
$GPVTG,196.4312,T,196.4312,M,1.777,N,3.293,K,D*2B
$GPGGA,122400.80,4612.1876397,N,00607.5757191,E,4,08,2.4,368.704,M,49.481,M,0.34,0195*7C
$GPVTG,194.3463,T,194.3463,M,1.921,N,3.560,K,D*2D
$GPGGA,122401.00,4612.1875508,N,00607.5756948,E,4,08,2.4,368.795,M,49.481,M,0.04,0195*70
$GPVTG,197.9120,T,197.9120,M,1.833,N,3.397,K,D*21
$GPGGA,122401.40,4612.1873633,N,00607.5756022,E,4,08,2.4,368.778,M,49.481,M,0.44,0195*7B
$RDENS,315,4463981,PC
$GPVTG,199.5545,T,199.5545,M,1.722,N,3.191,K,D*2A
$GPGGA,122401.60,4612.1872699,N,00607.5755408,E,4,08,2.4,368.737,M,49.481,M,0.09,0195*75
$GPVTG,200.9191,T,200.9191,M,1.817,N,3.367,K,D*28
$GPGGA,122402.00,4612.1870904,N,00607.5754440,E,4,08,2.4,368.792,M,49.481,M,0.49,0195*7F
$GPVTG,205.1106,T,205.1106,M,1.686,N,3.125,K,D*2A
$GPGGA,122402.20,4612.1870035,N,00607.5754014,E,4,08,2.4,368.827,M,49.481,M,0.69,0195*70
$RDENS,316,4464068,PC
$GPVTG,204.2241,T,204.2241,M,1.743,N,3.229,K,D*2D
$GPGGA,122402.60,4612.1868268,N,00607.5752917,E,4,08,2.4,368.863,M,49.481,M,1.09,0195*7C
$GPVTG,204.1081,T,204.1081,M,1.774,N,3.287,K,D*2D
$GPGGA,122402.80,4612.1867397,N,00607.5752256,E,4,08,2.4,368.845,M,49.481,M,1.29,0195*74
$GPVTG,202.9242,T,202.9242,M,1.745,N,3.234,K,D*27
$GPGGA,122403.20,4612.1865564,N,00607.5750852,E,4,08,2.4,368.740,M,49.481,M,0.21,0195*78
$RDENS,317,4464155,PC
$GPVTG,205.2084,T,205.2084,M,1.780,N,3.300,K,D*28
$GPGGA,122403.40,4612.1864680,N,00607.5750401,E,4,08,2.4,368.789,M,49.481,M,0.41,0195*7F
$GPVTG,205.6052,T,205.6052,M,1.783,N,3.305,K,D*2E
$GPGGA,122403.80,4612.1862922,N,00607.5749220,E,4,08,2.4,368.811,M,49.481,M,0.06,0195*72
$GPVTG,204.5482,T,204.5482,M,1.764,N,3.269,K,D*2C
$GPGGA,122404.00,4612.1862065,N,00607.5748657,E,4,08,2.4,368.849,M,49.481,M,0.26,0195*7D
$RDENS,318,4464242,PC
$GPVTG,209.1405,T,209.1405,M,1.774,N,3.289,K,D*23
$GPGGA,122404.20,4612.1861205,N,00607.5747986,E,4,08,2.4,368.854,M,49.481,M,0.46,0195*7E
$GPVTG,209.7066,T,209.7066,M,1.735,N,3.215,K,D*23
$GPGGA,122404.60,4612.1859503,N,00607.5746620,E,4,08,2.4,368.844,M,49.481,M,0.04,0195*75
$GPVTG,208.5956,T,208.5956,M,1.739,N,3.222,K,D*2B
$GPGGA,122404.80,4612.1858664,N,00607.5745861,E,4,08,2.4,368.819,M,49.481,M,0.24,0195*7A
$RDENS,319,4464329,PC
$GPVTG,210.0024,T,210.0024,M,1.699,N,3.149,K,D*2E
$GPGGA,122405.20,4612.1857056,N,00607.5744580,E,4,08,2.4,368.841,M,49.481,M,0.64,0195*73
$GPVTG,211.0975,T,211.0975,M,1.678,N,3.109,K,D*25
$GPGGA,122405.40,4612.1856226,N,00607.5743831,E,4,08,2.4,368.799,M,49.481,M,0.84,0195*75
$GPVTG,213.4268,T,213.4268,M,1.690,N,3.133,K,D*2A
$GPGGA,122405.80,4612.1854671,N,00607.5742387,E,4,08,2.4,368.793,M,49.481,M,1.24,0195*7B
$RDENS,320,4464416,PC
$GPVTG,211.0095,T,211.0095,M,1.655,N,3.068,K,D*2C
$GPGGA,122406.00,4612.1853926,N,00607.5741865,E,4,08,2.4,368.872,M,49.481,M,1.44,0195*78
$GPVTG,213.3474,T,213.3474,M,1.696,N,3.143,K,D*2B
$GPGGA,122406.40,4612.1852403,N,00607.5740269,E,4,08,2.4,368.844,M,49.481,M,1.84,0195*79
$GPVTG,215.4774,T,215.4774,M,1.587,N,2.942,K,D*20
$RDENS,321,4464503,PC
$GPGGA,122406.60,4612.1851674,N,00607.5739464,E,4,08,2.4,368.818,M,49.481,M,2.04,0195*7D
$GPVTG,213.3864,T,213.3864,M,1.624,N,3.009,K,D*2D
$GPGGA,122407.00,4612.1850145,N,00607.5737819,E,4,08,2.4,368.756,M,49.481,M,0.08,0195*7D
$GPVTG,214.2207,T,214.2207,M,1.650,N,3.057,K,D*25
$GPGGA,122407.20,4612.1849384,N,00607.5737138,E,4,08,2.4,368.736,M,49.481,M,0.28,0195*76
$GPVTG,211.6806,T,211.6806,M,1.652,N,3.062,K,D*21
$RDENS,322,4464590,PC
$GPGGA,122407.60,4612.1847751,N,00607.5735854,E,4,08,2.4,368.757,M,49.481,M,0.68,0195*72
$GPVTG,206.5933,T,206.5933,M,1.686,N,3.124,K,D*2B
$GPGGA,122407.80,4612.1846909,N,00607.5735278,E,4,08,2.4,368.780,M,49.481,M,0.88,0195*7E
$GPVTG,207.0011,T,207.0011,M,1.634,N,3.027,K,D*20
$GPGGA,122408.20,4612.1845280,N,00607.5733927,E,4,08,2.4,368.713,M,49.481,M,0.02,0195*7D
$GPVTG,207.0298,T,207.0298,M,1.663,N,3.081,K,D*2E
$RDENS,323,4464677,PC
$GPGGA,122408.40,4612.1844492,N,00607.5733273,E,4,08,2.4,368.699,M,49.481,M,0.22,0195*74
$GPVTG,208.7099,T,208.7099,M,1.627,N,3.016,K,D*20
$GPGGA,122408.60,4612.1843691,N,00607.5732674,E,4,08,2.4,368.699,M,49.481,M,0.42,0195*74
$GPVTG,210.3409,T,210.3409,M,1.571,N,2.912,K,D*2C
$GPGGA,122409.00,4612.1842133,N,00607.5731365,E,4,08,2.4,368.691,M,49.481,M,0.82,0195*7F
$GPVTG,210.3439,T,210.3439,M,1.613,N,2.989,K,D*29
$RDENS,324,4464764,PC
$GPGGA,122409.20,4612.1841378,N,00607.5730685,E,4,08,2.4,368.666,M,49.481,M,1.02,0195*78
$GPVTG,211.9509,T,211.9509,M,1.591,N,2.948,K,D*2D
$GPGGA,122409.60,4612.1839856,N,00607.5729285,E,4,08,2.4,368.640,M,49.481,M,1.42,0195*78
$GPVTG,210.5582,T,210.5582,M,1.587,N,2.940,K,D*22
$GPGGA,122409.80,4612.1839125,N,00607.5728631,E,4,08,2.4,368.664,M,49.481,M,1.62,0195*75
$GPVTG,213.1730,T,213.1730,M,1.548,N,2.868,K,D*2A
$RDENS,325,4464851,PC
$GPGGA,122410.20,4612.1837638,N,00607.5727214,E,4,08,2.4,368.632,M,49.481,M,2.02,0195*78
$GPVTG,211.5040,T,211.5040,M,1.602,N,2.969,K,D*27
$GPGGA,122410.40,4612.1836880,N,00607.5726653,E,4,08,2.4,368.655,M,49.481,M,2.22,0195*77
$GPVTG,210.1244,T,210.1244,M,1.638,N,3.035,K,D*2F
$GPGGA,122410.80,4612.1835281,N,00607.5725328,E,4,08,2.4,368.621,M,49.481,M,2.62,0195*7E
$GPVTG,208.9725,T,208.9725,M,1.594,N,2.955,K,D*24
$RDENS,326,4464938,PC
$GPGGA,122411.00,4612.1834472,N,00607.5724804,E,4,08,2.4,368.639,M,49.481,M,2.82,0195*7F
$GPVTG,206.4037,T,206.4037,M,1.669,N,3.093,K,D*27
$GPGGA,122411.40,4612.1832796,N,00607.5723523,E,4,08,2.4,368.584,M,49.481,M,3.22,0195*75
$GPVTG,205.8869,T,205.8869,M,1.648,N,3.054,K,D*2F
$GPGGA,122411.60,4612.1831935,N,00607.5723042,E,4,08,2.4,368.629,M,49.481,M,3.42,0195*73
$GPVTG,207.3063,T,207.3063,M,1.753,N,3.248,K,D*2B
$RDENS,327,4465025,PC
$GPGGA,122412.00,4612.1830190,N,00607.5721952,E,4,08,2.4,368.706,M,49.481,M,3.82,0195*7A
$GPVTG,203.8930,T,203.8930,M,1.733,N,3.211,K,D*21
$GPVTG,202.1193,T,202.1193,M,1.802,N,3.340,K,D*29
$GPGGA,122412.40,4612.1828332,N,00607.5720766,E,4,08,2.4,368.701,M,49.481,M,4.22,0195*7F
$GPVTG,203.2611,T,203.2611,M,1.815,N,3.364,K,D*29
$GPGGA,122412.60,4612.1827417,N,00607.5720338,E,4,08,2.4,368.752,M,49.481,M,4.42,0195*7D
$RDENS,328,4465112,PC
$GPVTG,201.1839,T,201.1839,M,1.860,N,3.447,K,D*2D
$GPGGA,122413.00,4612.1825450,N,00607.5719238,E,4,08,2.4,368.712,M,49.481,M,4.82,0195*78
$GPVTG,200.4342,T,200.4342,M,1.875,N,3.474,K,D*29
$GPGGA,122413.20,4612.1824497,N,00607.5718712,E,4,08,2.4,368.713,M,49.481,M,5.02,0195*74
$GPVTG,200.5302,T,200.5302,M,1.947,N,3.608,K,D*20
$GPGGA,122413.60,4612.1822426,N,00607.5717626,E,4,08,2.4,368.719,M,49.481,M,5.42,0195*7B
$RDENS,329,4465199,PC
$GPVTG,199.8732,T,199.8732,M,2.014,N,3.732,K,D*24
$GPGGA,122413.80,4612.1821415,N,00607.5717122,E,4,08,2.4,368.737,M,49.481,M,5.62,0195*7B
$GPVTG,199.7178,T,199.7178,M,2.011,N,3.727,K,D*25
$GPGGA,122414.20,4612.1819316,N,00607.5715950,E,4,08,2.4,368.720,M,49.481,M,6.02,0195*75
$GPVTG,199.5356,T,199.5356,M,2.010,N,3.724,K,D*27
$GPGGA,122414.40,4612.1818256,N,00607.5715342,E,4,08,2.4,368.690,M,49.481,M,6.22,0195*76
$RDENS,330,4465286,PC
$GPVTG,198.9147,T,198.9147,M,2.015,N,3.733,K,D*24
$GPGGA,122414.80,4612.1816119,N,00607.5714377,E,4,08,2.4,368.723,M,49.481,M,6.62,0195*76
$GPVTG,199.4511,T,199.4511,M,2.057,N,3.813,K,D*2F
$GPGGA,122415.00,4612.1815064,N,00607.5713921,E,4,08,2.4,368.753,M,49.481,M,6.82,0195*70
$GPVTG,198.3295,T,198.3295,M,2.025,N,3.752,K,D*20
$RDENS,331,4465373,PC
$GPGGA,122415.40,4612.1812902,N,00607.5712764,E,4,08,2.4,368.692,M,49.481,M,7.22,0195*73
$GPVTG,198.3215,T,198.3215,M,2.052,N,3.803,K,D*2B
$GPGGA,122415.60,4612.1811833,N,00607.5712272,E,4,08,2.4,368.710,M,49.481,M,7.42,0195*7E
$GPVTG,198.5682,T,198.5682,M,2.051,N,3.800,K,D*2B
$GPGGA,122416.00,4612.1809648,N,00607.5711357,E,2,08,2.4,368.709,M,49.481,M,7.82,0195*77
$GPVTG,196.6673,T,196.6673,M,2.020,N,3.743,K,D*25
$RDENS,332,4465460,PC
$GPGGA,122416.20,4612.1808574,N,00607.5710916,E,2,08,2.4,368.716,M,49.481,M,8.02,0195*7F
$GPVTG,197.7765,T,197.7765,M,2.027,N,3.757,K,D*27
$GPGGA,122416.60,4612.1806461,N,00607.5710067,E,2,08,2.4,368.759,M,49.481,M,8.42,0195*70
$GPVTG,197.4253,T,197.4253,M,1.959,N,3.631,K,D*25
$GPGGA,122416.80,4612.1805381,N,00607.5709460,E,2,08,2.4,368.717,M,49.481,M,8.62,0195*77
$GPVTG,197.7302,T,197.7302,M,1.949,N,3.612,K,D*25
$RDENS,333,4465548,PC
$GPGGA,122417.00,4612.1804356,N,00607.5709108,E,2,08,2.4,368.758,M,49.481,M,8.82,0195*7B
$GPVTG,196.6674,T,196.6674,M,1.932,N,3.580,K,D*21
$GPGGA,122417.40,4612.1802352,N,00607.5708321,E,2,08,2.4,368.805,M,49.481,M,9.22,0195*79
$GPVTG,197.2348,T,197.2348,M,1.881,N,3.485,K,D*2C
$GPGGA,122417.60,4612.1801340,N,00607.5707927,E,2,08,2.4,368.820,M,49.481,M,9.42,0195*79
$GPVTG,196.8755,T,196.8755,M,1.905,N,3.530,K,D*2E
$RDENS,334,4465636,PC
$GPGGA,122418.00,4612.1799326,N,00607.5706984,E,2,08,2.4,368.803,M,49.481,M,9.82,0195*7B
$GPVTG,198.7955,T,198.7955,M,1.859,N,3.446,K,D*26
$GPGGA,122418.20,4612.1798326,N,00607.5706412,E,2,08,2.4,368.741,M,49.481,M,10.02,0195*43
$GPVTG,196.8687,T,196.8687,M,1.857,N,3.441,K,D*2F
$GPGGA,122418.60,4612.1796348,N,00607.5705377,E,2,08,2.4,368.694,M,49.481,M,10.42,0195*4B
$GPVTG,200.6104,T,200.6104,M,1.847,N,3.422,K,D*2B
$RDENS,335,4465724,PC
$GPGGA,122418.80,4612.1795418,N,00607.5705113,E,2,08,2.4,368.758,M,49.481,M,10.62,0195*47
$GPVTG,197.9506,T,197.9506,M,1.691,N,3.133,K,D*2B
$GPGGA,122419.20,4612.1793637,N,00607.5704367,E,2,08,2.4,368.774,M,49.481,M,11.02,0195*4C
$GPVTG,197.3243,T,197.3243,M,1.684,N,3.120,K,D*2D
$GPGGA,122419.40,4612.1792801,N,00607.5704028,E,2,08,2.4,368.808,M,49.481,M,0.12,0195*7D
$GPVTG,198.2608,T,198.2608,M,1.643,N,3.044,K,D*25
$RDENS,336,4465812,PC
$GPGGA,122419.80,4612.1791076,N,00607.5702671,E,4,10,1.0,368.636,M,49.481,M,0.28,0195*74
$GPVTG,197.7618,T,197.7618,M,1.591,N,2.948,K,D*2D
$GPGGA,122420.00,4612.1790244,N,00607.5702284,E,4,10,1.0,368.643,M,49.481,M,0.06,0195*74
$GPVTG,197.9687,T,197.9687,M,1.495,N,2.770,K,D*2D
$GPGGA,122420.40,4612.1788654,N,00607.5701512,E,4,10,1.0,368.645,M,49.481,M,0.46,0195*75
$GPVTG,199.4560,T,199.4560,M,1.521,N,2.819,K,D*23
$RDENS,337,4465900,PC
$GPGGA,122420.60,4612.1787902,N,00607.5701210,E,4,10,1.0,368.655,M,49.481,M,0.66,0195*72
$GPVTG,194.3536,T,194.3536,M,1.392,N,2.579,K,D*26
$GPGGA,122421.00,4612.1786434,N,00607.5700653,E,4,10,1.0,368.663,M,49.481,M,1.06,0195*7C
$GPVTG,195.1548,T,195.1548,M,1.349,N,2.500,K,D*2E
$GPGGA,122421.20,4612.1785759,N,00607.5700413,E,4,10,1.0,368.665,M,49.481,M,1.26,0195*77
$GPVTG,193.3662,T,193.3662,M,1.291,N,2.392,K,D*27
$RDENS,338,4465988,PC
$GPGGA,122421.60,4612.1784384,N,00607.5699934,E,4,10,1.0,368.663,M,49.481,M,1.66,0195*7D
$GPVTG,194.1291,T,194.1291,M,1.247,N,2.311,K,D*27
$GPGGA,122421.80,4612.1783716,N,00607.5699702,E,4,10,1.0,368.638,M,49.481,M,0.01,0195*7E
$GPVTG,194.0727,T,194.0727,M,1.184,N,2.195,K,D*25
$GPGGA,122422.20,4612.1782466,N,00607.5699247,E,4,10,1.0,368.624,M,49.481,M,0.41,0195*7F
$GPVTG,194.0151,T,194.0151,M,1.140,N,2.113,K,D*23
$RDENS,339,4466076,PC
$GPGGA,122422.40,4612.1781931,N,00607.5699103,E,4,10,1.0,368.646,M,49.481,M,0.61,0195*70
$GPVTG,194.4589,T,194.4589,M,1.065,N,1.974,K,D*2F
$GPGGA,122422.60,4612.1781358,N,00607.5698889,E,4,10,1.0,368.639,M,49.481,M,0.81,0195*7B
$GPVTG,188.7708,T,188.7708,M,0.950,N,1.761,K,D*2B
$GPGGA,122423.00,4612.1780323,N,00607.5698626,E,4,10,1.0,368.650,M,49.481,M,0.10,0195*7D
$GPVTG,190.8614,T,190.8614,M,0.963,N,1.785,K,D*21
$RDENS,340,4466163,PC
$GPGGA,122423.20,4612.1779853,N,00607.5698542,E,4,10,1.0,368.664,M,49.481,M,0.10,0195*73
$GPVTG,188.3603,T,188.3603,M,0.939,N,1.741,K,D*26
$GPGGA,122423.60,4612.1778814,N,00607.5698313,E,4,10,1.0,368.643,M,49.481,M,0.50,0195*76
$GPVTG,189.0810,T,189.0810,M,0.959,N,1.778,K,D*2A
$GPGGA,122423.80,4612.1778281,N,00607.5698189,E,4,10,1.0,368.636,M,49.481,M,0.70,0195*7F
$GPVTG,182.0759,T,182.0759,M,0.719,N,1.332,K,D*2A
$RDENS,341,4466251,PC
$GPGGA,122424.20,4612.1777370,N,00607.5698090,E,4,10,1.0,368.651,M,49.481,M,1.10,0195*7D
$GPVTG,185.9513,T,185.9513,M,0.948,N,1.756,K,D*26
$GPGGA,122424.40,4612.1776928,N,00607.5698014,E,4,10,1.0,368.644,M,49.481,M,1.30,0195*77
$GPVTG,188.1084,T,188.1084,M,0.961,N,1.782,K,D*24
$GPGGA,122424.80,4612.1775963,N,00607.5697875,E,4,10,1.0,368.648,M,49.481,M,1.70,0195*7F
$GPVTG,183.0722,T,183.0722,M,0.781,N,1.448,K,D*21
$RDENS,342,4466340,PC
$GPGGA,122425.00,4612.1775529,N,00607.5697825,E,4,10,1.0,368.648,M,49.481,M,0.09,0195*7E
$GPVTG,187.2113,T,187.2113,M,0.887,N,1.645,K,D*27
$GPGGA,122425.40,4612.1774558,N,00607.5697689,E,4,10,1.0,368.641,M,49.481,M,0.31,0195*77
$GPVTG,183.5884,T,183.5884,M,0.875,N,1.622,K,D*2B
$GPGGA,122425.60,4612.1774100,N,00607.5697673,E,4,10,1.0,368.663,M,49.481,M,0.00,0195*7B
$GPVTG,182.5590,T,182.5590,M,0.856,N,1.586,K,D*27
$RDENS,343,4466428,PC
$GPGGA,122426.00,4612.1773123,N,00607.5697586,E,4,10,1.0,368.662,M,49.481,M,0.15,0195*74
$GPVTG,184.2343,T,184.2343,M,0.909,N,1.685,K,D*2C
$GPGGA,122426.20,4612.1772619,N,00607.5697553,E,4,10,1.0,368.662,M,49.481,M,0.35,0195*73
$GPVTG,183.5538,T,183.5538,M,0.908,N,1.682,K,D*2A
$GPGGA,122426.40,4612.1772119,N,00607.5697506,E,4,10,1.0,368.645,M,49.481,M,0.55,0195*71
$GPVTG,180.0815,T,180.0815,M,0.906,N,1.679,K,D*20
$RDENS,344,4466515,PC
$GPGGA,122426.80,4612.1771076,N,00607.5697480,E,4,10,1.0,368.647,M,49.481,M,0.95,0195*77
$GPVTG,181.8831,T,181.8831,M,0.958,N,1.775,K,D*26
$GPGGA,122427.00,4612.1770547,N,00607.5697460,E,4,10,1.0,368.629,M,49.481,M,1.15,0195*77
$GPVTG,182.2166,T,182.2166,M,0.970,N,1.797,K,D*20
$GPGGA,122427.40,4612.1769486,N,00607.5697426,E,4,10,1.0,368.632,M,49.481,M,1.55,0195*7B
$GPVTG,180.0865,T,180.0865,M,0.945,N,1.752,K,D*2F
$RDENS,345,4466604,PC
$GPGGA,122427.60,4612.1768902,N,00607.5697385,E,4,10,1.0,368.634,M,49.481,M,1.75,0195*73
$GPVTG,179.9918,T,179.9918,M,1.035,N,1.918,K,D*20
$GPGGA,122428.00,4612.1767742,N,00607.5697372,E,4,10,1.0,368.632,M,49.481,M,2.15,0195*74
$GPVTG,180.8585,T,180.8585,M,1.043,N,1.933,K,D*28
$GPGGA,122428.20,4612.1767168,N,00607.5697351,E,4,10,1.0,368.631,M,49.481,M,2.35,0195*78
$GPVTG,182.3807,T,182.3807,M,0.981,N,1.819,K,D*27
$RDENS,346,4466691,PC
$GPGGA,122428.60,4612.1766066,N,00607.5697286,E,4,10,1.0,368.622,M,49.481,M,0.11,0195*7F
$GPVTG,182.9337,T,182.9337,M,0.995,N,1.844,K,D*2A
$GPGGA,122428.80,4612.1765474,N,00607.5697269,E,4,10,1.0,368.625,M,49.481,M,0.31,0195*71
$GPVTG,181.8027,T,181.8027,M,0.991,N,1.837,K,D*2A
$GPGGA,122429.20,4612.1764359,N,00607.5697209,E,4,10,1.0,368.633,M,49.481,M,0.71,0195*76
$GPVTG,182.1814,T,182.1814,M,1.026,N,1.901,K,D*2A
$RDENS,347,4466779,PC
$GPGGA,122429.40,4612.1763766,N,00607.5697149,E,4,10,1.0,368.625,M,49.481,M,0.91,0195*71
$GPVTG,183.2465,T,183.2465,M,1.030,N,1.910,K,D*2D
$GPGGA,122429.80,4612.1762597,N,00607.5697091,E,4,10,1.0,368.634,M,49.481,M,1.31,0195*7F
$GPVTG,180.7005,T,180.7005,M,1.067,N,1.978,K,D*21
$GPGGA,122430.00,4612.1762050,N,00607.5697072,E,4,10,1.0,368.642,M,49.481,M,1.51,0195*7B
$GPVTG,181.1307,T,181.1307,M,1.021,N,1.893,K,D*27
$RDENS,348,4466868,PC
$GPGGA,122430.40,4612.1760912,N,00607.5697039,E,4,10,1.0,368.643,M,49.481,M,1.91,0195*70
$GPVTG,180.9463,T,180.9463,M,1.022,N,1.895,K,D*22
$GPGGA,122430.60,4612.1760355,N,00607.5697002,E,4,10,1.0,368.648,M,49.481,M,0.15,0195*75
$GPVTG,181.3438,T,181.3438,M,1.010,N,1.873,K,D*2B
$GPGGA,122431.00,4612.1759217,N,00607.5696956,E,4,10,1.0,368.658,M,49.481,M,0.01,0195*72
$GPVTG,181.4513,T,181.4513,M,0.997,N,1.847,K,D*2B
$RDENS,349,4466956,PC
$GPGGA,122431.20,4612.1758668,N,00607.5696943,E,4,10,1.0,368.651,M,49.481,M,0.19,0195*79
$GPVTG,179.1528,T,179.1528,M,0.999,N,1.851,K,D*22
$GPGGA,122431.40,4612.1758107,N,00607.5696956,E,4,10,1.0,368.649,M,49.481,M,0.39,0195*7E
$GPVTG,181.1740,T,181.1740,M,1.059,N,1.962,K,D*27
$GPGGA,122431.80,4612.1756994,N,00607.5696978,E,4,10,1.0,368.657,M,49.481,M,0.79,0195*79
$GPVTG,177.0700,T,177.0700,M,0.953,N,1.766,K,D*2F
$RDENS,350,4467044,PC
$GPGGA,122432.00,4612.1756434,N,00607.5696980,E,4,10,1.0,368.642,M,49.481,M,0.99,0195*78
$GPVTG,176.2292,T,176.2292,M,1.026,N,1.902,K,D*29
$GPGGA,122432.40,4612.1755339,N,00607.5697101,E,4,10,1.0,368.640,M,49.481,M,1.39,0195*7C
$GPVTG,174.9068,T,174.9068,M,0.958,N,1.776,K,D*25
$GPGGA,122432.60,4612.1754808,N,00607.5697201,E,4,10,1.0,368.633,M,49.481,M,1.59,0195*77
$GPVTG,173.8011,T,173.8011,M,1.020,N,1.890,K,D*25
$RDENS,351,4467132,PC
$GPGGA,122433.00,4612.1753722,N,00607.5697406,E,4,10,1.0,368.639,M,49.481,M,1.99,0195*77
$GPVTG,171.2313,T,171.2313,M,0.957,N,1.774,K,D*28
$GPGGA,122433.20,4612.1753170,N,00607.5697497,E,4,10,1.0,368.637,M,49.481,M,2.19,0195*79
$GPVTG,170.4181,T,170.4181,M,0.953,N,1.766,K,D*2F
$GPGGA,122433.60,4612.1752120,N,00607.5697747,E,4,10,1.0,368.644,M,49.481,M,2.59,0195*77
$GPVTG,170.8626,T,170.8626,M,0.997,N,1.849,K,D*25
$RDENS,352,4467219,PC
$GPGGA,122433.80,4612.1751575,N,00607.5697877,E,4,10,1.0,368.650,M,49.481,M,2.79,0195*75
$GPVTG,168.2389,T,168.2389,M,0.957,N,1.773,K,D*2F
$GPGGA,122434.20,4612.1750512,N,00607.5698147,E,4,10,1.0,368.640,M,49.481,M,3.19,0195*7B
$GPVTG,171.7809,T,171.7809,M,0.987,N,1.829,K,D*22
$GPVTG,166.5082,T,166.5082,M,0.996,N,1.846,K,D*2B
$GPGGA,122434.60,4612.1749436,N,00607.5698489,E,4,10,1.0,368.644,M,49.481,M,3.59,0195*77
$RDENS,353,4467307,PC
$GPVTG,167.8290,T,167.8290,M,0.973,N,1.803,K,D*21
$GPGGA,122434.80,4612.1748907,N,00607.5698653,E,4,10,1.0,368.641,M,49.481,M,3.79,0195*75
$GPVTG,165.4490,T,165.4490,M,0.980,N,1.816,K,D*29
$GPGGA,122435.20,4612.1747832,N,00607.5699013,E,4,10,1.0,368.642,M,49.481,M,4.19,0195*77
$GPVTG,169.1450,T,169.1450,M,1.033,N,1.914,K,D*2A
$GPGGA,122435.40,4612.1747285,N,00607.5699193,E,4,10,1.0,368.639,M,49.481,M,4.39,0195*70
$RDENS,354,4467395,PC
$GPVTG,166.4027,T,166.4027,M,1.048,N,1.943,K,D*24
$GPGGA,122435.80,4612.1746139,N,00607.5699584,E,4,10,1.0,368.625,M,49.481,M,4.79,0195*72
$GPVTG,167.0584,T,167.0584,M,1.086,N,2.013,K,D*29
$GPGGA,122436.00,4612.1745563,N,00607.5699788,E,4,10,1.0,368.636,M,49.481,M,4.99,0195*73
$GPVTG,169.4986,T,169.4986,M,1.097,N,2.034,K,D*2C
$GPGGA,122436.40,4612.1744382,N,00607.5700178,E,4,10,1.0,368.631,M,49.481,M,5.39,0195*7B
$RDENS,355,4467483,PC
$GPVTG,164.7222,T,164.7222,M,1.086,N,2.013,K,D*29
$GPGGA,122436.60,4612.1743776,N,00607.5700399,E,4,10,1.0,368.649,M,49.481,M,5.59,0195*75
$GPVTG,163.4566,T,163.4566,M,1.132,N,2.099,K,D*25
$GPGGA,122437.00,4612.1742574,N,00607.5700841,E,4,10,1.0,368.644,M,49.481,M,5.99,0195*7C
$GPVTG,168.1125,T,168.1125,M,1.112,N,2.060,K,D*21
$GPGGA,122437.20,4612.1741947,N,00607.5701033,E,4,10,1.0,368.655,M,49.481,M,6.19,0195*76
$RDENS,356,4467571,PC
$GPVTG,167.0874,T,167.0874,M,1.142,N,2.117,K,D*25
$GPGGA,122437.60,4612.1740699,N,00607.5701404,E,4,10,1.0,368.649,M,49.481,M,6.59,0195*76
$GPVTG,169.7375,T,169.7375,M,1.165,N,2.158,K,D*2B
$GPGGA,122437.80,4612.1740029,N,00607.5701549,E,4,10,1.0,368.648,M,49.481,M,6.79,0195*7E
$GPVTG,170.6783,T,170.6783,M,1.195,N,2.215,K,D*2E
$GPGGA,122438.20,4612.1738696,N,00607.5701793,E,4,10,1.0,368.635,M,49.481,M,7.19,0195*7E
$RDENS,357,4467659,PC
$GPVTG,174.8571,T,174.8571,M,1.230,N,2.280,K,D*2E
$GPGGA,122438.40,4612.1738022,N,00607.5701949,E,4,10,1.0,368.641,M,49.481,M,7.39,0195*79
$GPVTG,172.5120,T,172.5120,M,1.283,N,2.378,K,D*20
$GPGGA,122438.60,4612.1737320,N,00607.5702082,E,4,10,1.0,368.654,M,49.481,M,7.59,0195*7A
$GPVTG,174.5637,T,174.5637,M,1.302,N,2.412,K,D*23
$GPGGA,122439.00,4612.1735904,N,00607.5702242,E,4,10,1.0,368.650,M,49.481,M,7.99,0195*75
$RDENS,358,4467747,PC
$GPVTG,176.4220,T,176.4220,M,1.279,N,2.370,K,D*2D
$GPGGA,122439.20,4612.1735152,N,00607.5702333,E,4,10,1.0,368.652,M,49.481,M,0.06,0195*78
$GPVTG,175.7555,T,175.7555,M,1.284,N,2.379,K,D*26
$GPGGA,122439.60,4612.1733708,N,00607.5702454,E,4,10,1.0,368.638,M,49.481,M,0.34,0195*78
$GPVTG,176.7350,T,176.7350,M,1.314,N,2.436,K,D*22
$GPGGA,122439.80,4612.1732912,N,00607.5702570,E,4,10,1.0,368.653,M,49.481,M,0.07,0195*78
$RDENS,359,4467835,PC
$GPVTG,176.9493,T,176.9493,M,1.312,N,2.432,K,D*20
$GPGGA,122440.20,4612.1731391,N,00607.5702632,E,4,10,1.0,368.646,M,49.481,M,0.47,0195*7B
$GPVTG,179.4694,T,179.4694,M,1.428,N,2.647,K,D*2E
$GPGGA,122440.40,4612.1730586,N,00607.5702668,E,4,10,1.0,368.661,M,49.481,M,0.67,0195*74
$GPVTG,175.1165,T,175.1165,M,1.395,N,2.586,K,D*21
$GPGGA,122440.80,4612.1729030,N,00607.5702750,E,4,10,1.0,368.652,M,49.481,M,0.11,0195*73
$RDENS,360,4467923,PC
$GPVTG,180.5390,T,180.5390,M,1.455,N,2.697,K,D*29
$GPGGA,122441.00,4612.1728208,N,00607.5702756,E,4,10,1.0,368.640,M,49.481,M,0.31,0195*75
$GPVTG,180.6490,T,180.6490,M,1.400,N,2.595,K,D*28
$GPGGA,122441.40,4612.1726597,N,00607.5702753,E,4,10,1.0,368.629,M,49.481,M,0.71,0195*70
$GPVTG,179.1958,T,179.1958,M,1.470,N,2.723,K,D*20
$GPGGA,122441.60,4612.1725798,N,00607.5702788,E,4,10,1.0,368.632,M,49.481,M,0.91,0195*7E
$RDENS,361,4468011,PC
$GPVTG,181.6671,T,181.6671,M,1.466,N,2.718,K,D*2F
$GPGGA,122442.00,4612.1724165,N,00607.5702726,E,4,10,1.0,368.632,M,49.481,M,1.31,0195*71
$GPVTG,181.7573,T,181.7573,M,1.504,N,2.788,K,D*23
$GPGGA,122442.20,4612.1723355,N,00607.5702716,E,4,10,1.0,368.618,M,49.481,M,1.51,0195*78
$GPVTG,179.5304,T,179.5304,M,1.476,N,2.735,K,D*21
$GPGGA,122442.60,4612.1721702,N,00607.5702706,E,4,10,1.0,368.622,M,49.481,M,1.91,0195*7C
$RDENS,362,4468099,PC
$GPVTG,180.8339,T,180.8339,M,1.491,N,2.763,K,D*2B
$GPGGA,122442.80,4612.1720857,N,00607.5702668,E,4,10,1.0,368.629,M,49.481,M,0.15,0195*73
$GPVTG,180.4048,T,180.4048,M,1.518,N,2.813,K,D*23
$GPGGA,122443.20,4612.1719177,N,00607.5702645,E,4,10,1.0,368.639,M,49.481,M,0.55,0195*73
$GPVTG,180.3559,T,180.3559,M,1.478,N,2.739,K,D*23
$GPGGA,122443.40,4612.1718331,N,00607.5702694,E,4,10,1.0,368.656,M,49.480,M,0.75,0195*72
$RDENS,363,4468187,PC
$GPVTG,180.2255,T,180.2255,M,1.503,N,2.785,K,D*29
$GPGGA,122443.60,4612.1717516,N,00607.5702698,E,4,10,1.0,368.645,M,49.480,M,0.95,0195*7C
$GPVTG,178.9790,T,178.9790,M,1.511,N,2.800,K,D*28
$GPGGA,122444.00,4612.1715829,N,00607.5702734,E,4,10,1.0,368.632,M,49.480,M,1.35,0195*72
$GPVTG,178.5163,T,178.5163,M,1.475,N,2.734,K,D*23
$GPGGA,122444.20,4612.1715000,N,00607.5702747,E,4,10,1.0,368.618,M,49.480,M,1.55,0195*79
$RDENS,364,4468275,PC
$GPVTG,177.9623,T,177.9623,M,1.524,N,2.824,K,D*28
$GPGGA,122444.60,4612.1713316,N,00607.5702879,E,4,10,1.0,368.629,M,49.480,M,1.95,0195*73
$GPVTG,175.7757,T,175.7757,M,1.498,N,2.776,K,D*26
$GPGGA,122444.80,4612.1712489,N,00607.5702850,E,4,10,1.0,368.629,M,49.480,M,0.03,0195*78
$GPVTG,175.3597,T,175.3597,M,1.542,N,2.857,K,D*2C
$GPGGA,122445.20,4612.1710795,N,00607.5702966,E,4,10,1.0,368.635,M,49.480,M,0.43,0195*72
$RDENS,365,4468363,PC
$GPVTG,179.6953,T,179.6953,M,1.509,N,2.796,K,D*21
$GPGGA,122445.40,4612.1709991,N,00607.5703043,E,4,10,1.0,368.626,M,49.480,M,0.63,0195*79
$GPVTG,177.8987,T,177.8987,M,1.489,N,2.759,K,D*2B
$GPGGA,122445.80,4612.1708315,N,00607.5703109,E,4,10,1.0,368.612,M,49.480,M,1.03,0195*7D
$GPVTG,179.0458,T,179.0458,M,1.515,N,2.809,K,D*25
$GPGGA,122446.00,4612.1707461,N,00607.5703212,E,4,10,1.0,368.623,M,49.480,M,1.23,0195*74
$RDENS,366,4468451,PC
$GPVTG,177.8380,T,177.8380,M,1.524,N,2.823,K,D*2F
$GPGGA,122446.40,4612.1705749,N,00607.5703303,E,4,10,1.0,368.635,M,49.480,M,1.63,0195*79
$GPVTG,177.8815,T,177.8815,M,1.530,N,2.835,K,D*2D
$GPGGA,122446.60,4612.1704879,N,00607.5703379,E,4,10,1.0,368.639,M,49.480,M,1.83,0195*79
$GPVTG,179.4078,T,179.4078,M,1.534,N,2.843,K,D*28
$GPGGA,122447.00,4612.1703144,N,00607.5703478,E,4,10,1.0,368.642,M,49.480,M,2.23,0195*7D
$RDENS,367,4468539,PC
$GPVTG,176.3097,T,176.3097,M,1.578,N,2.925,K,D*21
$GPGGA,122447.20,4612.1702300,N,00607.5703520,E,4,10,1.0,368.640,M,49.480,M,2.43,0195*74
$GPVTG,178.2491,T,178.2491,M,1.535,N,2.845,K,D*2F
$GPGGA,122447.60,4612.1700591,N,00607.5703574,E,4,10,1.0,368.655,M,49.480,M,2.83,0195*75
$GPVTG,179.5090,T,179.5090,M,1.549,N,2.871,K,D*23
$GPGGA,122447.80,4612.1699733,N,00607.5703536,E,4,10,1.0,368.640,M,49.480,M,0.07,0195*7C
$RDENS,368,4468628,PC
$GPVTG,180.6993,T,180.6993,M,1.548,N,2.869,K,D*2B
$GPGGA,122448.00,4612.1698870,N,00607.5703525,E,4,10,1.0,368.639,M,49.480,M,0.27,0195*7C
$GPVTG,179.4889,T,179.4889,M,1.567,N,2.904,K,D*2C
$GPGGA,122448.40,4612.1697149,N,00607.5703488,E,4,10,1.0,368.624,M,49.480,M,0.67,0195*7A
$GPVTG,182.5283,T,182.5283,M,1.554,N,2.881,K,D*20
$GPGGA,122448.60,4612.1696293,N,00607.5703462,E,4,10,1.0,368.631,M,49.480,M,0.87,0195*73
$RDENS,369,4468716,PC
$GPVTG,179.5883,T,179.5883,M,1.569,N,2.909,K,D*2F
$GPGGA,122449.00,4612.1694589,N,00607.5703465,E,4,10,1.0,368.634,M,49.480,M,1.27,0195*73
$GPVTG,180.6400,T,180.6400,M,1.498,N,2.777,K,D*27
$GPGGA,122449.20,4612.1693714,N,00607.5703387,E,4,10,1.0,368.625,M,49.480,M,0.04,0195*7B
$GPVTG,179.5604,T,179.5604,M,1.532,N,2.838,K,D*22
$GPGGA,122449.60,4612.1692016,N,00607.5703355,E,4,10,1.0,368.634,M,49.480,M,0.44,0195*70
$RDENS,370,4468804,PC
$GPVTG,181.9789,T,181.9789,M,1.519,N,2.815,K,D*24
$GPGGA,122449.80,4612.1691203,N,00607.5703315,E,4,10,1.0,368.629,M,49.480,M,0.64,0195*71
$GPVTG,183.3505,T,183.3505,M,1.521,N,2.819,K,D*23
$GPGGA,122450.20,4612.1689528,N,00607.5703219,E,4,10,1.0,368.624,M,49.480,M,1.04,0195*73
$GPVTG,181.5814,T,181.5814,M,1.506,N,2.791,K,D*29
$GPGGA,122450.40,4612.1688677,N,00607.5703180,E,4,10,1.0,368.630,M,49.480,M,1.24,0195*79
$RDENS,371,4468892,PC
$GPVTG,182.5238,T,182.5238,M,1.505,N,2.790,K,D*2B
$GPGGA,122450.80,4612.1687057,N,00607.5703123,E,4,10,1.0,368.634,M,49.480,M,1.64,0195*77
$GPVTG,180.3087,T,180.3087,M,1.419,N,2.630,K,D*2C
$GPGGA,122451.00,4612.1686241,N,00607.5703086,E,4,10,1.0,368.628,M,49.480,M,1.84,0195*77
$GPVTG,181.5227,T,181.5227,M,1.493,N,2.767,K,D*2D
$GPGGA,122451.40,4612.1684619,N,00607.5703015,E,4,10,1.0,368.624,M,49.480,M,2.24,0195*77
$RDENS,372,4468980,PC
$GPVTG,182.7543,T,182.7543,M,1.497,N,2.774,K,D*2B
$GPGGA,122451.60,4612.1683794,N,00607.5703006,E,4,10,1.0,368.629,M,49.480,M,2.44,0195*7F
$GPVTG,180.4776,T,180.4776,M,1.461,N,2.708,K,D*29
$GPGGA,122452.00,4612.1682169,N,00607.5702976,E,4,10,1.0,368.629,M,49.480,M,2.84,0195*7C
$GPVTG,181.1384,T,181.1384,M,1.457,N,2.700,K,D*24
$GPGGA,122452.20,4612.1681352,N,00607.5702945,E,4,10,1.0,368.624,M,49.480,M,3.04,0195*73
$RDENS,373,4469068,PC
$GPVTG,177.5884,T,177.5884,M,1.486,N,2.754,K,D*29
$GPGGA,122452.60,4612.1679747,N,00607.5702939,E,4,10,1.0,368.613,M,49.480,M,3.44,0195*7B
$GPVTG,183.2009,T,183.2009,M,1.407,N,2.607,K,D*27
$GPGGA,122452.80,4612.1678934,N,00607.5702967,E,4,10,1.0,368.619,M,49.480,M,3.64,0195*7D
$GPVTG,180.1116,T,180.1116,M,1.411,N,2.615,K,D*23
$GPGGA,122453.00,4612.1678154,N,00607.5702966,E,4,10,1.0,368.622,M,49.480,M,3.84,0195*7D
$RDENS,374,4469156,PC
$GPVTG,180.6525,T,180.6525,M,1.430,N,2.650,K,D*21
$GPGGA,122453.40,4612.1676571,N,00607.5702972,E,4,10,1.0,368.643,M,49.480,M,4.24,0195*7B
$GPVTG,178.6004,T,178.6004,M,1.381,N,2.559,K,D*26
$GPGGA,122453.60,4612.1675795,N,00607.5702975,E,4,10,1.0,368.640,M,49.480,M,4.44,0195*70
$GPVTG,178.7201,T,178.7201,M,1.388,N,2.572,K,D*26
$GPGGA,122454.00,4612.1674275,N,00607.5703028,E,4,10,1.0,368.629,M,49.480,M,4.84,0195*78
$RDENS,375,4469244,PC
$GPVTG,179.4595,T,179.4595,M,1.400,N,2.595,K,D*28
$GPGGA,122454.20,4612.1673519,N,00607.5703095,E,4,10,1.0,368.634,M,49.480,M,5.04,0195*73
$GPVTG,181.3761,T,181.3761,M,1.364,N,2.527,K,D*24
$GPGGA,122454.60,4612.1672005,N,00607.5703081,E,4,10,1.0,368.611,M,49.480,M,5.44,0195*78
$GPVTG,179.7678,T,179.7678,M,1.383,N,2.563,K,D*2D
$GPGGA,122454.80,4612.1671242,N,00607.5703119,E,4,10,1.0,368.626,M,49.480,M,5.64,0195*72
$RDENS,376,4469332,PC
$GPVTG,178.0832,T,178.0832,M,1.372,N,2.543,K,D*21
$GPGGA,122455.20,4612.1669732,N,00607.5703197,E,4,10,1.0,368.656,M,49.480,M,6.04,0195*76
$GPVTG,177.9340,T,177.9340,M,1.362,N,2.524,K,D*21
$GPGGA,122455.40,4612.1668981,N,00607.5703205,E,4,10,1.0,368.657,M,49.480,M,6.24,0195*7C
$GPVTG,177.1526,T,177.1526,M,1.365,N,2.530,K,D*23
$GPGGA,122455.80,4612.1667515,N,00607.5703278,E,4,10,1.0,368.656,M,49.480,M,6.64,0195*71
$RDENS,377,4469420,PC
$GPVTG,179.2740,T,179.2740,M,1.299,N,2.408,K,D*2B
$GPGGA,122456.00,4612.1666786,N,00607.5703317,E,4,10,1.0,368.660,M,49.480,M,6.84,0195*70
$GPVTG,177.0962,T,177.0962,M,1.322,N,2.450,K,D*27
$GPGGA,122456.40,4612.1665334,N,00607.5703392,E,4,10,1.0,368.648,M,49.480,M,7.24,0195*76
$GPVTG,178.8682,T,178.8682,M,1.296,N,2.402,K,D*2E
$GPVTG,177.0127,T,177.0127,M,1.286,N,2.384,K,D*26
$RDENS,378,4469508,PC
$GPGGA,122456.80,4612.1663905,N,00607.5703499,E,4,10,1.0,368.638,M,49.480,M,7.64,0195*7B
$GPVTG,176.8021,T,176.8021,M,1.277,N,2.366,K,D*24
$GPGGA,122457.00,4612.1663186,N,00607.5703549,E,4,10,1.0,368.641,M,49.480,M,7.84,0195*7D
$GPVTG,178.0897,T,178.0897,M,1.297,N,2.403,K,D*2E
$GPGGA,122457.40,4612.1661778,N,00607.5703683,E,4,10,1.0,368.643,M,49.480,M,8.24,0195*7E
$GPVTG,174.5940,T,174.5940,M,1.245,N,2.308,K,D*2D
$RDENS,379,4469596,PC
$GPGGA,122457.60,4612.1661104,N,00607.5703683,E,4,10,1.0,368.646,M,49.480,M,8.44,0195*72
$GPVTG,176.2892,T,176.2892,M,1.262,N,2.339,K,D*2A
$GPGGA,122458.00,4612.1659715,N,00607.5703817,E,4,10,1.0,368.645,M,49.480,M,8.84,0195*7A
$GPVTG,176.2384,T,176.2384,M,1.264,N,2.343,K,D*21
$GPGGA,122458.20,4612.1659030,N,00607.5703913,E,4,10,1.0,368.641,M,49.480,M,9.04,0195*70
$GPVTG,177.2714,T,177.2714,M,1.188,N,2.202,K,D*24
$RDENS,380,4469684,PC
$GPGGA,122458.60,4612.1657671,N,00607.5704063,E,4,10,1.0,368.648,M,49.480,M,9.44,0195*7D
$GPVTG,173.8104,T,173.8104,M,1.255,N,2.325,K,D*23
$GPGGA,122458.80,4612.1657069,N,00607.5704112,E,4,10,1.0,368.634,M,49.480,M,9.64,0195*72
$GPVTG,175.1708,T,175.1708,M,1.216,N,2.253,K,D*24
$GPGGA,122459.20,4612.1655763,N,00607.5704252,E,4,10,1.0,368.635,M,49.480,M,10.04,0195*4E
$GPVTG,177.2095,T,177.2095,M,1.175,N,2.177,K,D*27
$RDENS,381,4469772,PC
$GPGGA,122459.40,4612.1655105,N,00607.5704339,E,4,10,1.0,368.631,M,49.480,M,10.24,0195*44
$GPVTG,174.7513,T,174.7513,M,1.195,N,2.214,K,D*2F
$GPGGA,122459.80,4612.1653823,N,00607.5704502,E,4,10,1.0,368.627,M,49.480,M,10.64,0195*4E
$GPVTG,175.5036,T,175.5036,M,1.137,N,2.108,K,D*29
$GPGGA,122500.00,4612.1653177,N,00607.5704616,E,4,10,1.0,368.634,M,49.480,M,10.84,0195*49
$GPVTG,171.5084,T,171.5084,M,1.145,N,2.121,K,D*27
$RDENS,382,4469860,PC
$GPGGA,122500.40,4612.1651893,N,00607.5704857,E,4,10,1.0,368.627,M,49.480,M,11.24,0195*4E
$GPVTG,173.8112,T,173.8112,M,1.180,N,2.187,K,D*22
$GPGGA,122500.60,4612.1651269,N,00607.5704999,E,4,10,1.0,368.637,M,49.480,M,11.44,0195*47
$GPVTG,171.0867,T,171.0867,M,1.150,N,2.131,K,D*22
$GPGGA,122501.00,4612.1650004,N,00607.5705287,E,4,10,1.0,368.638,M,49.480,M,11.84,0195*4E
$GPVTG,171.2362,T,171.2362,M,1.155,N,2.140,K,D*21
$RDENS,383,4469948,PC
$GPGGA,122501.20,4612.1649353,N,00607.5705451,E,2,10,1.0,368.639,M,49.480,M,12.04,0195*44
$GPVTG,171.3450,T,171.3450,M,1.140,N,2.113,K,D*23
$GPGGA,122501.60,4612.1648107,N,00607.5705715,E,2,10,1.0,368.636,M,49.480,M,12.44,0195*4A
$GPVTG,172.6241,T,172.6241,M,1.145,N,2.121,K,D*27
$GPGGA,122501.80,4612.1647461,N,00607.5705872,E,2,10,1.0,368.634,M,49.480,M,12.64,0195*40
$GPVTG,170.7426,T,170.7426,M,1.153,N,2.137,K,D*27
$RDENS,384,4470036,PC
$GPGGA,122502.20,4612.1646184,N,00607.5706149,E,2,10,1.0,368.633,M,49.480,M,13.04,0195*44
$GPVTG,172.7390,T,172.7390,M,1.196,N,2.217,K,D*2F
$GPGGA,122502.40,4612.1645528,N,00607.5706195,E,4,10,1.0,368.638,M,49.480,M,0.05,0195*7C
$GPVTG,171.2897,T,171.2897,M,1.204,N,2.231,K,D*23
$GPGGA,122502.60,4612.1644871,N,00607.5706347,E,4,10,1.0,368.635,M,49.480,M,0.25,0195*7C
$GPVTG,173.3674,T,173.3674,M,1.195,N,2.215,K,D*2E
$RDENS,385,4470124,PC
$GPGGA,122503.00,4612.1643542,N,00607.5706603,E,4,10,1.0,368.630,M,49.480,M,0.65,0195*75
$GPVTG,172.4537,T,172.4537,M,1.233,N,2.285,K,D*28
$GPGGA,122503.20,4612.1642881,N,00607.5706762,E,4,10,1.0,368.647,M,49.480,M,0.08,0195*79
$GPVTG,171.3932,T,171.3932,M,1.192,N,2.209,K,D*24
$GPGGA,122503.60,4612.1641533,N,00607.5706960,E,4,11,0.9,368.646,M,49.480,M,0.32,0195*77
$GPVTG,173.2884,T,173.2884,M,1.209,N,2.240,K,D*28
$RDENS,386,4470212,PC
$GPGGA,122503.80,4612.1640867,N,00607.5707105,E,4,11,0.9,368.646,M,49.480,M,0.52,0195*78
$GPVTG,171.6524,T,171.6524,M,1.235,N,2.289,K,D*22
$GPGGA,122504.20,4612.1639492,N,00607.5707339,E,4,11,0.9,368.640,M,49.480,M,0.92,0195*7A
$GPVTG,175.0418,T,175.0418,M,1.238,N,2.295,K,D*22
$GPGGA,122504.40,4612.1638797,N,00607.5707478,E,4,11,0.9,368.645,M,49.480,M,1.12,0195*75
$GPVTG,172.1315,T,172.1315,M,1.197,N,2.218,K,D*21
$RDENS,387,4470300,PC
$GPGGA,122504.80,4612.1637446,N,00607.5707759,E,4,11,0.9,368.648,M,49.480,M,1.52,0195*70
$GPVTG,171.6341,T,171.6341,M,1.248,N,2.313,K,D*2A
$GPGGA,122505.00,4612.1636733,N,00607.5707888,E,4,11,0.9,368.640,M,49.480,M,1.72,0195*70
$GPVTG,172.6343,T,172.6343,M,1.258,N,2.332,K,D*28
$GPGGA,122505.40,4612.1635354,N,00607.5708143,E,4,11,0.9,368.631,M,49.480,M,2.12,0195*70
$GPVTG,173.0001,T,173.0001,M,1.228,N,2.276,K,D*2E
$RDENS,388,4470388,PC
$GPGGA,122505.60,4612.1634642,N,00607.5708280,E,4,11,0.9,368.645,M,49.480,M,2.32,0195*7C
$GPVTG,171.7300,T,171.7300,M,1.223,N,2.267,K,D*25
$GPGGA,122506.00,4612.1633270,N,00607.5708532,E,4,11,0.9,368.638,M,49.480,M,2.72,0195*7B
$GPVTG,173.9094,T,173.9094,M,1.247,N,2.312,K,D*24
$GPGGA,122506.20,4612.1632548,N,00607.5708645,E,4,11,0.9,368.642,M,49.480,M,2.92,0195*74
$GPVTG,174.4507,T,174.4507,M,1.224,N,2.268,K,D*2D
$RDENS,389,4470476,PC
$GPGGA,122506.60,4612.1631174,N,00607.5708888,E,4,11,0.9,368.641,M,49.480,M,3.32,0195*7F
$GPVTG,171.8604,T,171.8604,M,1.248,N,2.313,K,D*2A
$GPGGA,122506.80,4612.1630434,N,00607.5709016,E,4,11,0.9,368.640,M,49.480,M,3.52,0195*78
$GPVTG,173.5955,T,173.5955,M,1.324,N,2.454,K,D*25
$GPGGA,122507.20,4612.1628989,N,00607.5709264,E,4,11,0.9,368.640,M,49.480,M,3.92,0195*7A
$GPVTG,172.9626,T,172.9626,M,1.279,N,2.370,K,D*2D
$RDENS,390,4470564,PC
$GPGGA,122507.40,4612.1628255,N,00607.5709412,E,4,11,0.9,368.640,M,49.480,M,4.12,0195*7E
$GPVTG,170.4535,T,170.4535,M,1.309,N,2.425,K,D*2C
$GPGGA,122507.60,4612.1627535,N,00607.5709587,E,4,11,0.9,368.649,M,49.480,M,4.32,0195*74
$GPVTG,173.0634,T,173.0634,M,1.315,N,2.436,K,D*23
$GPGGA,122508.00,4612.1626081,N,00607.5709866,E,4,11,0.9,368.648,M,49.480,M,4.72,0195*71
$GPVTG,171.8969,T,171.8969,M,1.306,N,2.421,K,D*27
$RDENS,391,4470652,PC
$GPGGA,122508.20,4612.1625360,N,00607.5710015,E,4,11,0.9,368.639,M,49.480,M,4.92,0195*70
$GPVTG,173.1290,T,173.1290,M,1.320,N,2.447,K,D*23
$GPGGA,122508.60,4612.1623902,N,00607.5710305,E,4,11,0.9,368.632,M,49.480,M,5.32,0195*7E
$GPVTG,171.2684,T,171.2684,M,1.300,N,2.409,K,D*2B
$GPGGA,122508.80,4612.1623153,N,00607.5710417,E,4,11,0.9,368.635,M,49.480,M,5.52,0195*79
$GPVTG,170.8254,T,170.8254,M,1.288,N,2.386,K,D*2A
$RDENS,392,4470740,PC
$GPGGA,122509.20,4612.1621717,N,00607.5710734,E,4,11,0.9,368.644,M,49.480,M,5.92,0195*7E
$GPVTG,171.8699,T,171.8699,M,1.309,N,2.427,K,D*2E
$GPGGA,122509.40,4612.1620997,N,00607.5710870,E,4,11,0.9,368.639,M,49.480,M,6.12,0195*71
$GPVTG,171.8526,T,171.8526,M,1.328,N,2.461,K,D*2F
$GPGGA,122509.80,4612.1619528,N,00607.5711179,E,4,11,0.9,368.632,M,49.480,M,6.52,0195*71
$GPVTG,171.6224,T,171.6224,M,1.326,N,2.457,K,D*24
$RDENS,393,4470828,PC
$GPGGA,122510.00,4612.1618814,N,00607.5711340,E,4,11,0.9,368.637,M,49.480,M,6.72,0195*7D
$GPVTG,173.2957,T,173.2957,M,1.300,N,2.409,K,D*2B
$GPGGA,122510.40,4612.1617379,N,00607.5711581,E,4,11,0.9,368.638,M,49.480,M,7.12,0195*75
$GPVTG,173.5268,T,173.5268,M,1.279,N,2.371,K,D*2C
$GPGGA,122510.60,4612.1616675,N,00607.5711703,E,4,11,0.9,368.632,M,49.480,M,7.32,0195*7F
$GPVTG,173.4670,T,173.4670,M,1.302,N,2.413,K,D*22
$RDENS,394,4470916,PC
$GPGGA,122511.00,4612.1615243,N,00607.5711927,E,4,11,0.9,368.636,M,49.480,M,7.72,0195*72
$GPVTG,174.3206,T,174.3206,M,1.277,N,2.367,K,D*25
$GPGGA,122511.20,4612.1614519,N,00607.5712035,E,4,11,0.9,368.636,M,49.480,M,0.12,0195*71
$GPVTG,171.7022,T,171.7022,M,1.273,N,2.360,K,D*26
$GPGGA,122511.60,4612.1613102,N,00607.5712247,E,4,11,0.9,368.642,M,49.480,M,0.26,0195*7F
$GPVTG,174.2652,T,174.2652,M,1.295,N,2.401,K,D*2E
$RDENS,395,4471004,PC
$GPGGA,122511.80,4612.1612402,N,00607.5712379,E,4,11,0.9,368.633,M,49.480,M,0.46,0195*79
$GPVTG,172.3165,T,172.3165,M,1.290,N,2.390,K,D*24
$GPGGA,122512.00,4612.1611680,N,00607.5712502,E,4,11,0.9,368.625,M,49.480,M,0.03,0195*75
$GPVTG,173.9986,T,173.9986,M,1.276,N,2.365,K,D*26
$GPGGA,122512.40,4612.1610314,N,00607.5712782,E,4,11,0.9,368.627,M,49.480,M,0.08,0195*7B
$GPVTG,170.2347,T,170.2347,M,1.226,N,2.273,K,D*25
$RDENS,396,4471092,PC
$GPGGA,122512.60,4612.1609639,N,00607.5712869,E,4,11,0.9,368.636,M,49.480,M,0.06,0195*7F
$GPVTG,169.0207,T,169.0207,M,1.274,N,2.362,K,D*23
$GPGGA,122513.00,4612.1608247,N,00607.5713259,E,4,11,0.9,368.646,M,49.480,M,0.34,0195*7A
$GPVTG,169.9139,T,169.9139,M,1.296,N,2.402,K,D*2E
$GPGGA,122513.20,4612.1607558,N,00607.5713413,E,4,11,0.9,368.640,M,49.480,M,0.54,0195*76
$RDENS,397,4471180,PC
$GPVTG,167.5709,T,167.5709,M,1.224,N,2.268,K,D*2D
$GPGGA,122513.60,4612.1606177,N,00607.5713827,E,4,11,0.9,368.637,M,49.480,M,0.05,0195*75
$GPVTG,168.6004,T,168.6004,M,1.308,N,2.424,K,D*2C
$GPGGA,122513.80,4612.1605504,N,00607.5714045,E,4,11,0.9,368.624,M,49.480,M,0.15,0195*70
$GPVTG,168.1684,T,168.1684,M,1.217,N,2.256,K,D*20
$GPGGA,122514.20,4612.1604149,N,00607.5714491,E,4,11,0.9,368.632,M,49.480,M,0.55,0195*7F
$RDENS,398,4471268,PC
$GPVTG,166.7026,T,166.7026,M,1.292,N,2.394,K,D*22
$GPGGA,122514.40,4612.1603499,N,00607.5714682,E,4,11,0.9,368.621,M,49.480,M,0.75,0195*76
$GPVTG,166.6334,T,166.6334,M,1.240,N,2.298,K,D*20
$GPGGA,122514.80,4612.1602146,N,00607.5715139,E,4,11,0.9,368.631,M,49.480,M,0.22,0195*79
$GPVTG,166.8303,T,166.8303,M,1.262,N,2.338,K,D*2B
$GPGGA,122515.00,4612.1601479,N,00607.5715321,E,4,11,0.9,368.625,M,49.480,M,0.42,0195*72
$GPVTG,166.8177,T,166.8177,M,1.198,N,2.221,K,D*24
$RDENS,399,4471356,PC
$GPGGA,122515.40,4612.1600175,N,00607.5715779,E,4,11,0.9,368.648,M,49.480,M,0.82,0195*70
$GPVTG,165.5581,T,165.5581,M,1.202,N,2.227,K,D*22
$GPGGA,122515.60,4612.1599506,N,00607.5715983,E,4,11,0.9,368.650,M,49.480,M,1.02,0195*7A
$GPVTG,167.2477,T,167.2477,M,1.247,N,2.311,K,D*27
$GPGGA,122516.00,4612.1598138,N,00607.5716405,E,4,11,0.9,368.655,M,49.480,M,0.00,0195*71
$GPVTG,167.7304,T,167.7304,M,1.260,N,2.335,K,D*24
$RDENS,400,4471443,PC
$GPGGA,122516.20,4612.1597468,N,00607.5716632,E,4,11,0.9,368.658,M,49.480,M,0.20,0195*75
$GPVTG,166.1274,T,166.1274,M,1.223,N,2.267,K,D*25
$GPGGA,122516.60,4612.1596135,N,00607.5717152,E,4,11,0.9,368.669,M,49.480,M,0.60,0195*7B
$GPVTG,163.5692,T,163.5692,M,1.255,N,2.326,K,D*20
$GPGGA,122516.80,4612.1595462,N,00607.5717393,E,4,11,0.9,368.653,M,49.480,M,0.05,0195*74
$GPVTG,164.8499,T,164.8499,M,1.285,N,2.382,K,D*23
$RDENS,401,4471532,PC
$GPGGA,122517.00,4612.1594767,N,00607.5717660,E,4,11,0.9,368.654,M,49.480,M,0.25,0195*76
$GPVTG,165.4125,T,165.4125,M,1.266,N,2.347,K,D*27
$GPGGA,122517.40,4612.1593417,N,00607.5718198,E,4,11,0.9,368.654,M,49.480,M,0.65,0195*7A
$GPVTG,164.4012,T,164.4012,M,1.277,N,2.367,K,D*25
$GPGGA,122517.60,4612.1592717,N,00607.5718462,E,4,11,0.9,368.650,M,49.480,M,0.85,0195*70
$GPVTG,165.4305,T,165.4305,M,1.289,N,2.389,K,D*24
$RDENS,402,4471620,PC
$GPGGA,122518.00,4612.1591311,N,00607.5718993,E,4,11,0.9,368.657,M,49.480,M,1.25,0195*77
$GPVTG,165.4774,T,165.4774,M,1.326,N,2.458,K,D*2B
$GPGGA,122518.20,4612.1590631,N,00607.5719224,E,4,11,0.9,368.667,M,49.480,M,1.45,0195*70
$GPVTG,169.3442,T,169.3442,M,1.256,N,2.327,K,D*22
$GPVTG,165.7210,T,165.7210,M,1.299,N,2.407,K,D*24
$RDENS,403,4471708,PC
$GPGGA,122518.80,4612.1588554,N,00607.5719941,E,4,11,0.9,368.667,M,49.480,M,0.25,0195*7C
$GPVTG,165.5958,T,165.5958,M,1.242,N,2.301,K,D*23
$GPGGA,122519.00,4612.1587883,N,00607.5720188,E,4,11,0.9,368.661,M,49.480,M,0.45,0195*7A
$GPVTG,165.1438,T,165.1438,M,1.206,N,2.236,K,D*26
$GPGGA,122519.40,4612.1586560,N,00607.5720683,E,4,11,0.9,368.648,M,49.480,M,0.12,0195*7A
$GPVTG,165.2299,T,165.2299,M,1.236,N,2.290,K,D*29
$RDENS,404,4471796,PC
$GPGGA,122519.60,4612.1585891,N,00607.5720936,E,4,11,0.9,368.654,M,49.480,M,0.05,0195*72
$GPVTG,166.5488,T,166.5488,M,1.225,N,2.271,K,D*24
$GPGGA,122520.00,4612.1584583,N,00607.5721433,E,4,11,0.9,368.645,M,49.480,M,0.35,0195*7B
$GPVTG,163.3394,T,163.3394,M,1.207,N,2.238,K,D*29
$GPGGA,122520.20,4612.1583885,N,00607.5721687,E,4,11,0.9,368.652,M,49.480,M,0.55,0195*78
$GPVTG,167.1628,T,167.1628,M,1.179,N,2.184,K,D*27
$RDENS,405,4471883,PC
$GPGGA,122520.60,4612.1582590,N,00607.5722136,E,4,11,0.9,368.649,M,49.480,M,0.95,0195*7C
$GPVTG,166.4844,T,166.4844,M,1.231,N,2.281,K,D*2E
$GPGGA,122520.80,4612.1581945,N,00607.5722358,E,4,11,0.9,368.636,M,49.480,M,1.15,0195*7E
$GPVTG,165.5179,T,165.5179,M,1.182,N,2.191,K,D*27
$GPGGA,122521.20,4612.1580684,N,00607.5722853,E,4,11,0.9,368.627,M,49.480,M,1.55,0195*72
$GPVTG,163.9906,T,163.9906,M,1.151,N,2.133,K,D*21
$RDENS,406,4471971,PC
$GPGGA,122521.40,4612.1580075,N,00607.5723094,E,4,11,0.9,368.627,M,49.480,M,1.75,0195*7C
$GPVTG,165.8486,T,165.8486,M,1.133,N,2.100,K,D*25
$GPGGA,122521.80,4612.1578856,N,00607.5723584,E,4,11,0.9,368.648,M,49.480,M,2.15,0195*76
$GPVTG,163.8331,T,163.8331,M,1.157,N,2.145,K,D*26
$GPGGA,122522.00,4612.1578270,N,00607.5723827,E,4,11,0.9,368.639,M,49.480,M,2.35,0195*73
$GPVTG,161.7106,T,161.7106,M,1.064,N,1.972,K,D*28
$RDENS,407,4472059,PC
$GPGGA,122522.40,4612.1577138,N,00607.5724315,E,4,11,0.9,368.647,M,49.480,M,0.20,0195*75
$GPVTG,165.2916,T,165.2916,M,1.069,N,1.980,K,D*28
$GPGGA,122522.60,4612.1576556,N,00607.5724595,E,4,11,0.9,368.658,M,49.480,M,0.40,0195*7C
$GPVTG,160.2816,T,160.2816,M,0.998,N,1.850,K,D*22
$GPGGA,122523.00,4612.1575458,N,00607.5725050,E,4,11,0.9,368.619,M,49.480,M,0.80,0195*73
$GPVTG,167.3523,T,167.3523,M,1.067,N,1.977,K,D*2E
$RDENS,408,4472147,PC
$GPGGA,122523.20,4612.1574908,N,00607.5725354,E,4,11,0.9,368.636,M,49.480,M,1.00,0195*7B
$GPVTG,151.2284,T,151.2284,M,0.894,N,1.656,K,D*27
$GPGGA,122523.40,4612.1574478,N,00607.5725691,E,4,11,0.9,368.641,M,49.480,M,1.20,0195*79
$GPVTG,161.9850,T,161.9850,M,1.074,N,1.990,K,D*25
$GPGGA,122523.80,4612.1573343,N,00607.5726255,E,4,11,0.9,368.667,M,49.480,M,0.03,0195*76
$GPVTG,160.5737,T,160.5737,M,1.102,N,2.043,K,D*21
$RDENS,409,4472235,PC
$GPGGA,122524.00,4612.1572854,N,00607.5726533,E,4,11,0.9,368.643,M,49.480,M,0.23,0195*76
$GPVTG,160.2754,T,160.2754,M,1.062,N,1.967,K,D*2A
$GPGGA,122524.40,4612.1571810,N,00607.5727149,E,4,11,0.9,368.643,M,49.480,M,0.63,0195*7D
$GPVTG,154.5509,T,154.5509,M,0.965,N,1.788,K,D*2A
$GPGGA,122524.60,4612.1571337,N,00607.5727478,E,4,11,0.9,368.659,M,49.480,M,0.83,0195*73
$GPVTG,152.0412,T,152.0412,M,0.936,N,1.734,K,D*2B
$RDENS,410,4472323,PC
$GPGGA,122525.00,4612.1570371,N,00607.5728181,E,4,11,0.9,368.654,M,49.480,M,1.23,0195*7D
$GPVTG,154.5689,T,154.5689,M,1.022,N,1.894,K,D*23
$GPGGA,122525.20,4612.1569902,N,00607.5728544,E,4,11,0.9,368.633,M,49.480,M,1.43,0195*73
$GPVTG,150.8479,T,150.8479,M,0.956,N,1.771,K,D*2C
$GPGGA,122525.60,4612.1568991,N,00607.5729327,E,4,11,0.9,368.658,M,49.480,M,1.83,0195*7F
$GPVTG,147.6718,T,147.6718,M,0.960,N,1.780,K,D*27
$RDENS,411,4472411,PC
$GPGGA,122525.80,4612.1568541,N,00607.5729693,E,4,11,0.9,368.649,M,49.480,M,2.03,0195*71
$GPVTG,145.0704,T,145.0704,M,0.966,N,1.790,K,D*20
$GPGGA,122526.20,4612.1567651,N,00607.5730579,E,4,11,0.9,368.662,M,49.480,M,0.22,0195*72
$GPVTG,145.0429,T,145.0429,M,0.983,N,1.822,K,D*2D
$GPGGA,122526.40,4612.1567141,N,00607.5730963,E,4,11,0.9,368.658,M,49.480,M,0.42,0195*7A
$GPVTG,140.5229,T,140.5229,M,0.956,N,1.772,K,D*2F
$RDENS,412,4472499,PC
$GPGGA,122526.80,4612.1566237,N,00607.5731859,E,4,11,0.9,368.664,M,49.480,M,0.82,0195*7F
$GPVTG,149.8245,T,149.8245,M,1.022,N,1.894,K,D*23
$GPGGA,122527.00,4612.1565780,N,00607.5732277,E,4,11,0.9,368.654,M,49.480,M,1.02,0195*73
$GPVTG,144.3107,T,144.3107,M,1.011,N,1.873,K,D*2A
$GPGGA,122527.40,4612.1564834,N,00607.5733189,E,4,11,0.9,368.659,M,49.480,M,1.42,0195*7C
$GPVTG,148.0262,T,148.0262,M,1.035,N,1.919,K,D*21
$RDENS,413,4472587,PC
$GPGGA,122527.60,4612.1564346,N,00607.5733602,E,4,11,0.9,368.643,M,49.480,M,0.08,0195*70
$GPVTG,150.1326,T,150.1326,M,1.041,N,1.929,K,D*21
$GPGGA,122527.80,4612.1563851,N,00607.5734030,E,4,11,0.9,368.631,M,49.480,M,0.00,0195*79
$GPVTG,145.2699,T,145.2699,M,0.978,N,1.812,K,D*2A
$GPGGA,122528.20,4612.1562847,N,00607.5734890,E,4,11,0.9,368.642,M,49.480,M,0.40,0195*78
$GPVTG,152.0737,T,152.0737,M,1.126,N,2.087,K,D*2F
$RDENS,414,4472675,PC
$GPGGA,122528.40,4612.1562380,N,00607.5735301,E,4,11,0.9,368.614,M,49.480,M,0.60,0195*7D
$GPVTG,153.7400,T,153.7400,M,1.104,N,2.046,K,D*22
$GPGGA,122528.80,4612.1561310,N,00607.5736164,E,4,11,0.9,368.616,M,49.480,M,1.00,0195*7C
$GPVTG,148.0923,T,148.0923,M,1.117,N,2.069,K,D*2D
$GPGGA,122529.00,4612.1560779,N,00607.5736606,E,4,11,0.9,368.641,M,49.480,M,1.20,0195*7C
$GPVTG,149.8540,T,149.8540,M,1.081,N,2.003,K,D*2F
$RDENS,415,4472763,PC
$GPGGA,122529.40,4612.1559733,N,00607.5737440,E,4,11,0.9,368.642,M,49.480,M,1.60,0195*7A
$GPVTG,152.2915,T,152.2915,M,1.070,N,1.982,K,D*22
$GPGGA,122529.60,4612.1559188,N,00607.5737836,E,4,11,0.9,368.647,M,49.480,M,0.17,0195*77
$GPVTG,155.9276,T,155.9276,M,1.112,N,2.061,K,D*20
$GPGGA,122530.00,4612.1558103,N,00607.5738650,E,4,11,0.9,368.631,M,49.480,M,0.23,0195*7C
