$GPVTG,67.9414,T,67.9414,M,0.122,N,0.225,K,D*22
$GPGGA,134541.20,4612.0339666,N,00607.2188337,E,4,06,2.0,368.470,M,49.480,M,0.71,0195*78
$GPVTG,67.3578,T,67.3578,M,0.127,N,0.236,K,D*25
$GPGGA,134541.60,4612.0339720,N,00607.2188546,E,4,06,2.0,368.472,M,49.480,M,1.11,0195*7A
$GPVTG,52.4898,T,52.4898,M,0.155,N,0.287,K,D*2A
$GPGGA,134541.80,4612.0339791,N,00607.2188622,E,4,06,2.0,368.486,M,49.480,M,0.10,0195*74
$GPVTG,63.0791,T,63.0791,M,0.137,N,0.254,K,D*20
$GPGGA,134542.20,4612.0339896,N,00607.2188780,E,4,06,2.0,368.492,M,49.480,M,0.50,0195*7D
$GPVTG,55.2125,T,55.2125,M,0.104,N,0.193,K,D*28
$GPGGA,134542.40,4612.0339966,N,00607.2188820,E,4,06,2.0,368.507,M,49.480,M,0.70,0195*7F
$GPVTG,61.5519,T,61.5519,M,0.099,N,0.184,K,D*2B
$GPGGA,134542.60,4612.0340018,N,00607.2188833,E,4,06,2.0,368.505,M,49.480,M,0.06,0195*72
$GPVTG,52.8246,T,52.8246,M,0.098,N,0.182,K,D*2C
$GPGGA,134543.00,4612.0340087,N,00607.2188971,E,4,06,2.0,368.491,M,49.480,M,0.34,0195*79
$GPVTG,28.7142,T,28.7142,M,0.109,N,0.202,K,D*2E
$GPGGA,134543.20,4612.0340122,N,00607.2189032,E,4,06,2.0,368.488,M,49.480,M,0.54,0195*74
$GPVTG,22.2508,T,22.2508,M,0.120,N,0.222,K,D*27
$GPGGA,134543.60,4612.0340234,N,00607.2189132,E,4,06,2.0,368.479,M,49.480,M,0.94,0195*77
$GPVTG,23.5865,T,23.5865,M,0.112,N,0.208,K,D*2E
$RDENS,906,4954209,PC
$GPGGA,134543.80,4612.0340266,N,00607.2189192,E,4,06,2.0,368.472,M,49.480,M,1.14,0195*76
$GPVTG,18.6139,T,18.6139,M,0.107,N,0.198,K,D*20
$GPGGA,134544.20,4612.0340375,N,00607.2189293,E,4,06,2.0,368.474,M,49.480,M,1.54,0195*78
$GPVTG,38.7224,T,38.7224,M,0.115,N,0.213,K,D*23
$GPGGA,134544.40,4612.0340395,N,00607.2189336,E,4,06,2.0,368.471,M,49.480,M,0.13,0195*79
$GPVTG,22.2139,T,22.2139,M,0.082,N,0.151,K,D*29
$RDENS,907,4954295,PC
$GPGGA,134544.80,4612.0340507,N,00607.2189386,E,4,06,2.0,368.478,M,49.480,M,0.53,0195*7E
$GPVTG,18.5051,T,18.5051,M,0.096,N,0.178,K,D*27
$GPGGA,134545.00,4612.0340574,N,00607.2189379,E,4,06,2.0,368.483,M,49.480,M,0.73,0195*75
$GPVTG,355.4113,T,355.4113,M,0.125,N,0.231,K,D*20
$GPGGA,134545.20,4612.0340648,N,00607.2189366,E,4,06,2.0,368.483,M,49.480,M,0.93,0195*7B
$GPVTG,15.7258,T,15.7258,M,0.117,N,0.217,K,D*25
$RDENS,908,4954381,PC
$GPGGA,134545.60,4612.0340797,N,00607.2189365,E,4,06,2.0,368.484,M,49.480,M,1.33,0195*73
$GPVTG,7.9843,T,7.9843,M,0.099,N,0.184,K,D*2B
$GPGGA,134545.80,4612.0340862,N,00607.2189379,E,4,06,2.0,368.483,M,49.480,M,1.53,0195*74
$GPVTG,0.1602,T,0.1602,M,0.082,N,0.153,K,D*2B
$GPGGA,134546.00,4612.0340910,N,00607.2189367,E,4,06,2.0,368.484,M,49.480,M,1.73,0195*71
$RDENS,909,4954467,PC
$GPVTG,4.6733,T,4.6733,M,0.064,N,0.119,K,D*2D
$GPGGA,134546.40,4612.0340953,N,00607.2189394,E,4,06,2.0,368.486,M,49.480,M,2.13,0195*79
$GPVTG,2.9759,T,2.9759,M,0.068,N,0.126,K,D*2D
$GPGGA,134546.60,4612.0340971,N,00607.2189415,E,4,06,2.0,368.484,M,49.480,M,2.33,0195*75
$GPVTG,336.3092,T,336.3092,M,0.063,N,0.116,K,D*25
$GPGGA,134547.00,4612.0341065,N,00607.2189372,E,4,06,2.0,368.496,M,49.480,M,2.73,0195*7E
$RDENS,910,4954553,PC
$GPVTG,7.7397,T,7.7397,M,0.063,N,0.116,K,D*25
$GPGGA,134547.20,4612.0341101,N,00607.2189367,E,4,06,2.0,368.493,M,49.480,M,2.93,0195*70
$GPVTG,14.9703,T,14.9703,M,0.091,N,0.169,K,D*20
$GPGGA,134547.60,4612.0341128,N,00607.2189374,E,4,06,2.0,368.486,M,49.480,M,3.33,0195*72
$GPVTG,329.6921,T,329.6921,M,0.071,N,0.132,K,D*20
$GPGGA,134547.80,4612.0341160,N,00607.2189359,E,4,06,2.0,368.489,M,49.480,M,3.53,0195*76
$RDENS,911,4954639,PC
$GPVTG,333.3329,T,333.3329,M,0.081,N,0.150,K,D*2B
$GPGGA,134548.20,4612.0341185,N,00607.2189339,E,4,06,2.0,368.489,M,49.480,M,3.93,0195*72
$GPVTG,318.1689,T,318.1689,M,0.028,N,0.051,K,D*28
$GPGGA,134548.40,4612.0341214,N,00607.2189327,E,4,06,2.0,368.493,M,49.480,M,4.13,0195*74
$GPVTG,343.1577,T,343.1577,M,0.085,N,0.158,K,D*27
$GPGGA,134548.80,4612.0341298,N,00607.2189317,E,4,06,2.0,368.490,M,49.480,M,4.53,0195*78
$RDENS,912,4954725,PC
$GPVTG,4.7287,T,4.7287,M,0.093,N,0.173,K,D*29
$GPGGA,134549.00,4612.0341323,N,00607.2189299,E,4,06,2.0,368.487,M,49.480,M,4.73,0195*73
$GPVTG,354.1114,T,354.1114,M,0.091,N,0.169,K,D*20
$GPGGA,134549.40,4612.0341447,N,00607.2189222,E,4,06,2.0,368.489,M,49.480,M,5.13,0195*7B
$GPVTG,332.8573,T,332.8573,M,0.115,N,0.213,K,D*23
$GPGGA,134549.60,4612.0341467,N,00607.2189209,E,4,06,2.0,368.488,M,49.480,M,5.33,0195*71
$RDENS,913,4954811,PC
$GPVTG,336.3629,T,336.3629,M,0.073,N,0.135,K,D*25
$GPGGA,134550.00,4612.0341506,N,00607.2189181,E,4,06,2.0,368.484,M,49.480,M,5.73,0195*72
$GPVTG,327.7190,T,327.7190,M,0.052,N,0.097,K,D*2F
$GPGGA,134550.20,4612.0341552,N,00607.2189154,E,4,06,2.0,368.493,M,49.480,M,5.93,0195*71
$GPVTG,349.8004,T,349.8004,M,0.085,N,0.157,K,D*28
$GPGGA,134550.60,4612.0341576,N,00607.2189136,E,4,06,2.0,368.490,M,49.480,M,6.33,0195*7D
$RDENS,914,4954897,PC
$GPVTG,334.2643,T,334.2643,M,0.052,N,0.095,K,D*2D
$GPGGA,134550.80,4612.0341595,N,00607.2189107,E,4,06,2.0,368.489,M,49.480,M,6.53,0195*72
$GPVTG,326.1827,T,326.1827,M,0.070,N,0.129,K,D*2B
$GPGGA,134551.20,4612.0341662,N,00607.2189033,E,4,06,2.0,368.493,M,49.480,M,6.93,0195*73
$GPVTG,327.2656,T,327.2656,M,0.069,N,0.127,K,D*2D
$GPGGA,134551.40,4612.0341711,N,00607.2189002,E,4,06,2.0,368.493,M,49.480,M,7.13,0195*7B
$RDENS,915,4954983,PC
$GPVTG,324.6147,T,324.6147,M,0.057,N,0.106,K,D*23
$GPGGA,134551.60,4612.0341717,N,00607.2188987,E,4,06,2.0,368.497,M,49.480,M,7.33,0195*7C
$GPVTG,348.9158,T,348.9158,M,0.028,N,0.052,K,D*2B
$GPGGA,134552.00,4612.0341741,N,00607.2188964,E,4,06,2.0,368.515,M,49.480,M,7.73,0195*78
$GPVTG,338.7120,T,338.7120,M,0.064,N,0.118,K,D*2C
$RDENS,916,4955069,PC
$GPGGA,134552.20,4612.0341690,N,00607.2188995,E,4,06,2.0,368.507,M,49.480,M,7.93,0195*74
$GPVTG,334.3043,T,334.3043,M,0.103,N,0.191,K,D*2D
$GPGGA,134552.60,4612.0341855,N,00607.2188885,E,4,06,2.0,368.507,M,49.480,M,8.33,0195*72
$GPVTG,343.1385,T,343.1385,M,0.111,N,0.206,K,D*23
$GPGGA,134552.80,4612.0341883,N,00607.2188862,E,4,06,2.0,368.490,M,49.480,M,8.53,0195*77
$GPVTG,344.7244,T,344.7244,M,0.093,N,0.172,K,D*28
$RDENS,917,4955155,PC
$GPGGA,134553.20,4612.0341981,N,00607.2188780,E,4,06,2.0,368.487,M,49.480,M,8.93,0195*76
$GPVTG,309.4447,T,309.4447,M,0.044,N,0.081,K,D*2F
$GPVTG,332.4615,T,332.4615,M,0.068,N,0.126,K,D*2D
$GPGGA,134553.60,4612.0341997,N,00607.2188753,E,4,06,2.0,368.496,M,49.480,M,9.33,0195*70
$GPVTG,338.7485,T,338.7485,M,0.054,N,0.099,K,D*27
$GPGGA,134553.80,4612.0341994,N,00607.2188751,E,4,06,2.0,368.505,M,49.480,M,9.53,0195*72
$RDENS,918,4955241,PC
$GPVTG,317.2957,T,317.2957,M,0.059,N,0.110,K,D*2A
$GPGGA,134554.20,4612.0341979,N,00607.2188756,E,4,06,2.0,368.503,M,49.480,M,9.93,0195*71
$GPVTG,343.5898,T,343.5898,M,0.057,N,0.106,K,D*23
$GPGGA,134554.40,4612.0342027,N,00607.2188681,E,4,06,2.0,368.505,M,49.480,M,10.13,0195*4B
$GPVTG,341.6826,T,341.6826,M,0.086,N,0.159,K,D*25
$GPGGA,134554.80,4612.0342117,N,00607.2188625,E,4,06,2.0,368.485,M,49.480,M,10.53,0195*46
$RDENS,919,4955327,PC
$GPVTG,339.0327,T,339.0327,M,0.086,N,0.159,K,D*25
$GPGGA,134555.00,4612.0342164,N,00607.2188603,E,4,06,2.0,368.481,M,49.480,M,10.73,0195*49
$GPVTG,332.1471,T,332.1471,M,0.100,N,0.185,K,D*2B
$GPGGA,134555.40,4612.0342232,N,00607.2188520,E,4,06,2.0,368.490,M,49.480,M,11.13,0195*48
$GPVTG,327.9485,T,327.9485,M,0.073,N,0.136,K,D*26
$GPGGA,134555.60,4612.0342274,N,00607.2188481,E,4,06,2.0,368.496,M,49.480,M,11.33,0195*46
$RDENS,920,4955413,PC
$GPVTG,314.5877,T,314.5877,M,0.050,N,0.094,K,D*2E
$GPGGA,134556.00,4612.0342327,N,00607.2188427,E,4,06,2.0,368.507,M,49.480,M,11.73,0195*45
$GPVTG,328.3282,T,328.3282,M,0.104,N,0.192,K,D*29
$GPGGA,134556.20,4612.0342365,N,00607.2188376,E,4,06,2.0,368.506,M,49.480,M,11.93,0195*4D
$GPVTG,322.8730,T,322.8730,M,0.108,N,0.201,K,D*2C
$GPGGA,134556.60,4612.0342470,N,00607.2188255,E,4,06,2.0,368.490,M,49.480,M,12.33,0195*4D
$RDENS,921,4955499,PC
$GPVTG,323.0237,T,323.0237,M,0.147,N,0.272,K,D*23
$GPGGA,134556.80,4612.0342547,N,00607.2188184,E,4,06,2.0,368.486,M,49.480,M,12.53,0195*48
$GPVTG,325.5194,T,325.5194,M,0.096,N,0.178,K,D*27
$GPGGA,134557.20,4612.0342639,N,00607.2188063,E,2,06,2.0,368.484,M,49.480,M,12.93,0195*49
$GPVTG,314.5699,T,314.5699,M,0.134,N,0.249,K,D*2F
$RDENS,922,4955585,PC
$GPGGA,134557.40,4612.0342689,N,00607.2188012,E,2,06,2.0,368.488,M,49.480,M,13.13,0195*47
$GPVTG,318.5418,T,318.5418,M,0.110,N,0.204,K,D*20
$GPGGA,134557.80,4612.0342731,N,00607.2187932,E,2,06,2.0,368.485,M,49.480,M,13.53,0195*44
$GPVTG,319.4063,T,319.4063,M,0.115,N,0.213,K,D*23
$GPGGA,134558.00,4612.0342822,N,00607.2187855,E,2,06,2.0,368.487,M,49.480,M,13.73,0195*4E
$GPVTG,322.8492,T,322.8492,M,0.138,N,0.256,K,D*2D
$RDENS,923,4955671,PC
$GPGGA,134558.40,4612.0342995,N,00607.2187680,E,2,06,2.0,368.496,M,49.480,M,14.13,0195*40
$GPVTG,331.0826,T,331.0826,M,0.225,N,0.418,K,D*2E
$GPGGA,134558.60,4612.0343075,N,00607.2187604,E,2,06,2.0,368.497,M,49.480,M,14.33,0195*4B
$GPVTG,329.9411,T,329.9411,M,0.116,N,0.215,K,D*26
$GPGGA,134559.00,4612.0343212,N,00607.2187415,E,2,06,2.0,368.500,M,49.480,M,14.73,0195*46
$GPVTG,321.2466,T,321.2466,M,0.164,N,0.304,K,D*22
$RDENS,924,4955758,PC
$GPGGA,134559.20,4612.0343247,N,00607.2187324,E,2,06,2.0,368.497,M,49.480,M,14.93,0195*40
$GPVTG,311.6448,T,311.6448,M,0.129,N,0.239,K,D*24
$GPGGA,134559.60,4612.0343349,N,00607.2187154,E,2,06,2.0,368.506,M,49.480,M,15.33,0195*4C
$GPVTG,318.2873,T,318.2873,M,0.137,N,0.253,K,D*27
$GPGGA,134559.80,4612.0343387,N,00607.2187078,E,2,06,2.0,368.505,M,49.480,M,15.53,0195*4A
$GPVTG,315.3272,T,315.3272,M,0.149,N,0.275,K,D*2A
$RDENS,925,4955844,PC
$GPGGA,134600.00,4612.0343481,N,00607.2186987,E,2,06,2.0,368.510,M,49.480,M,15.73,0195*42
$GPVTG,319.9455,T,319.9455,M,0.160,N,0.296,K,D*2C
$GPGGA,134600.40,4612.0343603,N,00607.2186814,E,2,06,2.0,368.521,M,49.480,M,16.13,0195*42
$GPVTG,317.6468,T,317.6468,M,0.144,N,0.267,K,D*24
$GPGGA,134600.60,4612.0343638,N,00607.2186737,E,2,06,2.0,368.521,M,49.480,M,16.33,0195*44
$GPVTG,306.9477,T,306.9477,M,0.170,N,0.315,K,D*27
$RDENS,926,4955930,PC
$GPGGA,134601.00,4612.0343710,N,00607.2186558,E,2,06,2.0,368.502,M,49.480,M,16.73,0195*46
$GPVTG,309.7358,T,309.7358,M,0.152,N,0.281,K,D*2B
$GPGGA,134601.20,4612.0343754,N,00607.2186464,E,2,06,2.0,368.510,M,49.480,M,16.93,0195*47
$GPVTG,309.8453,T,309.8453,M,0.438,N,0.812,K,D*22
$GPGGA,134601.60,4612.0343985,N,00607.2186178,E,2,06,2.0,368.539,M,49.480,M,17.33,0195*49
$GPVTG,313.8095,T,313.8095,M,0.247,N,0.458,K,D*2E
$RDENS,927,4956027,PC
$GPGGA,134601.80,4612.0343962,N,00607.2186127,E,2,06,2.0,368.527,M,49.480,M,17.53,0195*4D
$GPVTG,305.4211,T,305.4211,M,0.155,N,0.288,K,D*25
$GPGGA,134602.20,4612.0343925,N,00607.2185979,E,2,06,2.0,368.493,M,49.480,M,17.93,0195*45
$GPVTG,303.6542,T,303.6542,M,0.157,N,0.291,K,D*2F
$GPGGA,134602.40,4612.0344107,N,00607.2185776,E,2,06,2.0,368.503,M,49.480,M,18.13,0195*42
$GPVTG,318.3976,T,318.3976,M,0.271,N,0.501,K,D*26
$GPGGA,134602.80,4612.0344360,N,00607.2185501,E,2,06,2.0,368.529,M,49.480,M,0.01,0195*7D
$RDENS,928,4956124,PC
$GPVTG,316.3709,T,316.3709,M,0.219,N,0.405,K,D*2D
$GPGGA,134603.00,4612.0344394,N,00607.2185389,E,2,06,2.0,368.533,M,49.480,M,0.21,0195*70
$GPVTG,303.4964,T,303.4964,M,0.158,N,0.293,K,D*22
$GPGGA,134603.40,4612.0344490,N,00607.2185225,E,4,06,2.0,368.533,M,49.480,M,0.14,0195*70
$GPVTG,307.7251,T,307.7251,M,0.113,N,0.209,K,D*2E
$GPGGA,134603.60,4612.0344562,N,00607.2185205,E,4,06,2.0,368.526,M,49.480,M,0.10,0195*7C
$GPVTG,359.0162,T,359.0162,M,0.200,N,0.370,K,D*20
$RDENS,929,4956221,PC
$GPGGA,134604.00,4612.0344817,N,00607.2185287,E,4,06,2.0,368.508,M,49.480,M,0.50,0195*70
$GPVTG,18.6264,T,18.6264,M,0.285,N,0.528,K,D*26
$GPGGA,134604.20,4612.0345059,N,00607.2185402,E,4,06,2.0,368.513,M,49.480,M,0.70,0195*72
$GPVTG,17.9967,T,17.9967,M,0.337,N,0.625,K,D*20
$GPGGA,134604.60,4612.0345340,N,00607.2185615,E,4,06,2.0,368.509,M,49.480,M,1.10,0195*75
$GPVTG,15.8298,T,15.8298,M,0.324,N,0.601,K,D*24
$RDENS,930,4956318,PC
$GPGGA,134604.80,4612.0345456,N,00607.2185712,E,4,06,2.0,368.508,M,49.480,M,1.30,0195*7E
$GPVTG,15.1596,T,15.1596,M,0.305,N,0.566,K,D*25
$GPGGA,134605.00,4612.0345606,N,00607.2185790,E,4,06,2.0,368.506,M,49.480,M,1.50,0195*72
$GPVTG,19.7673,T,19.7673,M,0.339,N,0.628,K,D*23
$GPGGA,134605.40,4612.0345977,N,00607.2185948,E,4,06,2.0,368.501,M,49.480,M,1.90,0195*7F
$GPVTG,24.6082,T,24.6082,M,0.253,N,0.468,K,D*28
$GPGGA,134605.60,4612.0346106,N,00607.2186015,E,4,06,2.0,368.493,M,49.480,M,2.10,0195*73
$RDENS,931,4956415,PC
$GPVTG,20.3935,T,20.3935,M,0.258,N,0.477,K,D*2D
$GPGGA,134606.00,4612.0346384,N,00607.2186177,E,4,06,2.0,368.480,M,49.480,M,2.50,0195*7D
$GPVTG,23.1942,T,23.1942,M,0.318,N,0.589,K,D*28
$GPGGA,134606.20,4612.0346595,N,00607.2186339,E,2,06,2.0,368.483,M,49.480,M,2.70,0195*76
$GPVTG,38.0910,T,38.0910,M,0.399,N,0.739,K,D*28
$GPGGA,134606.60,4612.0346937,N,00607.2186744,E,2,06,2.0,368.472,M,49.480,M,3.10,0195*71
$GPVTG,31.5426,T,31.5426,M,0.420,N,0.778,K,D*28
$RDENS,932,4956512,PC
$GPGGA,134606.80,4612.0347168,N,00607.2186957,E,2,06,2.0,368.470,M,49.480,M,3.30,0195*70
$GPVTG,42.0348,T,42.0348,M,0.460,N,0.853,K,D*2A
$GPGGA,134607.20,4612.0347579,N,00607.2187460,E,2,06,2.0,368.477,M,49.480,M,3.70,0195*74
$GPVTG,35.5133,T,35.5133,M,0.553,N,1.025,K,D*23
$GPGGA,134607.40,4612.0347802,N,00607.2187767,E,2,06,2.0,368.474,M,49.480,M,3.90,0195*7A
$GPVTG,43.0662,T,43.0662,M,0.580,N,1.075,K,D*28
$RDENS,933,4956609,PC
$GPGGA,134607.60,4612.0348062,N,00607.2188086,E,2,06,2.0,368.476,M,49.480,M,4.10,0195*73
$GPVTG,44.8562,T,44.8562,M,0.620,N,1.149,K,D*2F
$GPGGA,134608.00,4612.0348639,N,00607.2188781,E,2,06,2.0,368.490,M,49.480,M,4.50,0195*7E
$GPVTG,42.4536,T,42.4536,M,0.704,N,1.305,K,D*22
$GPGGA,134608.20,4612.0348849,N,00607.2189228,E,2,06,2.0,368.476,M,49.480,M,4.70,0195*78
$GPVTG,48.8086,T,48.8086,M,0.687,N,1.272,K,D*29
$GPGGA,134608.60,4612.0349378,N,00607.2190081,E,2,06,2.0,368.478,M,49.480,M,5.10,0195*74
$RDENS,934,4956706,PC
$GPVTG,45.8613,T,45.8613,M,0.759,N,1.407,K,D*2F
$GPGGA,134608.80,4612.0349731,N,00607.2190528,E,2,06,2.0,368.497,M,49.480,M,5.30,0195*76
$GPVTG,41.0587,T,41.0587,M,0.773,N,1.433,K,D*20
$GPGGA,134609.20,4612.0350350,N,00607.2191360,E,2,06,2.0,368.496,M,49.480,M,5.70,0195*78
$GPVTG,42.2076,T,42.2076,M,0.759,N,1.407,K,D*2F
$GPGGA,134609.40,4612.0350754,N,00607.2191814,E,2,06,2.0,368.486,M,49.480,M,5.90,0195*79
$RDENS,935,4956795,PC
$GPVTG,34.8884,T,34.8884,M,0.779,N,1.444,K,D*2A
$GPGGA,134609.80,4612.0351367,N,00607.2192606,E,2,06,2.0,368.475,M,49.480,M,6.30,0195*7B
$GPVTG,33.0326,T,33.0326,M,0.832,N,1.542,K,D*2D
$GPGGA,134610.00,4612.0351865,N,00607.2192911,E,2,06,2.0,368.498,M,49.480,M,6.50,0195*7E
$GPVTG,31.2754,T,31.2754,M,0.826,N,1.531,K,D*2C
$GPGGA,134610.40,4612.0352698,N,00607.2193539,E,2,06,2.0,368.496,M,49.480,M,6.90,0195*70
$GPVTG,21.9468,T,21.9468,M,0.889,N,1.647,K,D*2B
$RDENS,936,4956885,PC
$GPGGA,134610.60,4612.0353112,N,00607.2193821,E,2,06,2.0,368.500,M,49.480,M,7.10,0195*75
$GPVTG,19.9166,T,19.9166,M,0.817,N,1.514,K,D*29
$GPGGA,134610.80,4612.0353579,N,00607.2194019,E,2,06,2.0,368.481,M,49.480,M,7.30,0195*7C
$GPVTG,9.9041,T,9.9041,M,0.887,N,1.643,K,D*21
$GPVTG,3.5677,T,3.5677,M,0.878,N,1.626,K,D*22
$GPGGA,134611.20,4612.0354479,N,00607.2194181,E,2,06,2.0,368.464,M,49.480,M,0.06,0195*78
$RDENS,937,4956974,PC
$GPVTG,353.2143,T,353.2143,M,0.979,N,1.815,K,D*2C
$GPGGA,134611.60,4612.0355761,N,00607.2194000,E,2,06,2.0,368.504,M,49.480,M,0.07,0195*79
$GPVTG,356.5009,T,356.5009,M,1.060,N,1.964,K,D*2B
$GPGGA,134611.80,4612.0356300,N,00607.2193859,E,4,06,2.0,368.498,M,49.480,M,0.10,0195*70
$GPVTG,341.2992,T,341.2992,M,1.212,N,2.246,K,D*24
$GPGGA,134612.20,4612.0357514,N,00607.2193243,E,4,06,2.0,368.498,M,49.480,M,0.50,0195*7E
$RDENS,938,4957063,PC
$GPVTG,339.1589,T,339.1589,M,1.182,N,2.191,K,D*27
$GPGGA,134612.40,4612.0358213,N,00607.2192788,E,4,06,2.0,368.506,M,49.480,M,0.70,0195*70
$GPVTG,330.6041,T,330.6041,M,1.410,N,2.613,K,D*24
$GPGGA,134612.80,4612.0359576,N,00607.2191505,E,4,06,2.0,368.495,M,49.480,M,0.05,0195*74
$GPVTG,324.2020,T,324.2020,M,1.624,N,3.010,K,D*25
$GPGGA,134613.00,4612.0360340,N,00607.2190803,E,4,06,2.0,368.527,M,49.480,M,0.25,0195*74
$RDENS,939,4957153,PC
$GPVTG,318.6628,T,318.6628,M,1.632,N,3.025,K,D*24
$GPGGA,134613.40,4612.0361835,N,00607.2188929,E,4,06,2.0,368.524,M,49.480,M,0.65,0195*7F
$GPVTG,319.0403,T,319.0403,M,1.824,N,3.380,K,D*21
$GPGGA,134613.60,4612.0362569,N,00607.2187854,E,4,06,2.0,368.553,M,49.480,M,0.10,0195*7C
$GPVTG,316.4918,T,316.4918,M,1.968,N,3.648,K,D*29
$GPGGA,134614.00,4612.0364052,N,00607.2185534,E,4,06,2.0,368.551,M,49.480,M,0.50,0195*79
$RDENS,940,4957242,PC
$GPVTG,310.3696,T,310.3696,M,2.091,N,3.874,K,D*24
$GPGGA,134614.20,4612.0364698,N,00607.2184263,E,4,06,2.0,368.518,M,49.480,M,0.70,0195*70
$GPVTG,306.4684,T,306.4684,M,2.264,N,4.195,K,D*2D
$GPGGA,134614.40,4612.0365501,N,00607.2182750,E,4,06,2.0,368.521,M,49.480,M,0.15,0195*7E
$GPVTG,305.7221,T,305.7221,M,2.395,N,4.438,K,D*20
$GPGGA,134614.80,4612.0366934,N,00607.2179630,E,4,06,2.0,368.493,M,49.480,M,0.04,0195*70
$GPVTG,302.0956,T,302.0956,M,2.427,N,4.497,K,D*2B
$RDENS,941,4957333,PC
$GPGGA,134615.00,4612.0367759,N,00607.2177899,E,4,06,2.0,368.498,M,49.480,M,0.17,0195*77
$GPVTG,301.7357,T,301.7357,M,2.593,N,4.805,K,D*22
$GPGGA,134615.40,4612.0369309,N,00607.2174344,E,4,06,2.0,368.514,M,49.480,M,0.23,0195*76
$GPVTG,302.1849,T,302.1849,M,2.638,N,4.888,K,D*25
$GPGGA,134615.60,4612.0370049,N,00607.2172407,E,4,06,2.0,368.504,M,49.480,M,0.17,0195*7B
$GPVTG,302.0372,T,302.0372,M,2.826,N,5.238,K,D*24
$RDENS,942,4957423,PC
$GPGGA,134616.00,4612.0371877,N,00607.2168451,E,4,06,2.0,368.534,M,49.480,M,0.23,0195*76
$GPVTG,301.4495,T,301.4495,M,2.952,N,5.471,K,D*2D
$GPGGA,134616.20,4612.0372743,N,00607.2166402,E,4,06,2.0,368.527,M,49.480,M,0.43,0195*73
$GPVTG,302.3014,T,302.3014,M,3.100,N,5.746,K,D*24
$GPGGA,134616.60,4612.0374640,N,00607.2162187,E,4,06,2.0,368.518,M,49.480,M,0.10,0195*75
$GPVTG,303.4615,T,303.4615,M,3.228,N,5.982,K,D*2B
$RDENS,943,4957514,PC
$GPGGA,134616.80,4612.0375640,N,00607.2160114,E,4,06,2.0,368.506,M,49.480,M,0.30,0195*7F
$GPVTG,306.2269,T,306.2269,M,3.311,N,6.136,K,D*24
$GPGGA,134617.20,4612.0377601,N,00607.2155850,E,4,06,2.0,368.503,M,49.480,M,0.70,0195*7D
$GPVTG,304.0445,T,304.0445,M,3.252,N,6.027,K,D*23
$GPGGA,134617.40,4612.0378854,N,00607.2153690,E,4,06,2.0,368.506,M,49.480,M,0.04,0195*78
$GPVTG,307.1787,T,307.1787,M,3.326,N,6.163,K,D*20
$RDENS,944,4957605,PC
$GPGGA,134617.80,4612.0381076,N,00607.2149614,E,4,05,4.6,368.506,M,49.481,M,0.36,0195*7E
$GPVTG,310.0133,T,310.0133,M,3.446,N,6.387,K,D*29
$GPGGA,134618.00,4612.0382104,N,00607.2147612,E,4,05,4.6,368.489,M,49.481,M,0.56,0195*76
$GPVTG,310.6198,T,310.6198,M,3.461,N,6.414,K,D*21
$GPGGA,134618.40,4612.0384737,N,00607.2143522,E,4,05,4.6,368.477,M,49.481,M,0.96,0195*7B
$GPVTG,313.1741,T,313.1741,M,3.367,N,6.239,K,D*29
$RDENS,945,4957696,PC
$GPGGA,134618.60,4612.0385904,N,00607.2141753,E,4,05,4.6,368.473,M,49.481,M,1.16,0195*7D
$GPVTG,316.2047,T,316.2047,M,3.285,N,6.089,K,D*2D
$GPGGA,134619.00,4612.0388427,N,00607.2138221,E,4,05,4.6,368.439,M,49.481,M,1.56,0195*7F
$GPVTG,316.7586,T,316.7586,M,3.247,N,6.017,K,D*24
$GPGGA,134619.20,4612.0389790,N,00607.2136522,E,4,05,4.6,368.454,M,49.481,M,1.76,0195*70
$GPVTG,320.2240,T,320.2240,M,3.221,N,5.969,K,D*27
$RDENS,946,4957787,PC
$GPGGA,134619.40,4612.0391025,N,00607.2135009,E,4,05,4.6,368.453,M,49.481,M,0.18,0195*77
$GPVTG,322.2332,T,322.2332,M,3.245,N,6.013,K,D*22
$GPGGA,134619.80,4612.0393958,N,00607.2131826,E,4,05,4.6,368.430,M,49.481,M,0.22,0195*77
$GPVTG,324.0912,T,324.0912,M,3.200,N,5.930,K,D*28
$GPGGA,134620.00,4612.0395466,N,00607.2130333,E,4,05,4.6,368.422,M,49.481,M,0.42,0195*78
$GPVTG,325.7854,T,325.7854,M,3.158,N,5.853,K,D*22
$RDENS,947,4957877,PC
$GPGGA,134620.40,4612.0398334,N,00607.2127604,E,4,05,4.6,368.396,M,49.481,M,0.82,0195*72
$GPVTG,328.7515,T,328.7515,M,3.144,N,5.827,K,D*2C
$GPGGA,134620.60,4612.0399855,N,00607.2126308,E,4,05,4.6,368.408,M,49.481,M,1.02,0195*7C
$GPVTG,330.3440,T,330.3440,M,3.098,N,5.742,K,D*20
$GPGGA,134621.00,4612.0402853,N,00607.2123835,E,4,05,4.6,368.420,M,49.481,M,1.42,0195*76
$GPVTG,330.1741,T,330.1741,M,3.054,N,5.660,K,D*21
$RDENS,948,4957968,PC
$GPGGA,134621.20,4612.0404421,N,00607.2122616,E,4,05,4.6,368.423,M,49.481,M,0.05,0195*74
$GPVTG,332.4772,T,332.4772,M,3.016,N,5.589,K,D*23
$GPGGA,134621.60,4612.0407310,N,00607.2120447,E,4,05,4.6,368.417,M,49.481,M,0.05,0195*75
$GPVTG,333.2487,T,333.2487,M,3.158,N,5.852,K,D*23
$GPGGA,134621.80,4612.0408990,N,00607.2119296,E,4,05,4.6,368.440,M,49.481,M,0.15,0195*75
$GPVTG,335.1510,T,335.1510,M,3.172,N,5.878,K,D*23
$GPGGA,134622.20,4612.0412241,N,00607.2117208,E,4,05,4.6,368.444,M,49.481,M,0.23,0195*78
$RDENS,949,4958059,PC
$GPVTG,334.8324,T,334.8324,M,3.140,N,5.818,K,D*24
$GPGGA,134622.40,4612.0413856,N,00607.2116133,E,4,05,4.6,368.448,M,49.481,M,0.43,0195*73
$GPVTG,336.8789,T,336.8789,M,3.216,N,5.960,K,D*2A
$GPGGA,134622.80,4612.0417237,N,00607.2114090,E,4,05,4.6,368.446,M,49.481,M,0.22,0195*75
$GPVTG,337.2695,T,337.2695,M,3.258,N,6.037,K,D*28
$GPGGA,134623.00,4612.0418664,N,00607.2113259,E,4,05,4.6,368.412,M,49.481,M,0.42,0195*76
$RDENS,950,4958149,PC
$GPVTG,338.1700,T,338.1700,M,3.408,N,6.315,K,D*28
$GPGGA,134623.40,4612.0422354,N,00607.2111115,E,4,05,4.6,368.428,M,49.481,M,0.82,0195*71
$GPVTG,338.2997,T,338.2997,M,3.445,N,6.385,K,D*28
$GPGGA,134623.60,4612.0424414,N,00607.2109983,E,4,05,4.6,368.446,M,49.481,M,0.08,0195*72
$GPVTG,339.0679,T,339.0679,M,3.564,N,6.605,K,D*27
$GPGGA,134623.80,4612.0426080,N,00607.2109033,E,4,05,4.6,368.457,M,49.481,M,0.28,0195*77
$RDENS,951,4958240,PC
$GPVTG,338.8670,T,338.8670,M,3.576,N,6.628,K,D*2B
$GPGGA,134624.20,4612.0430195,N,00607.2106751,E,4,05,4.6,368.496,M,49.481,M,0.68,0195*7D
$GPVTG,339.2012,T,339.2012,M,3.749,N,6.948,K,D*2C
$GPGGA,134624.40,4612.0431875,N,00607.2105872,E,4,05,4.6,368.472,M,49.481,M,0.88,0195*74
$GPVTG,340.1747,T,340.1747,M,3.682,N,6.824,K,D*21
$GPGGA,134624.80,4612.0435517,N,00607.2104008,E,4,05,4.6,368.441,M,49.481,M,0.15,0195*75
$RDENS,952,4958331,PC
$GPVTG,341.2054,T,341.2054,M,3.691,N,6.841,K,D*20
$GPGGA,134625.00,4612.0437157,N,00607.2103187,E,4,05,4.6,368.410,M,49.481,M,0.35,0195*79
$GPVTG,341.3896,T,341.3896,M,3.621,N,6.712,K,D*22
$GPGGA,134625.40,4612.0441192,N,00607.2101274,E,4,05,4.6,368.430,M,49.481,M,0.06,0195*7A
$GPVTG,342.1556,T,342.1556,M,3.612,N,6.693,K,D*2A
$GPGGA,134625.60,4612.0443182,N,00607.2100430,E,4,05,4.6,368.420,M,49.481,M,0.14,0195*7E
$GPVTG,344.0488,T,344.0488,M,3.531,N,6.544,K,D*21
$RDENS,953,4958422,PC
$GPGGA,134626.00,4612.0446898,N,00607.2098997,E,4,05,4.6,368.433,M,49.481,M,0.54,0195*7A
$GPVTG,345.1819,T,345.1819,M,3.544,N,6.568,K,D*2D
$GPGGA,134626.20,4612.0448729,N,00607.2098309,E,4,05,4.6,368.423,M,49.481,M,0.74,0195*7D
$GPVTG,346.2373,T,346.2373,M,3.357,N,6.222,K,D*20
$GPGGA,134626.60,4612.0452296,N,00607.2097083,E,4,05,4.6,368.405,M,49.481,M,1.14,0195*7E
$GPVTG,347.0403,T,347.0403,M,3.265,N,6.051,K,D*26
$RDENS,954,4958513,PC
$GPGGA,134626.80,4612.0454017,N,00607.2096500,E,4,05,4.6,368.405,M,49.481,M,1.34,0195*70
$GPVTG,347.9612,T,347.9612,M,3.093,N,5.731,K,D*2F
$GPGGA,134627.20,4612.0457243,N,00607.2095540,E,4,05,4.6,368.400,M,49.481,M,0.04,0195*7B
$GPVTG,348.3353,T,348.3353,M,2.965,N,5.495,K,D*23
$GPGGA,134627.40,4612.0458855,N,00607.2095078,E,4,05,4.6,368.411,M,49.481,M,0.24,0195*73
$GPVTG,349.1511,T,349.1511,M,2.842,N,5.268,K,D*23
$RDENS,955,4958604,PC
$GPGGA,134627.80,4612.0461909,N,00607.2094149,E,4,05,4.6,368.420,M,49.481,M,0.24,0195*7D
$GPVTG,347.7680,T,347.7680,M,2.723,N,5.046,K,D*25
$GPGGA,134628.00,4612.0463478,N,00607.2093666,E,4,05,4.7,368.427,M,49.481,M,0.44,0195*7E
$GPVTG,348.1672,T,348.1672,M,2.702,N,5.008,K,D*2C
$GPGGA,134628.20,4612.0464754,N,00607.2093316,E,4,05,4.7,368.413,M,49.481,M,0.64,0195*71
$GPVTG,347.9212,T,347.9212,M,2.722,N,5.044,K,D*26
$RDENS,956,4958696,PC
$GPGGA,134628.60,4612.0467881,N,00607.2092286,E,4,05,4.7,368.420,M,49.481,M,0.03,0195*79
$GPVTG,347.9380,T,347.9380,M,2.672,N,4.951,K,D*2E
$GPGGA,134628.80,4612.0469424,N,00607.2091720,E,4,05,4.7,368.436,M,49.481,M,0.23,0195*75
$GPVTG,347.0540,T,347.0540,M,2.656,N,4.922,K,D*2C
$GPGGA,134629.20,4612.0472080,N,00607.2090853,E,4,05,4.7,368.424,M,49.481,M,0.63,0195*73
$GPVTG,346.3904,T,346.3904,M,2.595,N,4.809,K,D*28
$RDENS,957,4958787,PC
$GPGGA,134629.40,4612.0473542,N,00607.2090325,E,4,05,4.7,368.433,M,49.481,M,0.09,0195*7F
$GPVTG,345.2123,T,345.2123,M,2.686,N,4.978,K,D*2E
$GPGGA,134629.80,4612.0476571,N,00607.2089174,E,4,05,4.7,368.440,M,49.481,M,0.31,0195*77
$GPVTG,345.7080,T,345.7080,M,2.700,N,5.004,K,D*22
$GPGGA,134630.00,4612.0477915,N,00607.2088576,E,4,05,4.7,368.425,M,49.481,M,0.51,0195*7A
$GPVTG,343.5216,T,343.5216,M,2.704,N,5.012,K,D*21
$RDENS,958,4958878,PC
$GPGGA,134630.40,4612.0480883,N,00607.2087278,E,4,05,4.7,368.427,M,49.481,M,0.05,0195*7D
$GPVTG,342.0886,T,342.0886,M,2.787,N,5.164,K,D*2A
$GPGGA,134630.60,4612.0482331,N,00607.2086560,E,4,05,4.7,368.438,M,49.481,M,0.15,0195*7F
$GPVTG,341.6623,T,341.6623,M,2.843,N,5.269,K,D*23
$GPGGA,134631.00,4612.0485222,N,00607.2085163,E,4,05,4.7,368.435,M,49.481,M,0.55,0195*71
$GPVTG,340.9713,T,340.9713,M,2.877,N,5.331,K,D*28
$GPGGA,134631.20,4612.0487005,N,00607.2084219,E,4,05,4.7,368.466,M,49.481,M,0.75,0195*7D
$RDENS,959,4958969,PC
$GPVTG,340.0670,T,340.0670,M,2.961,N,5.487,K,D*24
$GPGGA,134631.60,4612.0489815,N,00607.2082754,E,4,05,4.7,368.439,M,49.481,M,1.15,0195*79
$GPVTG,339.2263,T,339.2263,M,2.894,N,5.364,K,D*25
$GPGGA,134631.80,4612.0491469,N,00607.2081885,E,4,05,4.7,368.439,M,49.481,M,1.35,0195*7B
$GPVTG,339.4619,T,339.4619,M,2.918,N,5.408,K,D*2D
$GPGGA,134632.20,4612.0494505,N,00607.2080286,E,4,05,4.7,368.430,M,49.481,M,0.21,0195*79
$RDENS,960,4959060,PC
$GPVTG,339.9656,T,339.9656,M,2.990,N,5.541,K,D*21
$GPGGA,134632.40,4612.0496249,N,00607.2079389,E,4,05,4.7,368.449,M,49.481,M,0.08,0195*7F
$GPVTG,340.3773,T,340.3773,M,2.955,N,5.477,K,D*2C
$GPGGA,134632.80,4612.0499353,N,00607.2077802,E,4,05,4.7,368.459,M,49.481,M,0.32,0195*78
$GPVTG,340.4554,T,340.4554,M,2.936,N,5.441,K,D*2C
$GPVTG,341.8142,T,341.8142,M,2.837,N,5.259,K,D*23
$RDENS,961,4959150,PC
$GPGGA,134633.20,4612.0502103,N,00607.2076515,E,4,05,4.7,368.431,M,49.481,M,0.72,0195*77
$GPVTG,341.7744,T,341.7744,M,2.911,N,5.394,K,D*26
$GPGGA,134633.40,4612.0503486,N,00607.2075875,E,4,05,4.7,368.413,M,49.481,M,0.14,0195*70
$GPVTG,343.9182,T,343.9182,M,2.779,N,5.150,K,D*2C
$GPGGA,134633.80,4612.0506838,N,00607.2074412,E,4,05,4.7,368.435,M,49.481,M,0.26,0195*79
$GPVTG,343.8429,T,343.8429,M,2.810,N,5.208,K,D*22
$RDENS,962,4959241,PC
$GPGGA,134634.00,4612.0508297,N,00607.2073811,E,4,05,4.7,368.436,M,49.481,M,0.46,0195*7A
$GPVTG,345.0213,T,345.0213,M,2.657,N,4.925,K,D*2A
$GPGGA,134634.40,4612.0511071,N,00607.2072753,E,4,05,4.7,368.411,M,49.481,M,0.86,0195*7D
$GPVTG,344.9442,T,344.9442,M,2.607,N,4.832,K,D*28
$GPGGA,134634.60,4612.0512407,N,00607.2072262,E,4,05,4.7,368.418,M,49.481,M,1.06,0195*7E
$GPVTG,346.0653,T,346.0653,M,2.430,N,4.503,K,D*21
$RDENS,963,4959332,PC
$GPGGA,134635.00,4612.0514975,N,00607.2071317,E,4,05,4.7,368.418,M,49.481,M,0.13,0195*72
$GPVTG,345.6803,T,345.6803,M,2.374,N,4.400,K,D*24
$GPGGA,134635.20,4612.0516232,N,00607.2070858,E,4,05,4.7,368.426,M,49.481,M,0.33,0195*74
$GPVTG,345.6887,T,345.6887,M,2.231,N,4.135,K,D*27
$GPGGA,134635.60,4612.0518735,N,00607.2069951,E,4,05,4.7,368.419,M,49.481,M,0.15,0195*74
$GPVTG,346.6913,T,346.6913,M,2.246,N,4.163,K,D*24
$RDENS,964,4959423,PC
$GPGGA,134635.80,4612.0519920,N,00607.2069542,E,4,05,4.7,368.420,M,49.481,M,0.35,0195*77
$GPVTG,346.8949,T,346.8949,M,2.217,N,4.108,K,D*2D
$GPGGA,134636.20,4612.0522255,N,00607.2068768,E,4,05,4.7,368.430,M,49.481,M,0.75,0195*71
$GPVTG,347.6515,T,347.6515,M,2.142,N,3.970,K,D*2E
$GPGGA,134636.40,4612.0523462,N,00607.2068417,E,4,05,4.7,368.435,M,49.481,M,0.95,0195*74
$GPVTG,349.1118,T,349.1118,M,2.089,N,3.872,K,D*2B
$RDENS,965,4959514,PC
$GPGGA,134636.80,4612.0525744,N,00607.2067825,E,4,05,4.7,368.431,M,49.481,M,1.35,0195*74
$GPVTG,349.0765,T,349.0765,M,2.204,N,4.085,K,D*2B
$GPGGA,134637.00,4612.0526875,N,00607.2067559,E,4,05,4.7,368.431,M,49.481,M,0.06,0195*74
$GPVTG,350.5641,T,350.5641,M,2.134,N,3.955,K,D*28
$GPGGA,134637.20,4612.0528040,N,00607.2067274,E,4,05,4.7,368.431,M,49.481,M,0.14,0195*7D
$GPVTG,352.3371,T,352.3371,M,2.083,N,3.860,K,D*22
$GPGGA,134637.60,4612.0530620,N,00607.2066724,E,4,05,4.7,368.449,M,49.481,M,0.54,0195*7A
$RDENS,966,4959605,PC
$GPVTG,351.5315,T,351.5315,M,2.086,N,3.866,K,D*21
$GPGGA,134637.80,4612.0531571,N,00607.2066561,E,4,05,4.7,368.431,M,49.481,M,0.74,0195*7C
$GPVTG,353.4087,T,353.4087,M,2.082,N,3.858,K,D*28
$GPGGA,134638.20,4612.0534041,N,00607.2066083,E,4,05,4.7,368.449,M,49.481,M,1.14,0195*7B
$GPVTG,352.1255,T,352.1255,M,2.122,N,3.933,K,D*2F
$GPGGA,134638.40,4612.0535227,N,00607.2065848,E,4,05,4.7,368.457,M,49.481,M,1.34,0195*7F
$RDENS,967,4959695,PC
$GPVTG,352.9682,T,352.9682,M,2.105,N,3.902,K,D*28
$GPGGA,134638.80,4612.0537457,N,00607.2065493,E,4,05,4.7,368.441,M,49.481,M,1.74,0195*79
$GPVTG,352.7946,T,352.7946,M,2.105,N,3.902,K,D*28
$GPGGA,134639.00,4612.0538627,N,00607.2065287,E,4,05,4.7,368.434,M,49.481,M,0.01,0195*78
$GPVTG,351.8698,T,351.8698,M,2.092,N,3.878,K,D*2B
$GPGGA,134639.40,4612.0541000,N,00607.2064924,E,4,05,4.7,368.441,M,49.481,M,0.12,0195*72
$RDENS,968,4959784,PC
$GPVTG,354.3517,T,354.3517,M,2.186,N,4.051,K,D*2B
$GPGGA,134639.60,4612.0542075,N,00607.2064809,E,4,05,4.7,368.435,M,49.481,M,0.10,0195*7E
$GPVTG,354.5466,T,354.5466,M,2.180,N,4.040,K,D*2D
$GPGGA,134640.00,4612.0544797,N,00607.2064394,E,4,05,4.7,368.472,M,49.481,M,0.30,0195*75
$GPVTG,357.2747,T,357.2747,M,2.259,N,4.187,K,D*20
$GPGGA,134640.20,4612.0545916,N,00607.2064343,E,4,05,4.7,368.471,M,49.481,M,0.50,0195*7E
$RDENS,969,4959875,PC
$GPVTG,358.6966,T,358.6966,M,2.419,N,4.482,K,D*22
$GPGGA,134640.60,4612.0548398,N,00607.2064298,E,4,05,4.7,368.462,M,49.481,M,0.90,0195*72
$GPVTG,358.5480,T,358.5480,M,2.344,N,4.344,K,D*20
$GPGGA,134640.80,4612.0549761,N,00607.2064293,E,4,05,4.7,368.466,M,49.481,M,1.10,0195*79
$GPVTG,359.3732,T,359.3732,M,2.399,N,4.447,K,D*24
$GPGGA,134641.20,4612.0552596,N,00607.2064271,E,4,05,4.7,368.463,M,49.481,M,1.50,0195*7F
$GPVTG,1.2684,T,1.2684,M,2.467,N,4.572,K,D*25
$RDENS,970,4959966,PC
$GPGGA,134641.40,4612.0553929,N,00607.2064345,E,4,05,4.7,368.454,M,49.481,M,1.70,0195*70
$GPVTG,3.6128,T,3.6128,M,2.401,N,4.450,K,D*24
$GPGGA,134641.60,4612.0555401,N,00607.2064389,E,4,05,4.7,368.467,M,49.481,M,1.90,0195*7D
$GPVTG,4.5043,T,4.5043,M,2.419,N,4.484,K,D*24
$GPGGA,134641.80,4612.0556523,N,00607.2064651,E,4,05,4.7,368.435,M,49.481,M,2.10,0195*7D
$GPVTG,5.2278,T,5.2278,M,2.395,N,4.439,K,D*21
$RDENS,971,4960056,PC
$GPGGA,134642.20,4612.0559253,N,00607.2064971,E,4,05,4.7,368.432,M,49.481,M,0.01,0195*73
$GPVTG,7.8769,T,7.8769,M,2.287,N,4.238,K,D*24
$GPGGA,134642.40,4612.0560829,N,00607.2065092,E,4,06,2.0,368.451,M,49.481,M,0.21,0195*78
$GPVTG,7.5124,T,7.5124,M,2.388,N,4.425,K,D*20
$GPGGA,134642.80,4612.0563392,N,00607.2065630,E,4,06,2.0,368.445,M,49.481,M,0.61,0195*73
$GPVTG,9.6738,T,9.6738,M,2.297,N,4.257,K,D*2C
$RDENS,972,4960147,PC
$GPGGA,134643.00,4612.0564706,N,00607.2065868,E,4,06,2.0,368.469,M,49.481,M,0.81,0195*77
$GPVTG,10.7042,T,10.7042,M,2.242,N,4.154,K,D*24
$GPGGA,134643.40,4612.0567211,N,00607.2066501,E,4,06,2.0,368.472,M,49.481,M,1.21,0195*73
$GPVTG,12.5948,T,12.5948,M,2.222,N,4.119,K,D*2B
$GPGGA,134643.80,4612.0569709,N,00607.2067244,E,4,06,2.0,368.487,M,49.481,M,1.61,0195*74
$GPVTG,11.5781,T,11.5781,M,2.230,N,4.133,K,D*20
$RDENS,973,4960237,PC
$GPGGA,134644.00,4612.0570964,N,00607.2067662,E,4,06,2.0,368.483,M,49.481,M,1.81,0195*7C
$GPVTG,14.1196,T,14.1196,M,2.292,N,4.248,K,D*27
$GPGGA,134644.20,4612.0572196,N,00607.2068054,E,4,06,2.0,368.490,M,49.481,M,2.01,0195*7C
$GPVTG,14.1832,T,14.1832,M,2.206,N,4.088,K,D*24
$GPGGA,134644.60,4612.0574528,N,00607.2069042,E,4,06,2.0,368.467,M,49.481,M,2.41,0195*75
$GPVTG,15.3171,T,15.3171,M,2.304,N,4.270,K,D*22
$RDENS,974,4960328,PC
$GPGGA,134644.80,4612.0575777,N,00607.2069471,E,4,06,2.0,368.480,M,49.481,M,2.61,0195*7D
$GPVTG,16.1102,T,16.1102,M,2.293,N,4.250,K,D*2F
$GPGGA,134645.20,4612.0578221,N,00607.2070472,E,4,06,2.0,368.490,M,49.481,M,3.01,0195*70
$GPVTG,17.4800,T,17.4800,M,2.169,N,4.019,K,D*26
$GPGGA,134645.40,4612.0579340,N,00607.2071025,E,4,06,2.0,368.473,M,49.481,M,3.21,0195*79
$GPVTG,17.4243,T,17.4243,M,2.268,N,4.204,K,D*2A
$GPGGA,134645.80,4612.0581726,N,00607.2072046,E,4,06,2.0,368.487,M,49.481,M,3.61,0195*7F
$RDENS,975,4960419,PC
$GPVTG,17.4514,T,17.4514,M,2.194,N,4.066,K,D*2C
$GPGGA,134646.00,4612.0582803,N,00607.2072634,E,4,06,2.0,368.462,M,49.481,M,3.81,0195*79
$GPVTG,18.2442,T,18.2442,M,2.242,N,4.155,K,D*25
$GPGGA,134646.40,4612.0585188,N,00607.2073689,E,4,06,2.0,368.471,M,49.481,M,4.21,0195*78
$GPVTG,17.7936,T,17.7936,M,2.169,N,4.019,K,D*26
$GPGGA,134646.60,4612.0586379,N,00607.2074244,E,4,06,2.0,368.477,M,49.481,M,4.41,0195*77
$RDENS,976,4960510,PC
$GPVTG,17.8770,T,17.8770,M,2.149,N,3.982,K,D*28
$GPGGA,134646.80,4612.0587495,N,00607.2074784,E,4,06,2.0,368.475,M,49.481,M,4.61,0195*74
$GPVTG,18.1929,T,18.1929,M,2.176,N,4.033,K,D*20
$GPGGA,134647.20,4612.0589750,N,00607.2075870,E,4,06,2.0,368.467,M,49.481,M,5.01,0195*7A
$GPVTG,17.5659,T,17.5659,M,2.150,N,3.985,K,D*27
$GPGGA,134647.40,4612.0590926,N,00607.2076349,E,4,06,2.0,368.467,M,49.481,M,0.18,0195*74
$RDENS,977,4960599,PC
$GPVTG,15.9742,T,15.9742,M,2.151,N,3.985,K,D*26
$GPGGA,134647.80,4612.0593212,N,00607.2077247,E,4,06,2.0,368.456,M,49.481,M,0.21,0195*71
$GPVTG,14.9231,T,14.9231,M,2.144,N,3.973,K,D*2B
$GPGGA,134648.00,4612.0594398,N,00607.2077666,E,4,06,2.0,368.456,M,49.481,M,0.41,0195*73
$GPVTG,12.4586,T,12.4586,M,2.228,N,4.128,K,D*23
$GPGGA,134648.40,4612.0596817,N,00607.2078373,E,4,06,2.0,368.455,M,49.481,M,0.81,0195*78
$GPVTG,11.0621,T,11.0621,M,2.191,N,4.060,K,D*2F
$RDENS,978,4960690,PC
$GPGGA,134648.60,4612.0598040,N,00607.2078672,E,4,06,2.0,368.456,M,49.481,M,1.01,0195*70
$GPVTG,8.9855,T,8.9855,M,2.227,N,4.128,K,D*2C
$GPGGA,134648.80,4612.0599212,N,00607.2078944,E,4,06,2.0,368.448,M,49.481,M,1.21,0195*7D
$GPVTG,7.0606,T,7.0606,M,2.228,N,4.129,K,D*22
$GPGGA,134649.00,4612.0600504,N,00607.2079146,E,4,06,2.0,368.467,M,49.481,M,1.41,0195*77
$GPVTG,6.0530,T,6.0530,M,2.282,N,4.228,K,D*20
$RDENS,979,4960787,PC
$GPGGA,134649.40,4612.0603010,N,00607.2079529,E,4,06,2.0,368.473,M,49.481,M,1.81,0195*74
$GPVTG,3.2715,T,3.2715,M,2.416,N,4.477,K,D*27
$GPGGA,134649.60,4612.0604316,N,00607.2079670,E,4,06,2.0,368.473,M,49.481,M,2.01,0195*70
$GPVTG,1.8506,T,1.8506,M,2.504,N,4.640,K,D*23
$GPGGA,134650.00,4612.0607178,N,00607.2079785,E,4,06,2.0,368.486,M,49.481,M,2.41,0195*72
$GPVTG,359.8957,T,359.8957,M,2.525,N,4.679,K,D*2A
$GPGGA,134650.40,4612.0609940,N,00607.2079844,E,4,06,2.0,368.463,M,49.481,M,2.81,0195*7E
$RDENS,980,4960883,PC
$GPVTG,359.8192,T,359.8192,M,2.616,N,4.848,K,D*25
$GPGGA,134650.60,4612.0611475,N,00607.2079786,E,4,06,2.0,368.467,M,49.481,M,3.01,0195*72
$GPVTG,359.9083,T,359.9083,M,2.661,N,4.931,K,D*2A
$GPGGA,134651.00,4612.0614424,N,00607.2079763,E,4,06,2.0,368.455,M,49.481,M,3.41,0195*7A
$GPVTG,358.8010,T,358.8010,M,2.682,N,4.970,K,D*22
$GPGGA,134651.20,4612.0615885,N,00607.2079789,E,4,06,2.0,368.444,M,49.481,M,3.61,0195*78
$RDENS,981,4960968,PC
$GPVTG,0.4324,T,0.4324,M,2.604,N,4.826,K,D*2E
$GPGGA,134651.40,4612.0617268,N,00607.2079831,E,4,06,2.0,368.445,M,49.481,M,3.81,0195*76
$GPVTG,1.4474,T,1.4474,M,2.710,N,5.022,K,D*27
$GPGGA,134651.80,4612.0620227,N,00607.2079919,E,4,06,2.0,368.446,M,49.481,M,4.21,0195*70
$GPVTG,1.4860,T,1.4860,M,2.583,N,4.786,K,D*27
$GPGGA,134652.00,4612.0621730,N,00607.2079963,E,4,06,2.0,368.453,M,49.481,M,4.41,0195*76
$RDENS,982,4961053,PC
$GPVTG,2.7703,T,2.7703,M,2.595,N,4.809,K,D*28
$GPGGA,134652.20,4612.0623219,N,00607.2080053,E,4,06,2.0,368.456,M,49.481,M,4.61,0195*73
$GPVTG,5.1705,T,5.1705,M,2.488,N,4.610,K,D*23
$GPGGA,134652.60,4612.0625888,N,00607.2080431,E,4,06,2.0,368.443,M,49.481,M,5.01,0195*70
$GPVTG,5.0813,T,5.0813,M,2.393,N,4.435,K,D*2B
$GPGGA,134652.80,4612.0627281,N,00607.2080540,E,4,06,2.0,368.457,M,49.481,M,5.21,0195*7F
$RDENS,983,4961138,PC
$GPVTG,7.1852,T,7.1852,M,2.280,N,4.225,K,D*2F
$GPGGA,134653.20,4612.0629775,N,00607.2081012,E,4,06,2.0,368.456,M,49.481,M,5.61,0195*72
$GPVTG,8.0339,T,8.0339,M,2.183,N,4.045,K,D*2B
$GPGGA,134653.40,4612.0631037,N,00607.2081204,E,4,06,2.0,368.470,M,49.481,M,5.81,0195*73
$GPVTG,7.5853,T,7.5853,M,2.182,N,4.043,K,D*2C
$GPGGA,134653.80,4612.0633356,N,00607.2081756,E,4,06,2.0,368.478,M,49.481,M,6.21,0195*7A
$RDENS,984,4961223,PC
$GPVTG,8.4059,T,8.4059,M,2.155,N,3.993,K,D*25
$GPGGA,134654.00,4612.0634454,N,00607.2082012,E,4,06,2.0,368.462,M,49.481,M,6.41,0195*7E
$GPVTG,8.6570,T,8.6570,M,2.006,N,3.718,K,D*2F
$GPGGA,134654.20,4612.0635516,N,00607.2082288,E,4,06,2.0,368.453,M,49.481,M,6.61,0195*7B
$GPVTG,10.2673,T,10.2673,M,2.104,N,3.899,K,D*2A
$RDENS,985,4961308,PC
$GPGGA,134654.60,4612.0637812,N,00607.2082811,E,4,06,2.0,368.468,M,49.481,M,7.01,0195*71
$GPVTG,11.3887,T,11.3887,M,2.004,N,3.714,K,D*21
$GPGGA,134655.00,4612.0639990,N,00607.2083419,E,4,06,2.0,368.452,M,49.481,M,7.41,0195*7B
$GPVTG,10.6905,T,10.6905,M,1.965,N,3.641,K,D*2D
$GPVTG,9.8812,T,9.8812,M,1.943,N,3.601,K,D*2D
$GPGGA,134655.40,4612.0642057,N,00607.2084008,E,4,06,2.0,368.467,M,49.481,M,7.81,0195*78
$GPVTG,10.7912,T,10.7912,M,1.923,N,3.565,K,D*2A
$RDENS,986,4961393,PC
$GPGGA,134655.60,4612.0643097,N,00607.2084341,E,4,06,2.0,368.467,M,49.481,M,8.01,0195*7E
$GPVTG,10.0450,T,10.0450,M,1.881,N,3.486,K,D*2F
$GPGGA,134656.00,4612.0645052,N,00607.2084939,E,4,06,2.0,368.452,M,49.481,M,8.41,0195*73
$GPVTG,8.2115,T,8.2115,M,1.943,N,3.602,K,D*2E
$GPGGA,134656.20,4612.0646195,N,00607.2085124,E,4,06,2.0,368.446,M,49.481,M,8.61,0195*7A
$GPVTG,8.5453,T,8.5453,M,1.981,N,3.671,K,D*24
$RDENS,987,4961479,PC
$GPGGA,134656.40,4612.0647229,N,00607.2085404,E,4,06,2.0,368.437,M,49.481,M,8.81,0195*76
$GPVTG,6.8055,T,6.8055,M,2.098,N,3.889,K,D*2F
$GPGGA,134656.80,4612.0649591,N,00607.2085823,E,4,06,2.0,368.457,M,49.481,M,9.21,0195*74
$GPVTG,5.8133,T,5.8133,M,2.017,N,3.739,K,D*2C
$GPGGA,134657.00,4612.0650611,N,00607.2086052,E,4,06,2.0,368.445,M,49.481,M,9.41,0195*76
$GPVTG,7.7285,T,7.7285,M,2.100,N,3.893,K,D*24
$RDENS,988,4961565,PC
$GPGGA,134657.20,4612.0651743,N,00607.2086303,E,4,06,2.0,368.450,M,49.481,M,9.61,0195*72
$GPVTG,5.7013,T,5.7013,M,2.174,N,4.029,K,D*29
$GPGGA,134657.60,4612.0654126,N,00607.2086651,E,4,06,2.0,368.470,M,49.481,M,10.01,0195*48
$GPVTG,3.8430,T,3.8430,M,2.178,N,4.036,K,D*2B
$GPGGA,134657.80,4612.0655378,N,00607.2086740,E,4,06,2.0,368.466,M,49.481,M,10.21,0195*4A
$GPVTG,4.6811,T,4.6811,M,2.222,N,4.117,K,D*25
$RDENS,989,4961651,PC
$GPGGA,134658.20,4612.0657865,N,00607.2086979,E,4,06,2.0,368.461,M,49.481,M,10.61,0195*4D
$GPVTG,3.4768,T,3.4768,M,2.251,N,4.172,K,D*22
$GPGGA,134658.40,4612.0659156,N,00607.2087050,E,4,06,2.0,368.465,M,49.481,M,10.81,0195*45
$GPVTG,2.5736,T,2.5736,M,2.337,N,4.331,K,D*26
$GPGGA,134658.80,4612.0661741,N,00607.2087212,E,4,06,2.0,368.490,M,49.481,M,11.21,0195*47
$GPVTG,2.3860,T,2.3860,M,2.324,N,4.308,K,D*2E
$RDENS,990,4961737,PC
$GPGGA,134659.00,4612.0663113,N,00607.2087228,E,4,06,2.0,368.503,M,49.481,M,11.41,0195*49
$GPVTG,3.8522,T,3.8522,M,2.151,N,3.987,K,D*24
$GPGGA,134659.40,4612.0665339,N,00607.2087614,E,2,06,2.0,368.488,M,49.481,M,11.81,0195*42
$GPVTG,3.1670,T,3.1670,M,2.285,N,4.235,K,D*2B
$GPGGA,134659.60,4612.0666637,N,00607.2087670,E,2,06,2.0,368.469,M,49.481,M,12.01,0195*4E
$GPVTG,4.8660,T,4.8660,M,2.022,N,3.748,K,D*2C
$RDENS,991,4961823,PC
$GPGGA,134659.80,4612.0667654,N,00607.2087923,E,2,06,2.0,368.455,M,49.481,M,12.21,0195*40
$GPVTG,4.1456,T,4.1456,M,2.090,N,3.873,K,D*22
$GPGGA,134700.20,4612.0669971,N,00607.2088191,E,2,06,2.0,368.459,M,49.481,M,12.61,0195*47
$GPVTG,2.0290,T,2.0290,M,1.890,N,3.503,K,D*23
$GPGGA,134700.40,4612.0670909,N,00607.2088343,E,2,06,2.0,368.426,M,49.481,M,12.81,0195*4D
$GPVTG,4.7757,T,4.7757,M,1.968,N,3.647,K,D*26
$RDENS,992,4961909,PC
$GPGGA,134700.80,4612.0673009,N,00607.2088571,E,2,06,2.0,368.417,M,49.481,M,13.21,0195*45
$GPVTG,3.9301,T,3.9301,M,1.899,N,3.519,K,D*21
$GPGGA,134701.00,4612.0674165,N,00607.2088630,E,2,06,2.0,368.458,M,49.481,M,13.41,0195*4B
$GPVTG,1.4048,T,1.4048,M,1.748,N,3.240,K,D*29
$GPGGA,134701.40,4612.0676335,N,00607.2088586,E,2,06,2.0,368.471,M,49.481,M,13.81,0195*43
$GPVTG,0.0108,T,0.0108,M,1.750,N,3.244,K,D*24
$RDENS,993,4961995,PC
$GPGGA,134701.60,4612.0677262,N,00607.2088592,E,2,06,2.0,368.462,M,49.481,M,14.01,0195*4B
$GPVTG,0.8940,T,0.8940,M,1.675,N,3.104,K,D*25
$GPGGA,134701.80,4612.0678173,N,00607.2088585,E,2,06,2.0,368.458,M,49.481,M,14.21,0195*44
$GPVTG,0.3138,T,0.3138,M,1.681,N,3.116,K,D*2D
$GPGGA,134702.20,4612.0680012,N,00607.2088611,E,2,06,2.0,368.460,M,49.481,M,14.61,0195*4D
$RDENS,994,4962081,PC
$GPVTG,359.5164,T,359.5164,M,1.650,N,3.058,K,D*2A
$GPGGA,134702.60,4612.0681717,N,00607.2088683,E,2,06,2.0,368.446,M,49.481,M,15.01,0195*42
$GPVTG,358.4642,T,358.4642,M,1.665,N,3.085,K,D*2C
$GPGGA,134702.80,4612.0682699,N,00607.2088694,E,2,06,2.0,368.441,M,49.481,M,15.21,0195*4B
$GPVTG,1.2456,T,1.2456,M,1.654,N,3.066,K,D*23
$GPGGA,134703.00,4612.0683644,N,00607.2088712,E,2,06,2.0,368.459,M,49.481,M,15.41,0195*43
$RDENS,995,4962167,PC
$GPVTG,2.0462,T,2.0462,M,1.695,N,3.141,K,D*2A
$GPGGA,134703.40,4612.0685312,N,00607.2088923,E,2,06,2.0,368.424,M,49.481,M,15.81,0195*4D
$GPVTG,2.4547,T,2.4547,M,1.813,N,3.360,K,D*2B
$GPGGA,134703.60,4612.0686377,N,00607.2088946,E,2,06,2.0,368.439,M,49.481,M,16.01,0195*4B
$GPVTG,3.6792,T,3.6792,M,1.666,N,3.087,K,D*2D
$GPGGA,134704.00,4612.0688302,N,00607.2088968,E,2,06,2.0,368.446,M,49.481,M,16.41,0195*46
$RDENS,996,4962253,PC
$GPVTG,2.3247,T,2.3247,M,1.553,N,2.878,K,D*21
$GPGGA,134704.20,4612.0689208,N,00607.2089019,E,2,06,2.0,368.460,M,49.481,M,16.61,0195*46
$GPVTG,357.8551,T,357.8551,M,1.433,N,2.656,K,D*24
$GPGGA,134704.60,4612.0690761,N,00607.2088965,E,2,06,2.0,368.448,M,49.481,M,17.01,0195*4E
$GPVTG,354.5828,T,354.5828,M,1.451,N,2.689,K,D*22
$GPGGA,134705.00,4612.0692269,N,00607.2088674,E,2,06,2.0,368.480,M,49.481,M,17.41,0195*49
$RDENS,997,4962339,PC
$GPVTG,350.4724,T,350.4724,M,1.248,N,2.313,K,D*2A
$GPGGA,134705.20,4612.0692926,N,00607.2088483,E,2,06,2.0,368.456,M,49.481,M,17.61,0195*48
$GPVTG,348.8676,T,348.8676,M,1.327,N,2.458,K,D*2A
$GPGGA,134705.40,4612.0693746,N,00607.2088210,E,2,06,2.0,368.483,M,49.481,M,17.81,0195*4D
$GPVTG,343.8247,T,343.8247,M,1.345,N,2.493,K,D*29
$GPGGA,134705.80,4612.0695071,N,00607.2087636,E,2,06,2.0,368.462,M,49.481,M,18.21,0195*41
$RDENS,998,4962426,PC
$GPVTG,343.0132,T,343.0132,M,1.303,N,2.415,K,D*25
$GPGGA,134706.00,4612.0695800,N,00607.2087367,E,2,06,2.0,368.458,M,49.481,M,18.41,0195*4A
$GPVTG,341.8074,T,341.8074,M,1.399,N,2.593,K,D*29
$GPGGA,134706.40,4612.0697289,N,00607.2086671,E,2,06,2.0,368.469,M,49.481,M,18.81,0195*4A
$GPVTG,342.8661,T,342.8661,M,1.388,N,2.573,K,D*27
$GPGGA,134706.60,4612.0698057,N,00607.2086277,E,2,06,2.0,368.479,M,49.481,M,19.01,0195*4C
$RDENS,999,4962514,PC
$GPVTG,343.4507,T,343.4507,M,1.523,N,2.823,K,D*28
$GPGGA,134707.00,4612.0699592,N,00607.2085667,E,2,06,2.0,368.472,M,49.481,M,19.41,0195*4F
$GPVTG,343.7599,T,343.7599,M,1.580,N,2.929,K,D*2A
$GPGGA,134707.20,4612.0700501,N,00607.2085236,E,2,06,2.0,368.501,M,49.481,M,19.61,0195*41
$GPVTG,341.6131,T,341.6131,M,1.705,N,3.161,K,D*20
$GPGGA,134707.60,4612.0702224,N,00607.2084471,E,2,06,2.0,368.502,M,49.481,M,20.01,0195*4C
$RDENS,1000,4962601,PC
$GPVTG,342.5447,T,342.5447,M,1.714,N,3.177,K,D*27
$GPGGA,134707.80,4612.0703193,N,00607.2084049,E,2,06,2.0,368.499,M,49.481,M,20.21,0195*42
$GPVTG,345.6786,T,345.6786,M,1.846,N,3.421,K,D*29
$GPGGA,134708.20,4612.0705091,N,00607.2083391,E,2,06,2.0,368.476,M,49.481,M,20.61,0195*46
$GPVTG,346.2086,T,346.2086,M,1.861,N,3.450,K,D*2A
$GPGGA,134708.40,4612.0706244,N,00607.2083024,E,2,06,2.0,368.490,M,49.481,M,20.81,0195*42
$RDENS,1001,4962688,PC
$GPVTG,351.2580,T,351.2580,M,2.005,N,3.717,K,D*23
$GPGGA,134708.80,4612.0708508,N,00607.2082432,E,2,06,2.0,368.499,M,49.481,M,21.21,0195*4F
$GPVTG,350.3262,T,350.3262,M,1.987,N,3.683,K,D*2F
$GPGGA,134709.00,4612.0709733,N,00607.2082131,E,2,06,2.0,368.530,M,49.481,M,21.41,0195*4F
$GPVTG,353.3343,T,353.3343,M,1.928,N,3.573,K,D*26
$RDENS,1002,4962775,PC
$GPGGA,134709.40,4612.0711765,N,00607.2081924,E,2,06,2.0,368.497,M,49.481,M,21.81,0195*4E
$GPVTG,354.7253,T,354.7253,M,1.958,N,3.629,K,D*2D
$GPGGA,134709.60,4612.0712797,N,00607.2081879,E,2,06,2.0,368.505,M,49.481,M,22.01,0195*4A
$GPVTG,358.3621,T,358.3621,M,1.862,N,3.452,K,D*2B
$GPGGA,134710.00,4612.0714760,N,00607.2081968,E,2,06,2.0,368.484,M,49.481,M,22.41,0195*47
$GPVTG,2.6471,T,2.6471,M,1.766,N,3.272,K,D*24
$RDENS,1003,4962863,PC
$GPGGA,134710.20,4612.0715740,N,00607.2082092,E,2,06,2.0,368.490,M,49.481,M,22.61,0195*4E
$GPVTG,8.4458,T,8.4458,M,1.661,N,3.077,K,D*25
$GPGGA,134710.40,4612.0716684,N,00607.2082281,E,2,06,2.0,368.482,M,49.481,M,22.81,0195*4F
$GPVTG,7.5793,T,7.5793,M,1.496,N,2.772,K,D*2C
$GPGGA,134710.60,4612.0717550,N,00607.2082420,E,2,06,2.0,368.467,M,49.481,M,23.01,0195*49
$GPVTG,10.8387,T,10.8387,M,1.426,N,2.643,K,D*24
$GPGGA,134711.00,4612.0719008,N,00607.2082887,E,2,06,2.0,368.442,M,49.481,M,23.41,0195*4A
$RDENS,1004,4962951,PC
$GPVTG,17.4909,T,17.4909,M,1.230,N,2.279,K,D*28
$GPGGA,134711.40,4612.0720358,N,00607.2083413,E,2,06,2.0,368.446,M,49.481,M,23.81,0195*4A
$GPVTG,18.5876,T,18.5876,M,1.184,N,2.194,K,D*24
$GPGGA,134711.60,4612.0720928,N,00607.2083802,E,2,05,2.1,368.496,M,49.481,M,24.01,0195*49
$GPVTG,24.3961,T,24.3961,M,1.030,N,1.909,K,D*25
$GPGGA,134712.00,4612.0721943,N,00607.2084550,E,2,05,2.1,368.499,M,49.481,M,24.41,0195*46
$RDENS,1005,4963039,PC
$GPVTG,26.3499,T,26.3499,M,0.973,N,1.803,K,D*21
$GPGGA,134712.20,4612.0722436,N,00607.2084906,E,2,05,2.1,368.497,M,49.481,M,24.61,0195*4B
$GPVTG,29.8720,T,29.8720,M,0.984,N,1.823,K,D*2B
$GPGGA,134712.60,4612.0723343,N,00607.2085643,E,2,05,2.1,368.496,M,49.481,M,25.01,0195*42
$GPVTG,25.8662,T,25.8662,M,0.983,N,1.822,K,D*2D
$GPGGA,134712.80,4612.0723719,N,00607.2086058,E,2,05,2.1,368.494,M,49.481,M,25.21,0195*48
$RDENS,1006,4963127,PC
$GPVTG,26.0824,T,26.0824,M,0.814,N,1.509,K,D*26
$GPGGA,134713.20,4612.0724542,N,00607.2086657,E,2,05,2.1,368.496,M,49.481,M,25.61,0195*47
$GPVTG,25.7064,T,25.7064,M,0.775,N,1.436,K,D*23
$GPGGA,134713.40,4612.0725012,N,00607.2086855,E,2,05,2.1,368.498,M,49.481,M,25.81,0195*4C
$GPVTG,17.1378,T,17.1378,M,0.766,N,1.420,K,D*26
$GPGGA,134713.80,4612.0725932,N,00607.2087128,E,2,05,2.1,368.516,M,49.481,M,26.21,0195*47
$RDENS,1007,4963215,PC
$GPVTG,13.3440,T,13.3440,M,0.800,N,1.483,K,D*20
$GPGGA,134714.00,4612.0726398,N,00607.2087227,E,2,05,2.1,368.523,M,49.481,M,26.41,0195*4D
$GPVTG,5.7294,T,5.7294,M,0.864,N,1.602,K,D*29
$GPGGA,134714.20,4612.0726867,N,00607.2087340,E,2,05,2.1,368.501,M,49.481,M,26.61,0195*46
$GPVTG,359.6686,T,359.6686,M,0.954,N,1.768,K,D*26
$GPGGA,134714.60,4612.0728081,N,00607.2087206,E,2,05,2.1,368.513,M,49.481,M,27.01,0195*4B
$RDENS,1008,4963303,PC
$GPVTG,358.4035,T,358.4035,M,1.077,N,1.995,K,D*23
$GPGGA,134714.80,4612.0728648,N,00607.2087144,E,2,05,2.1,368.522,M,49.481,M,27.21,0195*43
$GPVTG,354.7099,T,354.7099,M,1.085,N,2.011,K,D*28
$GPGGA,134715.20,4612.0729840,N,00607.2086924,E,2,05,2.1,368.539,M,49.481,M,27.61,0195*4E
$GPVTG,351.0688,T,351.0688,M,1.095,N,2.030,K,D*2A
$GPGGA,134715.40,4612.0730576,N,00607.2086757,E,2,05,2.1,368.561,M,49.481,M,27.81,0195*41
$RDENS,1009,4963391,PC
$GPVTG,349.3593,T,349.3593,M,1.391,N,2.579,K,D*25
$GPGGA,134715.80,4612.0732146,N,00607.2086301,E,2,05,2.1,368.575,M,49.481,M,28.21,0195*4F
$GPVTG,348.2213,T,348.2213,M,1.472,N,2.728,K,D*29
$GPGGA,134716.00,4612.0732986,N,00607.2086053,E,2,05,2.1,368.564,M,49.481,M,28.41,0195*42
$GPVTG,347.9078,T,347.9078,M,1.687,N,3.126,K,D*28
$GPGGA,134716.40,4612.0734858,N,00607.2085498,E,2,05,2.1,368.551,M,49.481,M,28.81,0195*48
$RDENS,1010,4963479,PC
$GPVTG,349.6014,T,349.6014,M,1.704,N,3.158,K,D*2B
$GPGGA,134716.60,4612.0735828,N,00607.2085309,E,2,05,2.1,368.540,M,49.481,M,29.01,0195*4A
$GPVTG,353.6626,T,353.6626,M,1.770,N,3.281,K,D*2F
$GPGGA,134717.00,4612.0737531,N,00607.2085174,E,2,05,2.1,368.522,M,49.481,M,29.41,0195*42
$GPVTG,356.1637,T,356.1637,M,1.639,N,3.038,K,D*23
$GPGGA,134717.20,4612.0738515,N,00607.2085049,E,2,05,2.1,368.539,M,49.481,M,29.61,0195*4E
$RDENS,1011,4963567,PC
$GPVTG,358.0600,T,358.0600,M,1.688,N,3.128,K,D*29
$GPGGA,134717.60,4612.0740313,N,00607.2084984,E,2,05,2.1,368.524,M,49.481,M,30.01,0195*4E
$GPVTG,356.8549,T,356.8549,M,1.667,N,3.090,K,D*2A
$GPGGA,134717.80,4612.0741239,N,00607.2084962,E,2,05,2.1,368.519,M,49.481,M,30.21,0195*4C
$GPVTG,0.3698,T,0.3698,M,1.558,N,2.887,K,D*2A
$GPVTG,2.2499,T,2.2499,M,1.377,N,2.552,K,D*24
$RDENS,1012,4963655,PC
$GPGGA,134718.20,4612.0742754,N,00607.2085122,E,2,05,2.1,368.499,M,49.481,M,30.61,0195*44
$GPVTG,2.2589,T,2.2589,M,1.392,N,2.579,K,D*26
$GPGGA,134718.40,4612.0743507,N,00607.2085188,E,2,05,2.1,368.502,M,49.481,M,30.81,0195*4A
$GPVTG,2.3261,T,2.3261,M,1.458,N,2.702,K,D*29
$GPGGA,134718.80,4612.0745186,N,00607.2085266,E,2,05,2.1,368.514,M,49.481,M,31.21,0195*42
$GPVTG,8.5630,T,8.5630,M,1.151,N,2.133,K,D*21
$RDENS,1013,4963743,PC
$GPGGA,134719.00,4612.0745674,N,00607.2085476,E,2,05,2.1,368.494,M,49.481,M,31.41,0195*49
$GPVTG,7.5720,T,7.5720,M,1.051,N,1.948,K,D*27
$GPGGA,134719.20,4612.0746083,N,00607.2085720,E,2,05,2.1,368.483,M,49.481,M,31.61,0195*42
$GPVTG,6.8038,T,6.8038,M,1.162,N,2.154,K,D*20
$GPVTG,3.0851,T,3.0851,M,1.246,N,2.310,K,D*27
$GPVTG,3.7388,T,3.7388,M,1.261,N,2.337,K,D*27
$RDENS,1014,4963831,PC
$GPVTG,4.4088,T,4.4088,M,1.255,N,2.325,K,D*23
$GPVTG,5.3977,T,5.3977,M,1.273,N,2.359,K,D*2C
$GPVTG,3.1621,T,3.1621,M,1.296,N,2.402,K,D*2E
$GPVTG,2.9276,T,2.9276,M,1.329,N,2.463,K,D*2C
$RDENS,1015,4963919,PC
$GPVTG,0.1148,T,0.1148,M,1.398,N,2.592,K,D*29
$GPVTG,356.9002,T,356.9002,M,1.316,N,2.438,K,D*2E
$GPVTG,355.4539,T,355.4539,M,1.447,N,2.681,K,D*2D
$GPVTG,354.2108,T,354.2108,M,1.426,N,2.642,K,D*25
$GPVTG,350.3442,T,350.3442,M,1.361,N,2.523,K,D*25
$RDENS,1016,4964007,PC
$GPVTG,348.7791,T,348.7791,M,1.397,N,2.589,K,D*2C
$GPVTG,350.4262,T,350.4262,M,1.450,N,2.687,K,D*2D
$GPVTG,346.3156,T,346.3156,M,1.393,N,2.582,K,D*23
$GPVTG,348.9059,T,348.9059,M,1.460,N,2.705,K,D*25
$RDENS,1017,4964095,PC
$GPVTG,351.9853,T,351.9853,M,1.449,N,2.685,K,D*27
$GPVTG,350.8624,T,350.8624,M,1.547,N,2.866,K,D*2B
$GPVTG,350.2217,T,350.2217,M,1.504,N,2.787,K,D*2C
$GPVTG,351.8095,T,351.8095,M,1.531,N,2.838,K,D*21
$GPVTG,348.4886,T,348.4886,M,1.514,N,2.805,K,D*28
$RDENS,1018,4964183,PC
$GPVTG,349.8129,T,349.8129,M,1.573,N,2.916,K,D*2A
$GPVTG,348.6261,T,348.6261,M,1.500,N,2.780,K,D*2F
$GPVTG,347.1826,T,347.1826,M,1.516,N,2.810,K,D*2E
$GPVTG,348.4821,T,348.4821,M,1.602,N,2.968,K,D*26
$RDENS,1019,4964271,PC
$GPVTG,345.3964,T,345.3964,M,1.539,N,2.851,K,D*26
$GPVTG,347.0405,T,347.0405,M,1.501,N,2.781,K,D*2F
$GPVTG,341.7299,T,341.7299,M,1.551,N,2.874,K,D*2F
$GPVTG,341.2050,T,341.2050,M,1.521,N,2.820,K,D*29
$RDENS,1020,4964360,PC
$GPVTG,341.0663,T,341.0663,M,1.608,N,2.979,K,D*2C
$GPVTG,338.7390,T,338.7390,M,1.676,N,3.105,K,D*27
$GPVTG,337.5269,T,337.5269,M,1.671,N,3.096,K,D*2B
$GPVTG,338.4434,T,338.4434,M,1.807,N,3.349,K,D*25
$GPVTG,336.5713,T,336.5713,M,1.857,N,3.441,K,D*2F
$RDENS,1021,4964447,PC
$GPVTG,337.3969,T,337.3969,M,1.951,N,3.615,K,D*2B
$GPVTG,336.7314,T,336.7314,M,2.006,N,3.717,K,D*20
$GPVTG,339.2983,T,339.2983,M,2.170,N,4.021,K,D*25
$GPVTG,339.6670,T,339.6670,M,2.100,N,3.891,K,D*26
$RDENS,1022,4964536,PC
$GPVTG,340.4094,T,340.4094,M,2.226,N,4.126,K,D*23
$GPVTG,339.2953,T,339.2953,M,2.195,N,4.067,K,D*2C
$GPVTG,341.6854,T,341.6854,M,2.348,N,4.352,K,D*2B
$GPVTG,341.4421,T,341.4421,M,2.260,N,4.187,K,D*2A
$RDENS,1023,4964624,PC
$GPVTG,341.8648,T,341.8648,M,2.351,N,4.356,K,D*27
$GPVTG,344.1156,T,344.1156,M,2.236,N,4.144,K,D*26
$GPVTG,344.1373,T,344.1373,M,2.105,N,3.901,K,D*2B
$GPVTG,343.8616,T,343.8616,M,2.157,N,3.998,K,D*2C
$GPVTG,347.2265,T,347.2265,M,2.144,N,3.974,K,D*2C
$RDENS,1024,4964713,PC
$GPVTG,349.5571,T,349.5571,M,2.068,N,3.833,K,D*21
$GPVTG,351.8187,T,351.8187,M,1.900,N,3.521,K,D*2B
$GPVTG,350.3593,T,350.3593,M,1.745,N,3.233,K,D*20
$GPVTG,354.4218,T,354.4218,M,1.727,N,3.200,K,D*24
$RDENS,1025,4964801,PC
$GPVTG,358.0816,T,358.0816,M,1.528,N,2.832,K,D*23
$GPVTG,359.5835,T,359.5835,M,1.470,N,2.724,K,D*27
$GPVTG,3.1905,T,3.1905,M,1.361,N,2.523,K,D*25
$GPVTG,1.9275,T,1.9275,M,1.050,N,1.945,K,D*2B
$GPVTG,9.3944,T,9.3944,M,1.010,N,1.872,K,D*2A
$RDENS,1026,4964890,PC
$GPVTG,10.3494,T,10.3494,M,0.969,N,1.795,K,D*2A
$GPVTG,9.5624,T,9.5624,M,0.717,N,1.329,K,D*2E
$GPVTG,13.8195,T,13.8195,M,0.681,N,1.263,K,D*2F
$GPVTG,30.8726,T,30.8726,M,0.492,N,0.913,K,D*22
$RDENS,1027,4964978,PC
$GPVTG,26.2973,T,26.2973,M,0.416,N,0.770,K,D*25
$GPVTG,29.4185,T,29.4185,M,0.389,N,0.721,K,D*20
$GPVTG,42.2313,T,42.2313,M,0.311,N,0.576,K,D*21
$GPVTG,51.1201,T,51.1201,M,0.214,N,0.397,K,D*2C
$GPVTG,76.0795,T,76.0795,M,0.165,N,0.306,K,D*21
$RDENS,1028,4965066,PC
$GPVTG,95.8454,T,95.8454,M,0.169,N,0.312,K,D*28
$GPVTG,116.2350,T,116.2350,M,0.183,N,0.340,K,D*2B
$GPVTG,113.6261,T,113.6261,M,0.147,N,0.272,K,D*23
$GPVTG,122.5965,T,122.5965,M,0.137,N,0.254,K,D*20
$RDENS,1029,4965154,PC
$GPVTG,141.1306,T,141.1306,M,0.126,N,0.233,K,D*21
$GPVTG,111.2537,T,111.2537,M,0.100,N,0.186,K,D*28
$GPVTG,113.7534,T,113.7534,M,0.049,N,0.090,K,D*22
$GPVTG,17.5842,T,17.5842,M,0.066,N,0.123,K,D*26
$RDENS,1030,4965242,PC
$GPVTG,347.1506,T,347.1506,M,0.059,N,0.109,K,D*22
$GPVTG,345.7786,T,345.7786,M,0.116,N,0.214,K,D*27
$GPVTG,353.7874,T,353.7874,M,0.253,N,0.470,K,D*21
$GPVTG,351.1551,T,351.1551,M,0.406,N,0.752,K,D*24
$GPVTG,342.1439,T,342.1439,M,0.320,N,0.593,K,D*28
$RDENS,1031,4965330,PC
$GPVTG,353.0124,T,353.0124,M,0.439,N,0.813,K,D*22
$GPVTG,354.3671,T,354.3671,M,0.681,N,1.261,K,D*2D
$GPVTG,357.7476,T,357.7476,M,0.612,N,1.134,K,D*24
$GPVTG,352.1864,T,352.1864,M,0.843,N,1.561,K,D*2A
$RDENS,1032,4965417,PC
$GPVTG,3.3319,T,3.3319,M,0.962,N,1.783,K,D*26
$GPVTG,1.7234,T,1.7234,M,0.959,N,1.777,K,D*25
$GPVTG,6.8262,T,6.8262,M,0.949,N,1.758,K,D*29
$GPVTG,12.7124,T,12.7124,M,0.880,N,1.631,K,D*23
$GPVTG,18.0880,T,18.0880,M,0.975,N,1.807,K,D*23
$RDENS,1033,4965505,PC
$GPVTG,24.0288,T,24.0288,M,0.829,N,1.537,K,D*25
$GPVTG,14.4323,T,14.4323,M,0.808,N,1.498,K,D*22
$GPVTG,24.7347,T,24.7347,M,0.888,N,1.645,K,D*28
