$GPGGA,122556.80,4612.1505469,N,00607.5809530,E,4,11,0.9,368.700,M,49.480,M,7.36,0195*7D
$GPVTG,124.0662,T,124.0662,M,0.150,N,0.278,K,D*2F
$GPGGA,122557.20,4612.1505397,N,00607.5809739,E,4,11,0.9,368.706,M,49.480,M,7.76,0195*79
$GPVTG,111.9873,T,111.9873,M,0.152,N,0.281,K,D*2B
$GPGGA,122557.40,4612.1505346,N,00607.5809826,E,4,11,0.9,368.705,M,49.480,M,7.96,0195*7F
$RDENS,447,4475584,PC
$GPVTG,111.3293,T,111.3293,M,0.146,N,0.270,K,D*20
$GPGGA,122557.60,4612.1505318,N,00607.5809934,E,4,11,0.9,368.716,M,49.480,M,8.16,0195*71
$GPVTG,124.7577,T,124.7577,M,0.151,N,0.280,K,D*29
$GPGGA,122558.00,4612.1505251,N,00607.5810124,E,4,11,0.9,368.731,M,49.480,M,8.56,0195*74
$GPVTG,113.0395,T,113.0395,M,0.128,N,0.237,K,D*2B
$GPGGA,122558.20,4612.1505202,N,00607.5810194,E,4,11,0.9,368.732,M,49.480,M,8.76,0195*7A
$RDENS,448,4475672,PC
$GPVTG,157.1599,T,157.1599,M,0.106,N,0.196,K,D*2F
$GPGGA,122558.60,4612.1505091,N,00607.5810272,E,4,11,0.9,368.739,M,49.480,M,9.16,0195*71
$GPVTG,150.7374,T,150.7374,M,0.119,N,0.221,K,D*2E
$GPGGA,122558.80,4612.1505066,N,00607.5810273,E,4,11,0.9,368.747,M,49.480,M,0.08,0195*79
$GPVTG,176.8435,T,176.8435,M,0.117,N,0.217,K,D*25
$GPGGA,122559.20,4612.1504945,N,00607.5810300,E,4,11,0.9,368.741,M,49.480,M,0.00,0195*70
$RDENS,449,4475760,PC
$GPVTG,131.4501,T,131.4501,M,0.056,N,0.103,K,D*27
$GPGGA,122559.40,4612.1504884,N,00607.5810271,E,4,11,0.9,368.738,M,49.480,M,0.20,0195*71
$GPVTG,177.5193,T,177.5193,M,0.089,N,0.164,K,D*24
$GPGGA,122559.80,4612.1504761,N,00607.5810232,E,4,11,0.9,368.734,M,49.480,M,0.00,0195*70
$GPVTG,209.3539,T,209.3539,M,0.132,N,0.245,K,D*25
$GPGGA,122600.00,4612.1504714,N,00607.5810212,E,4,11,0.9,368.739,M,49.480,M,0.20,0195*78
$RDENS,450,4475846,PC
$GPVTG,209.9153,T,209.9153,M,0.147,N,0.272,K,D*23
$GPGGA,122600.40,4612.1504577,N,00607.5810112,E,4,11,0.9,368.727,M,49.480,M,0.60,0195*73
$GPVTG,215.8013,T,215.8013,M,0.134,N,0.249,K,D*2F
$GPGGA,122600.60,4612.1504519,N,00607.5810075,E,4,11,0.9,368.726,M,49.480,M,0.80,0195*76
$GPVTG,225.9444,T,225.9444,M,0.116,N,0.215,K,D*26
$GPGGA,122601.00,4612.1504418,N,00607.5809940,E,4,11,0.9,368.716,M,49.480,M,1.20,0195*7E
$RDENS,451,4475935,PC
$GPVTG,229.3331,T,229.3331,M,0.122,N,0.226,K,D*21
$GPGGA,122601.20,4612.1504360,N,00607.5809875,E,4,11,0.9,368.713,M,49.480,M,1.40,0195*70
$GPVTG,138.0864,T,138.0864,M,0.040,N,0.074,K,D*21
$GPGGA,122601.60,4612.1504329,N,00607.5810012,E,4,11,0.9,368.726,M,49.480,M,0.07,0195*7C
$GPVTG,96.8672,T,96.8672,M,0.120,N,0.223,K,D*26
$GPGGA,122601.80,4612.1504320,N,00607.5810146,E,4,11,0.9,368.735,M,49.480,M,0.27,0195*7B
$RDENS,452,4476023,PC
$GPVTG,61.2242,T,61.2242,M,0.195,N,0.361,K,D*2F
$GPGGA,122602.00,4612.1504360,N,00607.5810314,E,4,11,0.9,368.759,M,49.480,M,0.08,0195*76
$GPVTG,86.5133,T,86.5133,M,0.125,N,0.231,K,D*20
$GPGGA,122602.40,4612.1504251,N,00607.5810424,E,4,10,1.0,368.693,M,49.480,M,0.32,0195*72
$GPVTG,71.6124,T,71.6124,M,0.149,N,0.277,K,D*28
$GPGGA,122602.60,4612.1504251,N,00607.5810523,E,4,10,1.0,368.684,M,49.480,M,0.04,0195*75
$RDENS,453,4476111,PC
$GPVTG,89.0922,T,89.0922,M,0.120,N,0.223,K,D*26
$GPVTG,106.0484,T,106.0484,M,0.127,N,0.236,K,D*25
$GPGGA,122603.20,4612.1504235,N,00607.5810836,E,4,10,1.0,368.686,M,49.480,M,0.56,0195*7E
$GPVTG,109.5079,T,109.5079,M,0.107,N,0.198,K,D*20
$GPGGA,122603.40,4612.1504217,N,00607.5810904,E,4,10,1.0,368.679,M,49.480,M,0.01,0195*7A
$RDENS,454,4476199,PC
$GPVTG,119.6081,T,119.6081,M,0.095,N,0.176,K,D*2A
$GPGGA,122603.80,4612.1504171,N,00607.5811062,E,4,10,1.0,368.685,M,49.480,M,0.41,0195*7A
$GPVTG,120.0136,T,120.0136,M,0.111,N,0.207,K,D*22
$GPGGA,122604.00,4612.1504133,N,00607.5811140,E,4,10,1.0,368.692,M,49.480,M,0.61,0195*76
$GPVTG,127.1121,T,127.1121,M,0.112,N,0.208,K,D*2E
$GPGGA,122604.40,4612.1504062,N,00607.5811293,E,4,10,1.0,368.702,M,49.480,M,1.01,0195*75
$RDENS,455,4476287,PC
$GPVTG,124.1894,T,124.1894,M,0.108,N,0.200,K,D*2D
$GPGGA,122604.60,4612.1504027,N,00607.5811380,E,4,10,1.0,368.706,M,49.480,M,1.21,0195*73
$GPVTG,135.2496,T,135.2496,M,0.099,N,0.183,K,D*2C
$GPGGA,122605.00,4612.1503980,N,00607.5811475,E,4,10,1.0,368.701,M,49.480,M,0.13,0195*7D
$GPVTG,127.1079,T,127.1079,M,0.044,N,0.081,K,D*2F
$GPGGA,122605.20,4612.1503962,N,00607.5811517,E,4,10,1.0,368.700,M,49.480,M,0.33,0195*75
$RDENS,456,4476375,PC
$GPVTG,108.5271,T,108.5271,M,0.035,N,0.065,K,D*23
$GPGGA,122605.60,4612.1503944,N,00607.5811566,E,4,10,1.0,368.705,M,49.480,M,0.73,0195*72
$GPVTG,112.8595,T,112.8595,M,0.035,N,0.066,K,D*20
$GPGGA,122605.80,4612.1503929,N,00607.5811602,E,4,10,1.0,368.713,M,49.480,M,0.93,0195*7F
$GPVTG,164.6551,T,164.6551,M,0.062,N,0.116,K,D*24
$GPGGA,122606.20,4612.1503860,N,00607.5811610,E,4,10,1.0,368.722,M,49.480,M,1.33,0195*70
$RDENS,457,4476463,PC
$GPVTG,187.5239,T,187.5239,M,0.067,N,0.124,K,D*20
$GPGGA,122606.40,4612.1503836,N,00607.5811635,E,4,10,1.0,368.725,M,49.480,M,1.53,0195*73
$GPVTG,172.9052,T,172.9052,M,0.090,N,0.167,K,D*2F
$GPGGA,122606.80,4612.1503719,N,00607.5811633,E,4,10,1.0,368.706,M,49.480,M,1.93,0195*76
$GPVTG,167.9773,T,167.9773,M,0.076,N,0.141,K,D*23
$GPGGA,122607.00,4612.1503661,N,00607.5811695,E,4,10,1.0,368.689,M,49.480,M,2.13,0195*70
$RDENS,458,4476551,PC
$GPVTG,124.0426,T,124.0426,M,0.212,N,0.393,K,D*2E
$GPGGA,122607.20,4612.1503595,N,00607.5811833,E,4,10,1.0,368.685,M,49.480,M,0.05,0195*71
$GPVTG,108.9966,T,108.9966,M,0.250,N,0.463,K,D*20
$GPGGA,122607.60,4612.1503456,N,00607.5812211,E,4,10,1.0,368.658,M,49.480,M,0.10,0195*76
$GPVTG,94.5303,T,94.5303,M,0.247,N,0.458,K,D*2E
$GPGGA,122607.80,4612.1503371,N,00607.5812437,E,4,10,1.0,368.660,M,49.480,M,0.10,0195*73
$RDENS,459,4476639,PC
$GPVTG,131.8179,T,131.8179,M,0.255,N,0.472,K,D*25
$GPGGA,122608.20,4612.1503164,N,00607.5812765,E,4,10,1.0,368.677,M,49.480,M,0.50,0195*76
$GPVTG,143.0375,T,143.0375,M,0.275,N,0.509,K,D*2A
$GPGGA,122608.40,4612.1503061,N,00607.5812901,E,4,10,1.0,368.677,M,49.480,M,0.04,0195*79
$GPVTG,138.0762,T,138.0762,M,0.225,N,0.417,K,D*21
$GPGGA,122608.80,4612.1502874,N,00607.5813138,E,4,10,1.0,368.668,M,49.480,M,0.44,0195*71
$RDENS,460,4476727,PC
$GPVTG,141.8198,T,141.8198,M,0.213,N,0.394,K,D*28
$GPGGA,122609.00,4612.1502799,N,00607.5813235,E,4,10,1.0,368.658,M,49.480,M,0.64,0195*7B
$GPVTG,138.2984,T,138.2984,M,0.162,N,0.301,K,D*21
$GPGGA,122609.40,4612.1502647,N,00607.5813388,E,4,10,1.0,368.647,M,49.480,M,1.04,0195*73
$GPVTG,150.9976,T,150.9976,M,0.171,N,0.317,K,D*24
$GPGGA,122609.60,4612.1502551,N,00607.5813486,E,4,10,1.0,368.650,M,49.480,M,1.24,0195*78
$GPVTG,132.1458,T,132.1458,M,0.207,N,0.383,K,D*2B
$RDENS,461,4476815,PC
$GPGGA,122610.00,4612.1502356,N,00607.5813655,E,4,10,1.0,368.646,M,49.480,M,0.16,0195*7C
$GPVTG,160.4629,T,160.4629,M,0.224,N,0.415,K,D*22
$GPGGA,122610.20,4612.1502256,N,00607.5813732,E,4,10,1.0,368.642,M,49.480,M,0.36,0195*79
$GPVTG,152.5525,T,152.5525,M,0.199,N,0.369,K,D*2B
$GPGGA,122610.60,4612.1502068,N,00607.5813910,E,4,10,1.0,368.628,M,49.480,M,0.17,0195*73
$RDENS,462,4476903,PC
$GPVTG,151.5871,T,151.5871,M,0.221,N,0.409,K,D*2A
$GPGGA,122610.80,4612.1501958,N,00607.5814030,E,4,10,1.0,368.639,M,49.480,M,0.37,0195*7A
$GPVTG,133.7005,T,133.7005,M,0.220,N,0.408,K,D*2A
$GPGGA,122611.20,4612.1501763,N,00607.5814230,E,4,10,1.0,368.641,M,49.480,M,0.77,0195*7E
$GPVTG,159.0466,T,159.0466,M,0.214,N,0.396,K,D*2D
$GPGGA,122611.40,4612.1501652,N,00607.5814306,E,4,10,1.0,368.638,M,49.480,M,0.97,0195*7F
$RDENS,463,4476990,PC
$GPVTG,154.5997,T,154.5997,M,0.169,N,0.314,K,D*2E
$GPGGA,122611.80,4612.1501450,N,00607.5814386,E,4,10,1.0,368.616,M,49.480,M,1.37,0195*7C
$GPVTG,168.1288,T,168.1288,M,0.197,N,0.365,K,D*29
$GPGGA,122612.00,4612.1501351,N,00607.5814426,E,4,10,1.0,368.605,M,49.480,M,0.04,0195*7F
$GPVTG,166.6962,T,166.6962,M,0.194,N,0.360,K,D*2F
$GPGGA,122612.20,4612.1501268,N,00607.5814442,E,4,10,1.0,368.609,M,49.480,M,0.24,0195*7A
$RDENS,464,4477079,PC
$GPVTG,165.8135,T,165.8135,M,0.186,N,0.346,K,D*28
$GPGGA,122612.60,4612.1501102,N,00607.5814528,E,4,10,1.0,368.655,M,49.480,M,0.16,0195*74
$GPVTG,163.7897,T,163.7897,M,0.152,N,0.282,K,D*28
$GPGGA,122612.80,4612.1501024,N,00607.5814514,E,4,10,1.0,368.671,M,49.480,M,0.36,0195*74
$GPVTG,183.4115,T,183.4115,M,0.122,N,0.226,K,D*21
$GPGGA,122613.20,4612.1500861,N,00607.5814464,E,4,10,1.0,368.667,M,49.480,M,0.76,0195*72
$RDENS,465,4477165,PC
$GPVTG,195.5699,T,195.5699,M,0.172,N,0.319,K,D*29
$GPGGA,122613.40,4612.1500783,N,00607.5814422,E,4,10,1.0,368.660,M,49.480,M,0.96,0195*7C
$GPVTG,196.8693,T,196.8693,M,0.133,N,0.246,K,D*27
$GPGGA,122613.80,4612.1500633,N,00607.5814350,E,4,10,1.0,368.637,M,49.480,M,1.36,0195*71
$GPVTG,208.0702,T,208.0702,M,0.151,N,0.280,K,D*29
$GPGGA,122614.00,4612.1500557,N,00607.5814373,E,4,10,1.0,368.626,M,49.480,M,1.56,0195*78
$RDENS,466,4477253,PC
$GPVTG,178.5669,T,178.5669,M,0.213,N,0.394,K,D*28
$GPGGA,122614.40,4612.1500341,N,00607.5814423,E,4,10,1.0,368.614,M,49.480,M,1.96,0195*72
$GPVTG,168.5493,T,168.5493,M,0.225,N,0.417,K,D*21
$GPGGA,122614.60,4612.1500210,N,00607.5814491,E,4,10,1.0,368.606,M,49.480,M,2.16,0195*74
$GPVTG,156.5649,T,156.5649,M,0.271,N,0.502,K,D*25
$GPGGA,122615.00,4612.1499932,N,00607.5814625,E,4,10,1.0,368.618,M,49.480,M,0.06,0195*78
$RDENS,467,4477341,PC
$GPVTG,166.1281,T,166.1281,M,0.253,N,0.468,K,D*28
$GPGGA,122615.20,4612.1499783,N,00607.5814684,E,4,10,1.0,368.639,M,49.480,M,0.26,0195*74
$GPVTG,172.3185,T,172.3185,M,0.229,N,0.425,K,D*2C
$GPGGA,122615.60,4612.1499546,N,00607.5814727,E,4,10,1.0,368.667,M,49.480,M,0.66,0195*7C
$GPVTG,174.3897,T,174.3897,M,0.200,N,0.370,K,D*20
$GPGGA,122615.80,4612.1499451,N,00607.5814792,E,4,10,1.0,368.674,M,49.480,M,0.86,0195*77
$RDENS,468,4477430,PC
$GPVTG,158.0791,T,158.0791,M,0.126,N,0.234,K,D*26
$GPGGA,122616.20,4612.1499302,N,00607.5814820,E,4,10,1.0,368.649,M,49.480,M,1.26,0195*7C
$GPVTG,184.9029,T,184.9029,M,0.163,N,0.303,K,D*22
$GPGGA,122616.40,4612.1499212,N,00607.5814826,E,4,10,1.0,368.641,M,49.480,M,1.46,0195*72
$GPVTG,180.5411,T,180.5411,M,0.184,N,0.342,K,D*2E
$GPGGA,122616.60,4612.1499111,N,00607.5814826,E,4,10,1.0,368.641,M,49.480,M,1.66,0195*72
$RDENS,469,4477518,PC
$GPVTG,184.6069,T,184.6069,M,0.168,N,0.311,K,D*2A
$GPGGA,122617.00,4612.1498910,N,00607.5814785,E,4,10,1.0,368.656,M,49.480,M,2.06,0195*78
$GPVTG,192.3745,T,192.3745,M,0.203,N,0.376,K,D*25
$GPGGA,122617.20,4612.1498815,N,00607.5814754,E,4,10,1.0,368.667,M,49.480,M,0.08,0195*7C
$GPVTG,190.3111,T,190.3111,M,0.172,N,0.319,K,D*29
$GPGGA,122617.60,4612.1498671,N,00607.5814698,E,4,10,1.0,368.662,M,49.480,M,0.32,0195*79
$RDENS,470,4477605,PC
$GPVTG,191.0369,T,191.0369,M,0.132,N,0.245,K,D*25
$GPGGA,122617.80,4612.1498579,N,00607.5814677,E,4,10,1.0,368.654,M,49.480,M,0.52,0195*7E
$GPVTG,188.9328,T,188.9328,M,0.138,N,0.256,K,D*2D
$GPGGA,122618.20,4612.1498417,N,00607.5814634,E,4,10,1.0,368.628,M,49.480,M,0.92,0195*72
$GPVTG,193.0812,T,193.0812,M,0.156,N,0.288,K,D*26
$GPGGA,122618.40,4612.1498331,N,00607.5814609,E,4,10,1.0,368.629,M,49.480,M,1.12,0195*71
$RDENS,471,4477694,PC
$GPVTG,191.8324,T,191.8324,M,0.202,N,0.374,K,D*26
$GPGGA,122618.80,4612.1498154,N,00607.5814522,E,4,10,1.0,368.625,M,49.480,M,1.52,0195*7E
$GPVTG,176.3929,T,176.3929,M,0.154,N,0.286,K,D*2A
$GPGGA,122619.00,4612.1498061,N,00607.5814512,E,4,10,1.0,368.626,M,49.480,M,1.72,0195*72
$GPVTG,194.0668,T,194.0668,M,0.154,N,0.286,K,D*2A
$GPGGA,122619.40,4612.1497878,N,00607.5814464,E,4,10,1.0,368.622,M,49.480,M,2.12,0195*78
$RDENS,472,4477782,PC
$GPVTG,191.2469,T,191.2469,M,0.166,N,0.307,K,D*23
$GPGGA,122619.60,4612.1497805,N,00607.5814487,E,4,10,1.0,368.622,M,49.480,M,2.32,0195*7F
$GPVTG,141.7437,T,141.7437,M,0.134,N,0.247,K,D*21
$GPGGA,122620.00,4612.1497683,N,00607.5814645,E,4,10,1.0,368.643,M,49.480,M,2.72,0195*7C
$GPVTG,144.3432,T,144.3432,M,0.138,N,0.256,K,D*2D
$GPGGA,122620.20,4612.1497626,N,00607.5814738,E,4,10,1.0,368.657,M,49.480,M,2.92,0195*71
$RDENS,473,4477870,PC
$GPVTG,113.9276,T,113.9276,M,0.130,N,0.241,K,D*23
$GPGGA,122620.60,4612.1497594,N,00607.5814964,E,4,10,1.0,368.636,M,49.480,M,3.32,0195*74
$GPVTG,94.3593,T,94.3593,M,0.198,N,0.367,K,D*24
$GPGGA,122620.80,4612.1497603,N,00607.5815116,E,4,10,1.0,368.634,M,49.480,M,3.52,0195*7F
$GPVTG,88.6496,T,88.6496,M,0.217,N,0.402,K,D*24
$GPGGA,122621.20,4612.1497618,N,00607.5815455,E,4,10,1.0,368.671,M,49.480,M,3.92,0195*71
$RDENS,474,4477958,PC
$GPVTG,91.9348,T,91.9348,M,0.202,N,0.375,K,D*27
$GPGGA,122621.40,4612.1497625,N,00607.5815599,E,4,10,1.0,368.676,M,49.480,M,4.12,0195*70
$GPVTG,87.7984,T,87.7984,M,0.165,N,0.305,K,D*22
$GPGGA,122621.60,4612.1497678,N,00607.5815787,E,4,10,1.0,368.670,M,49.480,M,4.32,0195*73
$GPVTG,67.3779,T,67.3779,M,0.247,N,0.458,K,D*2E
$GPGGA,122622.00,4612.1497791,N,00607.5816225,E,4,10,1.0,368.691,M,49.480,M,4.72,0195*75
$GPVTG,65.4204,T,65.4204,M,0.300,N,0.555,K,D*20
$RDENS,475,4478046,PC
$GPGGA,122622.20,4612.1497962,N,00607.5816482,E,4,10,1.0,368.662,M,49.480,M,4.92,0195*7C
$GPVTG,53.5937,T,53.5937,M,0.447,N,0.828,K,D*23
$GPGGA,122622.60,4612.1498312,N,00607.5817017,E,4,10,1.0,368.668,M,49.480,M,5.32,0195*72
$GPVTG,46.6103,T,46.6103,M,0.496,N,0.918,K,D*2D
$GPGGA,122622.80,4612.1498544,N,00607.5817315,E,4,10,1.0,368.661,M,49.480,M,5.52,0195*77
$GPVTG,39.5188,T,39.5188,M,0.699,N,1.295,K,D*2F
$RDENS,476,4478134,PC
$GPGGA,122623.20,4612.1499116,N,00607.5818007,E,4,10,1.0,368.646,M,49.480,M,5.92,0195*78
$GPVTG,37.0980,T,37.0980,M,0.616,N,1.141,K,D*22
$GPGGA,122623.40,4612.1499449,N,00607.5818411,E,4,10,1.0,368.662,M,49.480,M,6.12,0195*7F
$GPVTG,41.5747,T,41.5747,M,0.833,N,1.544,K,D*2A
$GPGGA,122623.80,4612.1500204,N,00607.5819178,E,4,10,1.0,368.672,M,49.480,M,0.13,0195*70
$GPVTG,34.7422,T,34.7422,M,0.814,N,1.509,K,D*26
$RDENS,477,4478222,PC
$GPGGA,122624.00,4612.1500650,N,00607.5819640,E,4,10,1.0,368.670,M,49.480,M,0.33,0195*76
$GPVTG,29.0821,T,29.0821,M,1.150,N,2.130,K,D*23
$GPGGA,122624.20,4612.1501186,N,00607.5820155,E,4,10,1.0,368.652,M,49.480,M,0.04,0195*74
$GPVTG,37.1456,T,37.1456,M,1.027,N,1.904,K,D*2E
$GPGGA,122624.60,4612.1502052,N,00607.5821124,E,4,10,1.0,368.674,M,49.480,M,0.06,0195*7A
$GPVTG,38.6770,T,38.6770,M,1.081,N,2.004,K,D*28
$RDENS,478,4478310,PC
$GPGGA,122624.80,4612.1502613,N,00607.5821721,E,4,10,1.0,368.682,M,49.480,M,0.14,0195*7E
$GPVTG,39.9969,T,39.9969,M,1.064,N,1.972,K,D*28
$GPVTG,34.1023,T,34.1023,M,1.108,N,2.054,K,D*2D
$GPGGA,122625.40,4612.1504166,N,00607.5823307,E,4,10,1.0,368.686,M,49.480,M,0.74,0195*70
$GPVTG,34.0151,T,34.0151,M,1.443,N,2.675,K,D*22
$RDENS,479,4478399,PC
$GPGGA,122625.60,4612.1504788,N,00607.5823930,E,4,10,1.0,368.697,M,49.480,M,0.94,0195*74
$GPVTG,30.7282,T,30.7282,M,1.053,N,1.952,K,D*2E
$GPGGA,122626.00,4612.1505931,N,00607.5825032,E,4,10,1.0,368.698,M,49.480,M,1.34,0195*75
$GPVTG,34.4769,T,34.4769,M,1.348,N,2.498,K,D*2F
$GPGGA,122626.20,4612.1506550,N,00607.5825619,E,4,10,1.0,368.692,M,49.480,M,1.54,0195*7C
$GPVTG,33.4649,T,33.4649,M,1.373,N,2.545,K,D*26
$RDENS,480,4478487,PC
$GPGGA,122626.60,4612.1507799,N,00607.5826811,E,4,10,1.0,368.705,M,49.480,M,1.94,0195*78
$GPVTG,31.6837,T,31.6837,M,1.302,N,2.413,K,D*22
$GPGGA,122626.80,4612.1508410,N,00607.5827373,E,4,10,1.0,368.711,M,49.480,M,2.14,0195*7B
$GPVTG,35.4611,T,35.4611,M,1.398,N,2.592,K,D*29
$GPGGA,122627.20,4612.1509619,N,00607.5828590,E,4,10,1.0,368.703,M,49.480,M,2.54,0195*79
$GPVTG,34.4400,T,34.4400,M,1.308,N,2.423,K,D*2B
$RDENS,481,4478576,PC
$GPGGA,122627.40,4612.1510270,N,00607.5829252,E,4,10,1.0,368.696,M,49.480,M,2.74,0195*7B
$GPVTG,38.0716,T,38.0716,M,1.307,N,2.422,K,D*25
$GPGGA,122627.80,4612.1511585,N,00607.5830499,E,4,10,1.0,368.699,M,49.480,M,3.14,0195*7A
$GPVTG,28.6491,T,28.6491,M,1.508,N,2.795,K,D*23
$GPGGA,122628.00,4612.1512189,N,00607.5831186,E,4,10,1.0,368.688,M,49.480,M,3.34,0195*7E
$GPVTG,41.4316,T,41.4316,M,1.439,N,2.667,K,D*2C
$RDENS,482,4478666,PC
$GPGGA,122628.20,4612.1512920,N,00607.5831969,E,4,10,1.0,368.709,M,49.480,M,3.54,0195*70
$GPVTG,33.3624,T,33.3624,M,1.441,N,2.670,K,D*25
$GPGGA,122628.60,4612.1514276,N,00607.5833397,E,4,10,1.0,368.692,M,49.480,M,0.04,0195*76
$GPVTG,38.5119,T,38.5119,M,1.570,N,2.909,K,D*27
$GPGGA,122628.80,4612.1515017,N,00607.5834143,E,4,10,1.0,368.690,M,49.480,M,0.09,0195*7F
$GPVTG,32.0321,T,32.0321,M,1.778,N,3.294,K,D*23
$GPGGA,122629.20,4612.1516470,N,00607.5835650,E,4,10,1.0,368.695,M,49.480,M,0.31,0195*78
$RDENS,483,4478756,PC
$GPVTG,38.5202,T,38.5202,M,1.409,N,2.611,K,D*2E
$GPGGA,122629.40,4612.1517144,N,00607.5836390,E,4,10,1.0,368.717,M,49.480,M,0.51,0195*7A
$GPVTG,35.3260,T,35.3260,M,1.531,N,2.837,K,D*2E
$GPGGA,122629.80,4612.1518594,N,00607.5837870,E,4,10,1.0,368.695,M,49.480,M,0.91,0195*73
$GPVTG,39.2694,T,39.2694,M,1.660,N,3.077,K,D*24
$GPGGA,122630.00,4612.1519298,N,00607.5838692,E,4,10,1.0,368.707,M,49.480,M,1.11,0195*77
$RDENS,484,4478846,PC
$GPVTG,37.5135,T,37.5135,M,1.573,N,2.915,K,D*29
$GPGGA,122630.40,4612.1520675,N,00607.5840176,E,4,10,1.0,368.676,M,49.480,M,0.25,0195*7D
$GPVTG,34.9151,T,34.9151,M,1.551,N,2.875,K,D*2E
$GPGGA,122630.60,4612.1521390,N,00607.5840977,E,4,10,1.0,368.666,M,49.480,M,0.45,0195*7E
$GPVTG,37.4345,T,37.4345,M,1.728,N,3.202,K,D*29
$GPGGA,122630.80,4612.1522158,N,00607.5841818,E,4,10,1.0,368.664,M,49.480,M,0.16,0195*78
$RDENS,485,4478935,PC
$GPVTG,36.7512,T,36.7512,M,1.669,N,3.094,K,D*20
$GPGGA,122631.20,4612.1523607,N,00607.5843367,E,4,11,0.9,368.656,M,49.480,M,0.24,0195*77
$GPVTG,36.5966,T,36.5966,M,1.624,N,3.010,K,D*25
$GPGGA,122631.40,4612.1524368,N,00607.5844183,E,4,11,0.9,368.647,M,49.480,M,0.44,0195*73
$GPVTG,38.0440,T,38.0440,M,1.635,N,3.031,K,D*26
$GPGGA,122631.80,4612.1525847,N,00607.5845798,E,4,11,0.9,368.635,M,49.480,M,0.84,0195*7C
$GPVTG,37.1108,T,37.1108,M,1.677,N,3.107,K,D*24
$RDENS,486,4479025,PC
$GPGGA,122632.00,4612.1526566,N,00607.5846602,E,4,11,0.9,368.627,M,49.480,M,1.04,0195*71
$GPVTG,35.6634,T,35.6634,M,1.639,N,3.037,K,D*2C
$GPGGA,122632.40,4612.1528035,N,00607.5848202,E,4,11,0.9,368.642,M,49.480,M,0.04,0195*70
$GPVTG,38.8091,T,38.8091,M,1.682,N,3.118,K,D*20
$GPGGA,122632.60,4612.1528783,N,00607.5848966,E,4,11,0.9,368.653,M,49.480,M,0.12,0195*76
$GPVTG,33.6605,T,33.6605,M,1.648,N,3.055,K,D*2E
$RDENS,487,4479114,PC
$GPGGA,122633.00,4612.1530277,N,00607.5850549,E,4,11,0.9,368.655,M,49.480,M,0.28,0195*71
$GPVTG,39.8706,T,39.8706,M,1.679,N,3.112,K,D*2E
$GPGGA,122633.20,4612.1531031,N,00607.5851360,E,4,11,0.9,368.653,M,49.480,M,0.48,0195*7E
$GPVTG,33.6586,T,33.6586,M,1.643,N,3.045,K,D*24
$GPGGA,122633.40,4612.1531781,N,00607.5852097,E,4,11,0.9,368.639,M,49.480,M,0.68,0195*72
$GPVTG,37.0615,T,37.0615,M,1.745,N,3.233,K,D*20
$RDENS,488,4479204,PC
$GPGGA,122633.80,4612.1533326,N,00607.5853706,E,4,11,0.9,368.631,M,49.480,M,0.07,0195*7A
$GPVTG,32.7225,T,32.7225,M,1.630,N,3.021,K,D*22
$GPGGA,122634.00,4612.1534148,N,00607.5854591,E,4,11,0.9,368.644,M,49.480,M,0.27,0195*73
$GPVTG,36.2374,T,36.2374,M,1.553,N,2.878,K,D*21
$GPGGA,122634.40,4612.1535626,N,00607.5856138,E,4,11,0.9,368.656,M,49.480,M,0.67,0195*7B
$GPVTG,35.6248,T,35.6248,M,1.749,N,3.241,K,D*29
$RDENS,489,4479293,PC
$GPGGA,122634.60,4612.1536386,N,00607.5856913,E,4,11,0.9,368.639,M,49.480,M,0.14,0195*79
$GPVTG,32.8266,T,32.8266,M,1.821,N,3.374,K,D*2F
$GPGGA,122635.00,4612.1538038,N,00607.5858450,E,4,11,0.9,368.660,M,49.480,M,0.26,0195*7F
$GPVTG,35.2125,T,35.2125,M,1.699,N,3.149,K,D*2E
$GPGGA,122635.20,4612.1538777,N,00607.5859165,E,4,11,0.9,368.664,M,49.480,M,0.46,0195*71
$GPVTG,32.7228,T,32.7228,M,1.680,N,3.113,K,D*29
$RDENS,490,4479383,PC
$GPGGA,122635.60,4612.1540321,N,00607.5860582,E,4,11,0.9,368.653,M,49.480,M,0.86,0195*72
$GPVTG,32.3504,T,32.3504,M,1.633,N,3.027,K,D*27
$GPGGA,122635.80,4612.1541113,N,00607.5861376,E,4,11,0.9,368.643,M,49.480,M,1.06,0195*7A
$GPVTG,29.8133,T,29.8133,M,1.639,N,3.038,K,D*23
$GPGGA,122636.20,4612.1542709,N,00607.5862738,E,4,11,0.9,368.651,M,49.480,M,0.08,0195*7C
$GPVTG,33.0084,T,33.0084,M,1.707,N,3.164,K,D*27
$RDENS,491,4479472,PC
$GPGGA,122636.40,4612.1543421,N,00607.5863563,E,4,11,0.9,368.663,M,49.480,M,0.28,0195*7C
$GPVTG,37.9251,T,37.9251,M,1.576,N,2.920,K,D*2A
$GPGGA,122636.60,4612.1544260,N,00607.5864291,E,4,11,0.9,368.650,M,49.480,M,0.05,0195*78
$GPVTG,32.4554,T,32.4554,M,1.594,N,2.954,K,D*25
$GPGGA,122637.00,4612.1545859,N,00607.5865707,E,4,11,0.9,368.660,M,49.480,M,0.35,0195*75
$GPVTG,31.7630,T,31.7630,M,1.764,N,3.269,K,D*2C
$RDENS,492,4479561,PC
$GPGGA,122637.20,4612.1546638,N,00607.5866413,E,4,11,0.9,368.661,M,49.480,M,0.55,0195*7F
$GPVTG,32.1445,T,32.1445,M,1.798,N,3.333,K,D*21
$GPGGA,122637.60,4612.1548324,N,00607.5867821,E,4,11,0.9,368.663,M,49.480,M,0.20,0195*71
$GPVTG,29.1561,T,29.1561,M,1.697,N,3.145,K,D*2C
$GPGGA,122637.80,4612.1549142,N,00607.5868539,E,4,11,0.9,368.661,M,49.480,M,0.40,0195*73
$GPVTG,30.7978,T,30.7978,M,1.479,N,2.741,K,D*2D
$RDENS,493,4479651,PC
$GPGGA,122638.20,4612.1550663,N,00607.5869809,E,4,11,0.9,368.656,M,49.480,M,0.80,0195*7D
$GPVTG,28.1617,T,28.1617,M,1.708,N,3.166,K,D*2A
$GPGGA,122638.40,4612.1551513,N,00607.5870468,E,4,11,0.9,368.665,M,49.480,M,1.00,0195*74
$GPVTG,28.7268,T,28.7268,M,1.561,N,2.893,K,D*25
$GPGGA,122638.80,4612.1553093,N,00607.5871739,E,4,11,0.9,368.671,M,49.480,M,1.40,0195*70
$GPVTG,28.5665,T,28.5665,M,1.735,N,3.216,K,D*20
$RDENS,494,4479737,PC
$GPGGA,122639.00,4612.1553936,N,00607.5872381,E,4,11,0.9,368.666,M,49.480,M,0.15,0195*7C
$GPVTG,24.0373,T,24.0373,M,1.662,N,3.081,K,D*2F
$GPGGA,122639.20,4612.1554804,N,00607.5872946,E,4,11,0.9,368.663,M,49.480,M,0.35,0195*7F
$GPVTG,24.3339,T,24.3339,M,1.845,N,3.419,K,D*21
$GPGGA,122639.60,4612.1556502,N,00607.5874122,E,4,10,1.0,368.665,M,49.480,M,0.75,0195*75
$GPVTG,27.9459,T,27.9459,M,1.688,N,3.129,K,D*28
$RDENS,495,4479823,PC
$GPGGA,122639.80,4612.1557288,N,00607.5874673,E,4,10,1.0,368.647,M,49.480,M,0.95,0195*72
$GPVTG,21.1873,T,21.1873,M,1.795,N,3.327,K,D*29
$GPGGA,122640.20,4612.1559017,N,00607.5875788,E,4,09,1.1,368.662,M,49.480,M,1.35,0195*7D
$GPVTG,25.6482,T,25.6482,M,1.653,N,3.064,K,D*26
$GPGGA,122640.40,4612.1559889,N,00607.5876308,E,4,09,1.1,368.671,M,49.480,M,1.55,0195*7F
$GPVTG,21.9326,T,21.9326,M,1.605,N,2.974,K,D*2C
$RDENS,496,4479909,PC
$GPGGA,122640.80,4612.1561592,N,00607.5877301,E,4,09,1.1,368.688,M,49.480,M,1.95,0195*7D
$GPVTG,22.5077,T,22.5077,M,1.719,N,3.185,K,D*27
$GPGGA,122641.00,4612.1562400,N,00607.5877721,E,4,09,1.1,368.699,M,49.480,M,2.15,0195*70
$GPVTG,17.5320,T,17.5320,M,1.690,N,3.133,K,D*2A
$GPGGA,122641.40,4612.1564236,N,00607.5878587,E,4,08,1.2,368.679,M,49.480,M,2.55,0195*78
$GPVTG,18.8387,T,18.8387,M,1.719,N,3.185,K,D*27
$RDENS,497,4479995,PC
$GPGGA,122641.60,4612.1565151,N,00607.5878950,E,4,08,1.2,368.683,M,49.480,M,2.75,0195*78
$GPVTG,15.3416,T,15.3416,M,1.587,N,2.942,K,D*20
$GPGGA,122641.80,4612.1565994,N,00607.5879282,E,4,08,1.2,368.669,M,49.480,M,2.95,0195*78
$GPVTG,16.4516,T,16.4516,M,1.625,N,3.011,K,D*25
$GPGGA,122642.20,4612.1567769,N,00607.5879907,E,4,08,1.2,368.675,M,49.480,M,3.35,0195*7F
$GPVTG,11.3604,T,11.3604,M,1.668,N,3.090,K,D*25
$RDENS,498,4480081,PC
$GPGGA,122642.40,4612.1568676,N,00607.5880244,E,4,08,1.2,368.669,M,49.480,M,3.55,0195*78
$GPVTG,9.4463,T,9.4463,M,1.647,N,3.052,K,D*26
$GPGGA,122642.60,4612.1569656,N,00607.5880513,E,4,08,1.2,368.682,M,49.480,M,3.75,0195*7B
$GPVTG,11.7210,T,11.7210,M,1.684,N,3.121,K,D*2C
$GPGGA,122643.00,4612.1571507,N,00607.5880991,E,4,08,1.2,368.668,M,49.480,M,4.15,0195*71
$GPVTG,9.9551,T,9.9551,M,1.730,N,3.207,K,D*25
$RDENS,499,4480168,PC
$GPGGA,122643.20,4612.1572435,N,00607.5881225,E,4,08,1.2,368.680,M,49.480,M,4.35,0195*71
$GPVTG,7.3315,T,7.3315,M,1.701,N,3.152,K,D*24
$GPGGA,122643.60,4612.1574343,N,00607.5881658,E,4,08,1.2,368.702,M,49.480,M,4.75,0195*74
$GPVTG,5.5660,T,5.5660,M,1.786,N,3.309,K,D*27
$GPGGA,122643.80,4612.1575281,N,00607.5881770,E,4,08,1.2,368.677,M,49.480,M,4.95,0195*72
$GPVTG,5.0942,T,5.0942,M,1.748,N,3.239,K,D*27
$RDENS,500,4480255,PC
$GPGGA,122644.00,4612.1576261,N,00607.5881893,E,4,08,1.2,368.679,M,49.480,M,5.15,0195*75
$GPVTG,8.2518,T,8.2518,M,1.741,N,3.227,K,D*21
$GPGGA,122644.40,4612.1578216,N,00607.5882178,E,4,08,1.2,368.674,M,49.480,M,5.55,0195*79
$GPVTG,5.5157,T,5.5157,M,1.767,N,3.274,K,D*23
$GPGGA,122644.60,4612.1579191,N,00607.5882313,E,4,08,1.2,368.670,M,49.480,M,5.75,0195*7F
$GPVTG,3.6701,T,3.6701,M,1.739,N,3.222,K,D*2B
$RDENS,501,4480342,PC
$GPGGA,122645.00,4612.1581170,N,00607.5882562,E,4,08,1.2,368.678,M,49.480,M,6.15,0195*7D
$GPVTG,2.6862,T,2.6862,M,1.810,N,3.354,K,D*2F
$GPGGA,122645.20,4612.1582168,N,00607.5882627,E,4,08,1.2,368.676,M,49.480,M,6.35,0195*7B
$GPVTG,4.9952,T,4.9952,M,1.755,N,3.252,K,D*26
$GPGGA,122645.60,4612.1584125,N,00607.5882863,E,4,08,1.2,368.669,M,49.480,M,6.75,0195*74
$GPVTG,2.5456,T,2.5456,M,1.779,N,3.297,K,D*21
$RDENS,502,4480429,PC
$GPGGA,122645.80,4612.1585128,N,00607.5882938,E,4,08,1.2,368.686,M,49.480,M,0.08,0195*74
$GPVTG,4.9436,T,4.9436,M,1.821,N,3.374,K,D*2F
$GPGGA,122646.00,4612.1586108,N,00607.5883050,E,4,08,1.2,368.683,M,49.480,M,0.06,0195*73
$GPVTG,0.0177,T,0.0177,M,1.702,N,3.154,K,D*21
$GPGGA,122646.40,4612.1588016,N,00607.5883121,E,4,08,1.2,368.664,M,49.480,M,0.46,0195*7D
$GPVTG,359.0112,T,359.0112,M,1.730,N,3.206,K,D*24
$RDENS,503,4480516,PC
$GPGGA,122646.80,4612.1589904,N,00607.5883195,E,4,08,1.2,368.657,M,49.480,M,0.86,0195*79
$GPVTG,3.2429,T,3.2429,M,1.647,N,3.053,K,D*27
$GPGGA,122647.00,4612.1590897,N,00607.5883194,E,4,08,1.2,368.654,M,49.480,M,1.06,0195*78
$GPVTG,359.0485,T,359.0485,M,1.723,N,3.194,K,D*2E
$GPGGA,122647.40,4612.1592774,N,00607.5883156,E,4,08,1.2,368.664,M,49.480,M,1.46,0195*75
$GPVTG,359.9272,T,359.9272,M,1.712,N,3.172,K,D*24
$GPVTG,1.3090,T,1.3090,M,1.705,N,3.160,K,D*21
$RDENS,504,4480603,PC
$GPGGA,122647.80,4612.1594629,N,00607.5883198,E,4,08,1.2,368.674,M,49.480,M,0.06,0195*70
$GPVTG,358.0468,T,358.0468,M,1.677,N,3.108,K,D*2B
$GPGGA,122648.00,4612.1595554,N,00607.5883147,E,4,08,1.2,368.665,M,49.480,M,0.26,0195*7F
$GPVTG,359.3202,T,359.3202,M,1.705,N,3.159,K,D*2B
$GPGGA,122648.40,4612.1597436,N,00607.5883102,E,4,08,1.2,368.671,M,49.480,M,0.66,0195*7C
$GPVTG,358.9651,T,358.9651,M,1.679,N,3.112,K,D*2E
$RDENS,505,4480690,PC
$GPGGA,122648.60,4612.1598334,N,00607.5883046,E,4,08,1.2,368.645,M,49.480,M,0.86,0195*7C
$GPVTG,0.7190,T,0.7190,M,1.672,N,3.099,K,D*27
$GPGGA,122648.80,4612.1599265,N,00607.5883101,E,4,08,1.2,368.656,M,49.480,M,1.06,0195*7F
$GPVTG,358.6761,T,358.6761,M,1.567,N,2.904,K,D*2C
$GPGGA,122649.20,4612.1601037,N,00607.5882961,E,4,08,1.2,368.637,M,49.480,M,1.46,0195*7F
$GPVTG,358.7404,T,358.7404,M,1.636,N,3.032,K,D*26
$RDENS,506,4480778,PC
$GPGGA,122649.60,4612.1602791,N,00607.5882849,E,4,08,1.2,368.642,M,49.480,M,0.16,0195*7E
$GPVTG,357.6516,T,357.6516,M,1.633,N,3.027,K,D*27
$GPGGA,122649.80,4612.1603702,N,00607.5882757,E,4,08,1.2,368.646,M,49.480,M,0.36,0195*7D
$GPVTG,356.0921,T,356.0921,M,1.612,N,2.988,K,D*29
$GPGGA,122650.20,4612.1605480,N,00607.5882643,E,4,08,1.2,368.646,M,49.480,M,0.76,0195*70
$GPVTG,356.9632,T,356.9632,M,1.597,N,2.959,K,D*2B
$RDENS,507,4480865,PC
$GPGGA,122650.40,4612.1606336,N,00607.5882571,E,4,08,1.2,368.664,M,49.480,M,0.96,0195*73
$GPVTG,356.7547,T,356.7547,M,1.538,N,2.849,K,D*2E
$GPGGA,122650.80,4612.1608090,N,00607.5882377,E,4,08,1.2,368.650,M,49.480,M,1.36,0195*72
$GPVTG,355.6096,T,355.6096,M,1.557,N,2.885,K,D*27
$GPGGA,122651.00,4612.1608925,N,00607.5882271,E,4,08,1.2,368.643,M,49.480,M,1.56,0195*7F
$GPVTG,357.4287,T,357.4287,M,1.529,N,2.833,K,D*23
$RDENS,508,4480952,PC
$GPGGA,122651.20,4612.1609732,N,00607.5882222,E,4,08,1.2,368.649,M,49.480,M,0.00,0195*7A
$GPVTG,353.9725,T,353.9725,M,1.552,N,2.876,K,D*2E
$GPGGA,122651.60,4612.1611407,N,00607.5881983,E,4,08,1.2,368.646,M,49.480,M,0.05,0195*7B
$GPVTG,353.7192,T,353.7192,M,1.516,N,2.809,K,D*26
$GPGGA,122651.80,4612.1612247,N,00607.5881856,E,4,11,0.9,368.655,M,49.480,M,0.15,0195*7C
$GPVTG,355.2232,T,355.2232,M,1.489,N,2.760,K,D*21
$RDENS,509,4481039,PC
$GPGGA,122652.20,4612.1613884,N,00607.5881631,E,4,11,0.9,368.666,M,49.480,M,0.14,0195*7F
$GPVTG,353.7129,T,353.7129,M,1.484,N,2.749,K,D*27
$GPGGA,122652.40,4612.1614719,N,00607.5881486,E,4,11,0.9,368.668,M,49.480,M,0.34,0195*77
$GPVTG,353.4118,T,353.4118,M,1.449,N,2.686,K,D*24
$GPGGA,122652.80,4612.1616313,N,00607.5881189,E,4,11,0.9,368.657,M,49.480,M,0.00,0195*76
$GPVTG,352.5648,T,352.5648,M,1.481,N,2.744,K,D*2F
$RDENS,510,4481127,PC
$GPGGA,122653.00,4612.1617146,N,00607.5880989,E,4,11,0.9,368.634,M,49.480,M,0.20,0195*72
$GPVTG,349.9767,T,349.9767,M,1.492,N,2.764,K,D*2F
$GPGGA,122653.40,4612.1618800,N,00607.5880566,E,4,11,0.9,368.648,M,49.480,M,0.60,0195*70
$GPVTG,350.1207,T,350.1207,M,1.521,N,2.819,K,D*23
$GPGGA,122653.60,4612.1619611,N,00607.5880316,E,4,11,0.9,368.651,M,49.480,M,0.80,0195*7A
$RDENS,511,4481215,PC
$GPVTG,344.4663,T,344.4663,M,1.536,N,2.847,K,D*2E
$GPGGA,122654.00,4612.1621269,N,00607.5879662,E,4,11,0.9,368.641,M,49.480,M,0.16,0195*75
$GPVTG,344.7176,T,344.7176,M,1.548,N,2.869,K,D*2B
$GPGGA,122654.20,4612.1622089,N,00607.5879334,E,4,11,0.9,368.648,M,49.480,M,0.36,0195*75
$GPVTG,343.2011,T,343.2011,M,1.555,N,2.881,K,D*21
$GPGGA,122654.60,4612.1623721,N,00607.5878625,E,4,11,0.9,368.660,M,49.480,M,0.17,0195*78
$RDENS,512,4481303,PC
$GPVTG,343.3566,T,343.3566,M,1.516,N,2.809,K,D*26
$GPGGA,122654.80,4612.1624561,N,00607.5878267,E,4,11,0.9,368.661,M,49.480,M,0.37,0195*76
$GPVTG,341.0404,T,341.0404,M,1.633,N,3.027,K,D*27
$GPGGA,122655.20,4612.1626276,N,00607.5877385,E,4,11,0.9,368.649,M,49.480,M,0.77,0195*72
$GPVTG,340.3178,T,340.3178,M,1.656,N,3.069,K,D*2E
$GPGGA,122655.40,4612.1627185,N,00607.5876942,E,4,11,0.9,368.636,M,49.480,M,0.97,0195*7C
$RDENS,513,4481391,PC
$GPVTG,338.9862,T,338.9862,M,1.718,N,3.183,K,D*20
$GPGGA,122655.80,4612.1628998,N,00607.5875949,E,4,11,0.9,368.635,M,49.480,M,1.37,0195*7B
$GPVTG,339.3702,T,339.3702,M,1.777,N,3.294,K,D*2C
$GPGGA,122656.00,4612.1629907,N,00607.5875422,E,4,11,0.9,368.633,M,49.480,M,1.57,0195*77
$GPVTG,337.8283,T,337.8283,M,1.804,N,3.343,K,D*2C
$GPGGA,122656.20,4612.1630839,N,00607.5874877,E,4,11,0.9,368.646,M,49.480,M,1.77,0195*7C
$RDENS,514,4481479,PC
$GPVTG,338.8782,T,338.8782,M,1.835,N,3.401,K,D*2F
$GPGGA,122656.60,4612.1632718,N,00607.5873773,E,4,11,0.9,368.646,M,49.480,M,0.02,0195*79
$GPVTG,336.6576,T,336.6576,M,1.803,N,3.341,K,D*29
$GPGGA,122656.80,4612.1633697,N,00607.5873187,E,4,11,0.9,368.641,M,49.480,M,0.22,0195*78
$GPVTG,337.8269,T,337.8269,M,1.834,N,3.398,K,D*29
$GPGGA,122657.20,4612.1635595,N,00607.5872050,E,4,11,0.9,368.637,M,49.480,M,0.62,0195*7B
$GPVTG,337.0699,T,337.0699,M,1.883,N,3.490,K,D*2A
$RDENS,515,4481567,PC
$GPGGA,122657.40,4612.1636568,N,00607.5871501,E,4,11,0.9,368.638,M,49.480,M,0.82,0195*7F
$GPVTG,336.8701,T,336.8701,M,1.861,N,3.450,K,D*2A
$GPGGA,122657.80,4612.1638482,N,00607.5870385,E,4,11,0.9,368.643,M,49.480,M,1.22,0195*74
$GPVTG,338.7429,T,338.7429,M,1.847,N,3.423,K,D*2A
$GPGGA,122658.00,4612.1639421,N,00607.5869888,E,4,11,0.9,368.644,M,49.480,M,1.42,0195*74
$RDENS,516,4481655,PC
$GPVTG,337.9941,T,337.9941,M,1.869,N,3.464,K,D*25
$GPGGA,122658.40,4612.1641329,N,00607.5868767,E,4,11,0.9,368.638,M,49.480,M,1.82,0195*78
$GPVTG,337.4662,T,337.4662,M,1.832,N,3.394,K,D*23
$GPGGA,122658.60,4612.1642253,N,00607.5868221,E,4,11,0.9,368.648,M,49.480,M,0.01,0195*7F
$GPVTG,337.0759,T,337.0759,M,1.799,N,3.335,K,D*26
$GPGGA,122659.00,4612.1644098,N,00607.5867106,E,4,11,0.9,368.646,M,49.480,M,0.41,0195*78
$RDENS,517,4481744,PC
$GPVTG,337.0359,T,337.0359,M,1.780,N,3.300,K,D*28
$GPGGA,122659.20,4612.1644979,N,00607.5866526,E,4,11,0.9,368.646,M,49.480,M,0.61,0195*79
$GPVTG,337.2204,T,337.2204,M,1.770,N,3.281,K,D*2F
$GPGGA,122659.60,4612.1646766,N,00607.5865443,E,4,11,0.9,368.637,M,49.480,M,1.01,0195*7F
$GPVTG,337.2068,T,337.2068,M,1.711,N,3.171,K,D*24
$GPGGA,122659.80,4612.1647629,N,00607.5864935,E,4,11,0.9,368.637,M,49.480,M,1.21,0195*75
$RDENS,518,4481832,PC
$GPVTG,337.3185,T,337.3185,M,1.631,N,3.022,K,D*20
$GPGGA,122700.20,4612.1649298,N,00607.5863947,E,4,11,0.9,368.634,M,49.480,M,1.61,0195*77
$GPVTG,338.0499,T,338.0499,M,1.605,N,2.975,K,D*2D
$GPGGA,122700.40,4612.1650118,N,00607.5863474,E,4,11,0.9,368.647,M,49.480,M,1.81,0195*75
$GPVTG,334.9036,T,334.9036,M,1.474,N,2.732,K,D*24
$GPGGA,122700.80,4612.1651651,N,00607.5862524,E,4,11,0.9,368.642,M,49.480,M,2.21,0195*7B
$RDENS,519,4481920,PC
$GPVTG,338.5718,T,338.5718,M,1.534,N,2.843,K,D*28
$GPGGA,122701.00,4612.1652436,N,00607.5862041,E,4,11,0.9,368.634,M,49.480,M,0.07,0195*73
$GPVTG,337.8637,T,337.8637,M,1.424,N,2.639,K,D*2B
$GPGGA,122701.20,4612.1653146,N,00607.5861606,E,4,11,0.9,368.632,M,49.480,M,0.13,0195*77
$GPVTG,337.0052,T,337.0052,M,1.378,N,2.555,K,D*2C
$GPGGA,122701.60,4612.1654570,N,00607.5860755,E,4,11,0.9,368.641,M,49.480,M,0.53,0195*73
$RDENS,520,4482008,PC
$GPVTG,337.8292,T,337.8292,M,1.380,N,2.557,K,D*29
$GPGGA,122701.80,4612.1655270,N,00607.5860288,E,4,11,0.9,368.656,M,49.480,M,0.73,0195*7A
$GPVTG,336.7237,T,336.7237,M,1.340,N,2.484,K,D*2A
$GPGGA,122702.20,4612.1656606,N,00607.5859466,E,4,11,0.9,368.634,M,49.480,M,1.13,0195*7A
$GPVTG,337.4510,T,337.4510,M,1.290,N,2.391,K,D*25
$GPGGA,122702.40,4612.1657239,N,00607.5859044,E,4,11,0.9,368.623,M,49.480,M,0.24,0195*72
$RDENS,521,4482096,PC
$GPVTG,338.4194,T,338.4194,M,1.319,N,2.444,K,D*2A
$GPGGA,122702.80,4612.1658566,N,00607.5858250,E,4,11,0.9,368.627,M,49.480,M,0.09,0195*71
$GPVTG,333.5131,T,333.5131,M,1.218,N,2.258,K,D*21
$GPGGA,122703.00,4612.1659179,N,00607.5857809,E,4,11,0.9,368.622,M,49.480,M,0.29,0195*7D
$GPVTG,337.4297,T,337.4297,M,1.298,N,2.406,K,D*24
$GPGGA,122703.40,4612.1660407,N,00607.5856982,E,4,11,0.9,368.644,M,49.480,M,0.69,0195*78
$RDENS,522,4482184,PC
$GPVTG,333.2578,T,333.2578,M,1.174,N,2.175,K,D*24
$GPGGA,122703.60,4612.1661020,N,00607.5856557,E,4,11,0.9,368.644,M,49.480,M,0.89,0195*70
$GPVTG,333.0182,T,333.0182,M,1.144,N,2.120,K,D*27
$GPGGA,122704.00,4612.1662157,N,00607.5855683,E,4,11,0.9,368.653,M,49.480,M,1.29,0195*77
$GPVTG,332.0899,T,332.0899,M,1.205,N,2.233,K,D*20
$GPGGA,122704.20,4612.1662703,N,00607.5855241,E,4,11,0.9,368.657,M,49.480,M,1.49,0195*7A
$RDENS,523,4482272,PC
$GPVTG,331.4450,T,331.4450,M,1.174,N,2.176,K,D*27
$GPGGA,122704.60,4612.1663835,N,00607.5854334,E,4,11,0.9,368.645,M,49.480,M,1.89,0195*78
$GPVTG,330.7261,T,330.7261,M,1.166,N,2.160,K,D*23
$GPGGA,122704.80,4612.1664384,N,00607.5853877,E,4,11,0.9,368.643,M,49.480,M,0.06,0195*7B
$GPVTG,327.1736,T,327.1736,M,1.173,N,2.174,K,D*22
$GPGGA,122705.20,4612.1665491,N,00607.5852909,E,4,11,0.9,368.631,M,49.480,M,0.46,0195*7A
$RDENS,524,4482360,PC
$GPVTG,331.1823,T,331.1823,M,1.183,N,2.192,K,D*25
$GPGGA,122705.40,4612.1666070,N,00607.5852406,E,4,11,0.9,368.634,M,49.480,M,0.66,0195*71
$GPVTG,330.5994,T,330.5994,M,1.181,N,2.188,K,D*2C
$GPGGA,122705.80,4612.1667224,N,00607.5851453,E,4,11,0.9,368.650,M,49.480,M,1.06,0195*79
$GPVTG,329.6140,T,329.6140,M,1.199,N,2.222,K,D*26
$GPGGA,122706.00,4612.1667821,N,00607.5850928,E,4,11,0.9,368.642,M,49.480,M,1.26,0195*7C
$RDENS,525,4482448,PC
$GPVTG,329.1907,T,329.1907,M,1.286,N,2.384,K,D*26
$GPGGA,122706.40,4612.1669050,N,00607.5849864,E,4,11,0.9,368.638,M,49.480,M,1.66,0195*70
$GPVTG,328.6960,T,328.6960,M,1.286,N,2.384,K,D*26
$GPGGA,122706.60,4612.1669674,N,00607.5849312,E,4,11,0.9,368.641,M,49.480,M,1.86,0195*78
$GPVTG,330.0748,T,330.0748,M,1.291,N,2.392,K,D*27
$GPGGA,122707.00,4612.1670960,N,00607.5848264,E,4,11,0.9,368.640,M,49.480,M,2.26,0195*74
$RDENS,526,4482536,PC
$GPVTG,329.7964,T,329.7964,M,1.341,N,2.484,K,D*2B
$GPGGA,122707.20,4612.1671632,N,00607.5847723,E,4,11,0.9,368.646,M,49.480,M,2.46,0195*76
$GPVTG,328.9007,T,328.9007,M,1.399,N,2.592,K,D*28
$GPGGA,122707.40,4612.1672295,N,00607.5847146,E,4,11,0.9,368.643,M,49.480,M,2.66,0195*78
$GPVTG,330.3403,T,330.3403,M,1.422,N,2.636,K,D*22
$GPGGA,122707.80,4612.1673668,N,00607.5845994,E,4,11,0.9,368.639,M,49.480,M,3.06,0195*7C
$RDENS,527,4482624,PC
$GPVTG,328.9035,T,328.9035,M,1.421,N,2.634,K,D*23
$GPGGA,122708.00,4612.1674386,N,00607.5845429,E,4,11,0.9,368.622,M,49.480,M,3.26,0195*7A
$GPVTG,329.5202,T,329.5202,M,1.501,N,2.781,K,D*2F
$GPGGA,122708.40,4612.1675851,N,00607.5844206,E,4,11,0.9,368.619,M,49.480,M,3.66,0195*78
$GPVTG,330.1204,T,330.1204,M,1.541,N,2.857,K,D*2F
$GPGGA,122708.60,4612.1676603,N,00607.5843563,E,4,11,0.9,368.614,M,49.480,M,3.86,0195*70
$RDENS,528,4482712,PC
$GPVTG,330.8843,T,330.8843,M,1.543,N,2.859,K,D*23
$GPGGA,122709.00,4612.1678126,N,00607.5842311,E,4,11,0.9,368.617,M,49.480,M,4.26,0195*75
$GPVTG,329.3409,T,329.3409,M,1.592,N,2.951,K,D*26
$GPGGA,122709.20,4612.1678910,N,00607.5841650,E,4,11,0.9,368.624,M,49.480,M,4.46,0195*7F
$GPVTG,330.7897,T,330.7897,M,1.640,N,3.040,K,D*22
$GPGGA,122709.60,4612.1680506,N,00607.5840336,E,4,11,0.9,368.627,M,49.480,M,4.86,0195*7C
$RDENS,529,4482800,PC
$GPVTG,329.4555,T,329.4555,M,1.659,N,3.075,K,D*2C
$GPVTG,328.9765,T,328.9765,M,1.673,N,3.100,K,D*27
$GPGGA,122710.00,4612.1682160,N,00607.5838995,E,4,11,0.9,368.623,M,49.480,M,5.26,0195*77
$GPVTG,328.6208,T,328.6208,M,1.618,N,2.998,K,D*22
$GPGGA,122710.20,4612.1682929,N,00607.5838324,E,4,11,0.9,368.627,M,49.480,M,5.46,0195*72
$GPVTG,329.6814,T,329.6814,M,1.713,N,3.174,K,D*23
$RDENS,530,4482888,PC
$GPGGA,122710.60,4612.1684535,N,00607.5836944,E,4,11,0.9,368.617,M,49.480,M,5.86,0195*7C
$GPVTG,328.4764,T,328.4764,M,1.654,N,3.066,K,D*23
$GPGGA,122710.80,4612.1685369,N,00607.5836249,E,4,11,0.9,368.614,M,49.480,M,6.06,0195*72
$GPVTG,329.5678,T,329.5678,M,1.662,N,3.080,K,D*2E
$GPGGA,122711.20,4612.1686982,N,00607.5834893,E,4,11,0.9,368.622,M,49.480,M,6.46,0195*7B
$GPVTG,329.6965,T,329.6965,M,1.696,N,3.143,K,D*2B
$RDENS,531,4482976,PC
$GPGGA,122711.40,4612.1687736,N,00607.5834203,E,4,11,0.9,368.630,M,49.480,M,6.66,0195*7F
$GPVTG,329.9929,T,329.9929,M,1.713,N,3.174,K,D*23
$GPGGA,122711.80,4612.1689359,N,00607.5832871,E,4,11,0.9,368.650,M,49.480,M,7.06,0195*78
$GPVTG,330.3967,T,330.3967,M,1.648,N,3.054,K,D*2F
$GPGGA,122712.00,4612.1690157,N,00607.5832182,E,4,11,0.9,368.648,M,49.480,M,7.26,0195*79
$GPVTG,330.5334,T,330.5334,M,1.673,N,3.101,K,D*26
$RDENS,532,4483064,PC
$GPGGA,122712.40,4612.1691761,N,00607.5830875,E,4,11,0.9,368.645,M,49.480,M,7.66,0195*75
$GPVTG,330.0946,T,330.0946,M,1.630,N,3.021,K,D*22
$GPGGA,122712.60,4612.1692562,N,00607.5830253,E,4,11,0.9,368.645,M,49.480,M,7.86,0195*75
$GPVTG,330.5047,T,330.5047,M,1.627,N,3.014,K,D*22
$GPGGA,122713.00,4612.1694118,N,00607.5829026,E,4,11,0.9,368.662,M,49.480,M,8.26,0195*75
$GPVTG,331.8952,T,331.8952,M,1.565,N,2.900,K,D*2A
$RDENS,533,4483152,PC
$GPGGA,122713.20,4612.1694898,N,00607.5828416,E,4,11,0.9,368.653,M,49.480,M,8.46,0195*74
$GPVTG,329.9221,T,329.9221,M,1.584,N,2.935,K,D*23
$GPGGA,122713.60,4612.1696406,N,00607.5827177,E,4,11,0.9,368.667,M,49.480,M,8.86,0195*7F
$GPVTG,330.4994,T,330.4994,M,1.542,N,2.859,K,D*22
$GPGGA,122713.80,4612.1697127,N,00607.5826559,E,4,11,0.9,368.657,M,49.480,M,9.06,0195*75
$GPVTG,330.8479,T,330.8479,M,1.526,N,2.829,K,D*27
$RDENS,534,4483240,PC
$GPGGA,122714.20,4612.1698590,N,00607.5825330,E,4,11,0.9,368.654,M,49.480,M,9.46,0195*72
$GPVTG,328.3658,T,328.3658,M,1.519,N,2.814,K,D*25
$GPGGA,122714.40,4612.1699301,N,00607.5824742,E,4,11,0.9,368.665,M,49.480,M,9.66,0195*7B
$GPVTG,330.9699,T,330.9699,M,1.535,N,2.845,K,D*2F
$GPGGA,122714.80,4612.1700739,N,00607.5823539,E,4,11,0.9,368.656,M,49.480,M,10.06,0195*4E
$GPVTG,328.6912,T,328.6912,M,1.453,N,2.694,K,D*2C
$RDENS,535,4483328,PC
$GPGGA,122715.00,4612.1701439,N,00607.5822938,E,4,11,0.9,368.664,M,49.480,M,10.26,0195*4A
$GPVTG,328.8707,T,328.8707,M,1.460,N,2.707,K,D*27
$GPGGA,122715.20,4612.1702130,N,00607.5822336,E,4,11,0.9,368.659,M,49.480,M,10.46,0195*4B
$GPVTG,328.3559,T,328.3559,M,1.472,N,2.729,K,D*28
$GPGGA,122715.60,4612.1703533,N,00607.5821141,E,4,11,0.9,368.656,M,49.480,M,10.86,0195*4B
$GPVTG,330.0866,T,330.0866,M,1.446,N,2.680,K,D*2D
$RDENS,536,4483416,PC
$GPGGA,122715.80,4612.1704229,N,00607.5820578,E,4,11,0.9,368.639,M,49.480,M,11.06,0195*41
$GPVTG,329.4534,T,329.4534,M,1.446,N,2.680,K,D*2D
$GPGGA,122716.20,4612.1705626,N,00607.5819409,E,4,11,0.9,368.634,M,49.480,M,11.46,0195*46
$GPVTG,330.3245,T,330.3245,M,1.456,N,2.699,K,D*24
$GPGGA,122716.40,4612.1706313,N,00607.5818792,E,4,11,0.9,368.633,M,49.480,M,11.66,0195*45
$GPVTG,330.2979,T,330.2979,M,1.533,N,2.841,K,D*2D
$RDENS,537,4483504,PC
$GPGGA,122716.80,4612.1707759,N,00607.5817592,E,4,11,0.9,368.647,M,49.480,M,12.06,0195*49
$GPVTG,329.1223,T,329.1223,M,1.456,N,2.699,K,D*24
$GPGGA,122717.00,4612.1708482,N,00607.5816996,E,4,11,0.9,368.648,M,49.480,M,12.26,0195*4E
$GPVTG,328.1914,T,328.1914,M,1.498,N,2.776,K,D*26
$GPGGA,122717.40,4612.1709933,N,00607.5815718,E,4,11,0.9,368.640,M,49.480,M,12.66,0195*4B
$GPVTG,328.3514,T,328.3514,M,1.537,N,2.848,K,D*20
$RDENS,538,4483592,PC
$GPGGA,122717.60,4612.1710652,N,00607.5815095,E,4,11,0.9,368.648,M,49.480,M,12.86,0195*4D
$GPVTG,331.9690,T,331.9690,M,1.490,N,2.761,K,D*28
$GPGGA,122718.00,4612.1712101,N,00607.5813926,E,4,11,0.9,368.655,M,49.480,M,13.26,0195*47
$GPVTG,328.8136,T,328.8136,M,1.476,N,2.735,K,D*21
$GPGGA,122718.20,4612.1712848,N,00607.5813349,E,2,11,0.9,368.658,M,49.480,M,13.46,0195*4F
$GPVTG,332.3170,T,332.3170,M,1.557,N,2.885,K,D*27
$RDENS,539,4483680,PC
$GPGGA,122718.60,4612.1714347,N,00607.5812212,E,2,11,0.9,368.637,M,49.480,M,13.86,0195*42
$GPVTG,333.5125,T,333.5125,M,1.527,N,2.829,K,D*26
$GPGGA,122718.80,4612.1715085,N,00607.5811645,E,2,11,0.9,368.651,M,49.480,M,14.06,0195*4A
$GPVTG,334.4686,T,334.4686,M,1.535,N,2.845,K,D*2F
$GPGGA,122719.20,4612.1716577,N,00607.5810516,E,2,11,0.9,368.658,M,49.480,M,14.46,0195*43
$GPVTG,330.4729,T,330.4729,M,1.512,N,2.803,K,D*28
$RDENS,540,4483768,PC
$GPGGA,122719.40,4612.1717283,N,00607.5809978,E,2,11,0.9,368.677,M,49.480,M,14.66,0195*4B
$GPVTG,334.0750,T,334.0750,M,1.528,N,2.831,K,D*20
$GPGGA,122719.80,4612.1718810,N,00607.5808932,E,2,11,0.9,368.677,M,49.480,M,15.06,0195*40
$GPVTG,335.0100,T,335.0100,M,1.517,N,2.811,K,D*2E
$GPGGA,122720.00,4612.1719534,N,00607.5808408,E,2,11,0.9,368.677,M,49.480,M,15.26,0195*4E
$GPVTG,336.5949,T,336.5949,M,1.489,N,2.759,K,D*2B
$RDENS,541,4483855,PC
$GPGGA,122720.40,4612.1721128,N,00607.5807476,E,2,10,1.0,368.626,M,49.480,M,15.66,0195*47
$GPVTG,335.8133,T,335.8133,M,1.511,N,2.800,K,D*28
$GPGGA,122720.60,4612.1721887,N,00607.5807004,E,2,10,1.0,368.623,M,49.480,M,15.86,0195*43
$GPVTG,333.2828,T,333.2828,M,1.419,N,2.631,K,D*2D
$GPGGA,122721.00,4612.1723342,N,00607.5806049,E,2,10,1.0,368.628,M,49.480,M,16.26,0195*4E
$GPVTG,337.5805,T,337.5805,M,1.451,N,2.690,K,D*2A
$RDENS,542,4483943,PC
$GPGGA,122721.20,4612.1724063,N,00607.5805553,E,2,10,1.0,368.621,M,49.480,M,16.46,0195*49
$GPVTG,337.5531,T,337.5531,M,1.441,N,2.671,K,D*24
$GPGGA,122721.60,4612.1725502,N,00607.5804645,E,2,10,1.0,368.632,M,49.480,M,16.86,0195*45
$GPVTG,335.1335,T,335.1335,M,1.389,N,2.575,K,D*20
$GPGGA,122721.80,4612.1726204,N,00607.5804187,E,2,10,1.0,368.621,M,49.480,M,17.06,0195*4B
$RDENS,543,4484031,PC
$GPVTG,334.4305,T,334.4305,M,1.343,N,2.489,K,D*24
$GPGGA,122722.20,4612.1727575,N,00607.5803285,E,2,10,1.0,368.623,M,49.480,M,17.46,0195*42
$GPVTG,336.2664,T,336.2664,M,1.360,N,2.521,K,D*26
$GPGGA,122722.40,4612.1728237,N,00607.5802858,E,2,10,1.0,368.617,M,49.480,M,17.66,0195*44
$GPVTG,335.8168,T,335.8168,M,1.306,N,2.420,K,D*26
$GPGGA,122722.60,4612.1728888,N,00607.5802389,E,2,10,1.0,368.628,M,49.480,M,17.86,0195*4D
$RDENS,544,4484119,PC
$GPVTG,337.0125,T,337.0125,M,1.315,N,2.437,K,D*22
$GPGGA,122723.00,4612.1730187,N,00607.5801540,E,2,10,1.0,368.619,M,49.480,M,18.26,0195*42
$GPVTG,333.8894,T,333.8894,M,1.248,N,2.313,K,D*2A
$GPGGA,122723.20,4612.1730806,N,00607.5801090,E,2,10,1.0,368.630,M,49.480,M,0.07,0195*79
$GPVTG,338.6642,T,338.6642,M,1.294,N,2.398,K,D*28
$GPGGA,122723.60,4612.1732087,N,00607.5800236,E,2,10,1.0,368.634,M,49.480,M,0.33,0195*72
$RDENS,545,4484207,PC
$GPVTG,331.9994,T,331.9994,M,1.243,N,2.303,K,D*20
$GPGGA,122723.80,4612.1732741,N,00607.5799829,E,2,10,1.0,368.635,M,49.480,M,0.53,0195*7D
$GPVTG,337.1219,T,337.1219,M,1.327,N,2.460,K,D*21
$GPGGA,122724.20,4612.1734011,N,00607.5799006,E,2,10,1.0,368.635,M,49.480,M,0.93,0195*7D
$GPVTG,334.4336,T,334.4336,M,1.201,N,2.225,K,D*23
$GPGGA,122724.40,4612.1734648,N,00607.5798606,E,2,10,1.0,368.625,M,49.480,M,1.13,0195*7E
$RDENS,546,4484295,PC
$GPVTG,337.9348,T,337.9348,M,1.275,N,2.364,K,D*24
$GPGGA,122724.80,4612.1735915,N,00607.5797773,E,2,10,1.0,368.624,M,49.480,M,1.53,0195*7D
$GPVTG,333.0204,T,333.0204,M,1.247,N,2.311,K,D*27
$GPGGA,122725.00,4612.1736566,N,00607.5797377,E,2,10,1.0,368.630,M,49.480,M,0.10,0195*7C
$GPVTG,336.0846,T,336.0846,M,1.241,N,2.300,K,D*21
$GPGGA,122725.40,4612.1737757,N,00607.5796436,E,4,10,1.0,368.635,M,49.480,M,0.12,0195*7B
$RDENS,547,4484383,PC
$GPVTG,333.6640,T,333.6640,M,1.306,N,2.421,K,D*27
$GPGGA,122725.60,4612.1738406,N,00607.5796011,E,4,10,1.0,368.648,M,49.480,M,0.32,0195*78
$GPVTG,335.1823,T,335.1823,M,1.351,N,2.504,K,D*23
$GPGGA,122726.00,4612.1739775,N,00607.5795116,E,4,10,1.0,368.656,M,49.480,M,0.72,0195*75
$GPVTG,335.7620,T,335.7620,M,1.347,N,2.496,K,D*2E
$GPGGA,122726.20,4612.1740440,N,00607.5794643,E,4,10,1.0,368.664,M,49.480,M,0.92,0195*75
$RDENS,548,4484471,PC
$GPVTG,336.9082,T,336.9082,M,1.418,N,2.629,K,D*25
$GPGGA,122726.60,4612.1741851,N,00607.5793700,E,4,10,1.0,368.648,M,49.480,M,1.32,0195*78
$GPVTG,333.2228,T,333.2228,M,1.389,N,2.573,K,D*26
$GPGGA,122726.80,4612.1742561,N,00607.5793235,E,4,10,1.0,368.649,M,49.480,M,1.52,0195*7F
$GPVTG,336.4758,T,336.4758,M,1.439,N,2.666,K,D*2D
$GPGGA,122727.20,4612.1744024,N,00607.5792308,E,4,10,1.0,368.629,M,49.480,M,1.92,0195*72
$RDENS,549,4484559,PC
$GPVTG,335.8327,T,335.8327,M,1.432,N,2.653,K,D*20
$GPGGA,122727.40,4612.1744750,N,00607.5791853,E,4,10,1.0,368.632,M,49.480,M,2.12,0195*77
$GPVTG,336.5678,T,336.5678,M,1.440,N,2.668,K,D*2D
$GPGGA,122727.60,4612.1745449,N,00607.5791355,E,4,10,1.0,368.631,M,49.480,M,0.08,0195*78
$GPVTG,337.6404,T,337.6404,M,1.449,N,2.686,K,D*24
$GPGGA,122728.00,4612.1746951,N,00607.5790442,E,4,10,1.0,368.654,M,49.480,M,0.01,0195*7C
$RDENS,550,4484647,PC
$GPVTG,337.2749,T,337.2749,M,1.473,N,2.730,K,D*21
$GPGGA,122728.20,4612.1747714,N,00607.5789980,E,4,10,1.0,368.656,M,49.480,M,0.19,0195*70
$GPVTG,339.7518,T,339.7518,M,1.525,N,2.827,K,D*2A
$GPGGA,122728.60,4612.1749261,N,00607.5789083,E,4,10,1.0,368.656,M,49.480,M,0.59,0195*73
$GPVTG,336.6083,T,336.6083,M,1.491,N,2.764,K,D*2C
$GPGGA,122728.80,4612.1750041,N,00607.5788664,E,4,10,1.0,368.664,M,49.480,M,0.79,0195*78
$RDENS,551,4484735,PC
$GPVTG,337.3165,T,337.3165,M,1.545,N,2.863,K,D*2C
$GPGGA,122729.20,4612.1751606,N,00607.5787740,E,4,10,1.0,368.648,M,49.480,M,1.19,0195*76
$GPVTG,338.4897,T,338.4897,M,1.504,N,2.787,K,D*2C
$GPGGA,122729.40,4612.1752420,N,00607.5787293,E,4,10,1.0,368.650,M,49.481,M,1.39,0195*74
$GPVTG,336.1562,T,336.1562,M,1.501,N,2.782,K,D*2C
$GPGGA,122729.80,4612.1753989,N,00607.5786324,E,4,10,1.0,368.648,M,49.481,M,1.79,0195*76
$RDENS,552,4484823,PC
$GPVTG,337.6132,T,337.6132,M,1.578,N,2.924,K,D*20
$GPGGA,122730.00,4612.1754780,N,00607.5785809,E,4,10,1.0,368.650,M,49.481,M,0.14,0195*72
$GPVTG,335.9215,T,335.9215,M,1.534,N,2.843,K,D*28
$GPGGA,122730.40,4612.1756346,N,00607.5784809,E,4,10,1.0,368.662,M,49.481,M,0.09,0195*76
$GPVTG,336.3758,T,336.3758,M,1.562,N,2.896,K,D*23
$GPGGA,122730.60,4612.1757166,N,00607.5784324,E,4,10,1.0,368.646,M,49.481,M,0.29,0195*75
$RDENS,553,4484911,PC
$GPVTG,336.3319,T,336.3319,M,1.563,N,2.897,K,D*23
$GPGGA,122731.00,4612.1758780,N,00607.5783290,E,4,10,1.0,368.643,M,49.481,M,0.14,0195*71
$GPVTG,335.5162,T,335.5162,M,1.585,N,2.937,K,D*20
$GPGGA,122731.20,4612.1759599,N,00607.5782755,E,4,10,1.0,368.643,M,49.481,M,0.34,0195*77
$GPVTG,335.2416,T,335.2416,M,1.600,N,2.965,K,D*29
$GPGGA,122731.60,4612.1761186,N,00607.5781676,E,4,10,1.0,368.655,M,49.481,M,0.12,0195*72
$RDENS,554,4484999,PC
$GPVTG,334.3844,T,334.3844,M,1.553,N,2.878,K,D*21
$GPVTG,335.0957,T,335.0957,M,1.596,N,2.958,K,D*2B
$GPGGA,122732.00,4612.1762864,N,00607.5780601,E,4,10,1.0,368.650,M,49.481,M,0.52,0195*71
$GPVTG,335.1851,T,335.1851,M,1.662,N,3.081,K,D*2F
$GPGGA,122732.20,4612.1763710,N,00607.5780040,E,4,10,1.0,368.654,M,49.481,M,0.72,0195*7B
$GPVTG,334.9116,T,334.9116,M,1.612,N,2.988,K,D*29
$RDENS,555,4485087,PC
$GPGGA,122732.60,4612.1765359,N,00607.5778923,E,4,10,1.0,368.643,M,49.481,M,1.12,0195*7A
$GPVTG,334.9276,T,334.9276,M,1.691,N,3.133,K,D*2B
$GPGGA,122732.80,4612.1766194,N,00607.5778376,E,4,10,1.0,368.647,M,49.481,M,1.32,0195*78
$GPVTG,336.5085,T,336.5085,M,1.687,N,3.126,K,D*28
$GPGGA,122733.20,4612.1767895,N,00607.5777261,E,4,10,1.0,368.641,M,49.481,M,1.72,0195*70
$GPVTG,334.6030,T,334.6030,M,1.682,N,3.117,K,D*2F
$RDENS,556,4485175,PC
$GPGGA,122733.40,4612.1768759,N,00607.5776737,E,4,10,1.0,368.652,M,49.481,M,1.92,0195*7D
$GPVTG,334.6368,T,334.6368,M,1.679,N,3.112,K,D*2E
$GPGGA,122733.80,4612.1770468,N,00607.5775612,E,4,10,1.0,368.646,M,49.481,M,2.32,0195*70
$GPVTG,336.1537,T,336.1537,M,1.696,N,3.143,K,D*2B
$GPGGA,122734.00,4612.1771325,N,00607.5775074,E,4,10,1.0,368.647,M,49.481,M,2.52,0195*71
$GPVTG,336.5417,T,336.5417,M,1.719,N,3.185,K,D*27
$RDENS,557,4485263,PC
$GPGGA,122734.40,4612.1773056,N,00607.5773969,E,4,10,1.0,368.636,M,49.481,M,0.14,0195*75
$GPVTG,335.4763,T,335.4763,M,1.680,N,3.113,K,D*29
$GPGGA,122734.60,4612.1773923,N,00607.5773442,E,4,10,1.0,368.635,M,49.481,M,0.34,0195*79
$GPVTG,336.5352,T,336.5352,M,1.673,N,3.101,K,D*26
$GPGGA,122735.00,4612.1775599,N,00607.5772384,E,4,10,1.0,368.634,M,49.481,M,0.74,0195*7C
$GPVTG,336.0664,T,336.0664,M,1.619,N,3.001,K,D*2B
$RDENS,558,4485351,PC
$GPGGA,122735.20,4612.1776434,N,00607.5771871,E,4,10,1.0,368.645,M,49.481,M,0.94,0195*71
$GPVTG,337.3233,T,337.3233,M,1.603,N,2.971,K,D*2F
$GPGGA,122735.60,4612.1778086,N,00607.5770899,E,4,10,1.0,368.636,M,49.481,M,1.34,0195*7E
$GPVTG,338.4303,T,338.4303,M,1.621,N,3.005,K,D*24
$GPGGA,122735.80,4612.1778873,N,00607.5770425,E,4,10,1.0,368.633,M,49.481,M,1.54,0195*7A
$GPVTG,336.8889,T,336.8889,M,1.537,N,2.848,K,D*20
$RDENS,559,4485439,PC
$GPGGA,122736.20,4612.1780481,N,00607.5769505,E,4,10,1.0,368.625,M,49.481,M,0.26,0195*7D
$GPVTG,340.1004,T,340.1004,M,1.558,N,2.887,K,D*2A
$GPGGA,122736.40,4612.1781244,N,00607.5769060,E,4,10,1.0,368.631,M,49.481,M,0.46,0195*70
$GPVTG,339.9183,T,339.9183,M,1.474,N,2.732,K,D*24
$GPGGA,122736.60,4612.1782012,N,00607.5768656,E,4,10,1.0,368.621,M,49.481,M,0.66,0195*71
$GPVTG,339.8707,T,339.8707,M,1.436,N,2.661,K,D*25
$RDENS,560,4485527,PC
$GPGGA,122737.00,4612.1783515,N,00607.5767894,E,4,10,1.0,368.640,M,49.481,M,1.06,0195*7A
$GPVTG,341.2931,T,341.2931,M,1.442,N,2.673,K,D*25
$GPGGA,122737.20,4612.1784242,N,00607.5767532,E,4,10,1.0,368.647,M,49.481,M,1.26,0195*7E
$GPVTG,340.9320,T,340.9320,M,1.359,N,2.519,K,D*27
$GPGGA,122737.60,4612.1785645,N,00607.5766795,E,4,10,1.0,368.641,M,49.481,M,0.08,0195*7D
$GPVTG,339.3035,T,339.3035,M,1.326,N,2.457,K,D*24
$RDENS,561,4485615,PC
$GPGGA,122737.80,4612.1786322,N,00607.5766428,E,4,10,1.0,368.641,M,49.481,M,0.28,0195*73
$GPVTG,340.6995,T,340.6995,M,1.243,N,2.304,K,D*27
$GPGGA,122738.20,4612.1787594,N,00607.5765724,E,4,10,1.0,368.644,M,49.481,M,0.68,0195*71
$GPVTG,337.1264,T,337.1264,M,1.224,N,2.269,K,D*2C
$GPGGA,122738.40,4612.1788201,N,00607.5765364,E,4,10,1.0,368.643,M,49.481,M,0.88,0195*7A
$GPVTG,338.6691,T,338.6691,M,1.202,N,2.227,K,D*22
$RDENS,562,4485703,PC
$GPGGA,122738.80,4612.1789385,N,00607.5764646,E,4,10,1.0,368.645,M,49.481,M,0.06,0195*7E
$GPVTG,335.7711,T,335.7711,M,1.125,N,2.085,K,D*2E
$GPGGA,122739.00,4612.1789983,N,00607.5764294,E,4,10,1.0,368.650,M,49.481,M,0.26,0195*76
$GPVTG,330.7020,T,330.7020,M,1.067,N,1.977,K,D*2E
$GPGGA,122739.40,4612.1791082,N,00607.5763531,E,4,10,1.0,368.650,M,49.481,M,0.16,0195*7F
$GPVTG,336.7368,T,336.7368,M,1.125,N,2.084,K,D*2F
$RDENS,563,4485791,PC
$GPGGA,122739.60,4612.1791624,N,00607.5763148,E,4,10,1.0,368.636,M,49.481,M,0.09,0195*73
$GPVTG,333.9377,T,333.9377,M,1.097,N,2.033,K,D*2B
$GPGGA,122740.00,4612.1792727,N,00607.5762379,E,4,10,1.0,368.659,M,49.481,M,0.49,0195*76
$GPVTG,334.6748,T,334.6748,M,1.105,N,2.047,K,D*22
$GPGGA,122740.20,4612.1793220,N,00607.5761975,E,4,10,1.0,368.645,M,49.481,M,0.69,0195*7D
$GPVTG,331.5665,T,331.5665,M,1.070,N,1.983,K,D*23
$RDENS,564,4485879,PC
$GPGGA,122740.60,4612.1794292,N,00607.5761180,E,4,10,1.0,368.664,M,49.481,M,1.09,0195*71
$GPVTG,334.5157,T,334.5157,M,1.113,N,2.062,K,D*22
$GPGGA,122740.80,4612.1794806,N,00607.5760728,E,4,10,1.0,368.640,M,49.481,M,1.29,0195*79
$GPVTG,332.2040,T,332.2040,M,1.060,N,1.965,K,D*2A
$GPGGA,122741.20,4612.1795900,N,00607.5759935,E,4,10,1.0,368.642,M,49.481,M,0.20,0195*76
$GPVTG,333.4794,T,333.4794,M,1.113,N,2.063,K,D*23
$RDENS,565,4485968,PC
$GPGGA,122741.40,4612.1796422,N,00607.5759489,E,4,10,1.0,368.642,M,49.481,M,0.40,0195*72
$GPVTG,335.2386,T,335.2386,M,1.171,N,2.170,K,D*24
$GPGGA,122741.60,4612.1797009,N,00607.5759101,E,4,10,1.0,368.651,M,49.481,M,0.04,0195*7B
$GPVTG,331.2657,T,331.2657,M,1.107,N,2.051,K,D*27
$GPGGA,122742.00,4612.1798113,N,00607.5758267,E,4,10,1.0,368.664,M,49.481,M,0.44,0195*7B
$GPVTG,333.2708,T,333.2708,M,1.121,N,2.078,K,D*28
$RDENS,566,4486056,PC
$GPGGA,122742.20,4612.1798654,N,00607.5757850,E,4,10,1.0,368.688,M,49.481,M,0.64,0195*7C
$GPVTG,334.0049,T,334.0049,M,1.160,N,2.149,K,D*2E
$GPGGA,122742.60,4612.1799839,N,00607.5757016,E,4,10,1.0,368.662,M,49.481,M,0.00,0195*70
$GPVTG,333.3982,T,333.3982,M,1.178,N,2.184,K,D*26
$GPGGA,122742.80,4612.1800408,N,00607.5756560,E,4,10,1.0,368.663,M,49.481,M,0.20,0195*79
$GPVTG,337.5998,T,337.5998,M,1.246,N,2.310,K,D*27
$RDENS,567,4486144,PC
$GPGGA,122743.20,4612.1801577,N,00607.5755709,E,4,10,1.0,368.646,M,49.481,M,0.60,0195*77
$GPVTG,328.9481,T,328.9481,M,1.134,N,2.101,K,D*23
$GPGGA,122743.40,4612.1802208,N,00607.5755328,E,4,10,1.0,368.645,M,49.481,M,0.80,0195*77
$GPVTG,334.2131,T,334.2131,M,1.175,N,2.178,K,D*28
$GPGGA,122743.80,4612.1803386,N,00607.5754517,E,4,10,1.0,368.662,M,49.481,M,1.20,0195*78
$GPVTG,335.3234,T,335.3234,M,1.206,N,2.235,K,D*25
$RDENS,568,4486232,PC
$GPGGA,122744.00,4612.1803994,N,00607.5754094,E,4,10,1.0,368.648,M,49.481,M,0.01,0195*7A
$GPVTG,332.3146,T,332.3146,M,1.176,N,2.179,K,D*2A
$GPGGA,122744.40,4612.1805212,N,00607.5753261,E,4,10,1.0,368.655,M,49.481,M,0.39,0195*75
$GPVTG,336.7972,T,336.7972,M,1.248,N,2.313,K,D*2A
$GPGGA,122744.60,4612.1805804,N,00607.5752895,E,4,10,1.0,368.661,M,49.481,M,0.59,0195*7B
$GPVTG,336.1329,T,336.1329,M,1.184,N,2.194,K,D*24
$RDENS,569,4486320,PC
$GPGGA,122745.00,4612.1807009,N,00607.5752095,E,4,10,1.0,368.661,M,49.481,M,0.99,0195*7F
$GPVTG,334.4970,T,334.4970,M,1.205,N,2.233,K,D*20
$GPGGA,122745.20,4612.1807601,N,00607.5751731,E,4,10,1.0,368.666,M,49.481,M,1.19,0195*77
$GPVTG,335.6988,T,335.6988,M,1.185,N,2.196,K,D*27
$GPGGA,122745.60,4612.1808760,N,00607.5750935,E,4,10,1.0,368.670,M,49.481,M,1.59,0195*72
$GPVTG,333.6073,T,333.6073,M,1.142,N,2.116,K,D*24
$RDENS,570,4486408,PC
$GPGGA,122745.80,4612.1809336,N,00607.5750525,E,4,10,1.0,368.651,M,49.481,M,1.79,0195*76
$GPVTG,337.9477,T,337.9477,M,1.167,N,2.162,K,D*20
$GPGGA,122746.00,4612.1809933,N,00607.5750175,E,4,10,1.0,368.671,M,49.481,M,1.99,0195*7F
$GPVTG,334.3214,T,334.3214,M,1.116,N,2.068,K,D*2D
$GPGGA,122746.40,4612.1811021,N,00607.5749433,E,4,10,1.0,368.658,M,49.481,M,2.39,0195*75
$GPVTG,335.3616,T,335.3616,M,1.054,N,1.954,K,D*2F
$RDENS,571,4486496,PC
$GPGGA,122746.60,4612.1811552,N,00607.5749082,E,4,10,1.0,368.665,M,49.481,M,2.59,0195*70
$GPVTG,338.2657,T,338.2657,M,1.133,N,2.099,K,D*24
$GPGGA,122747.00,4612.1812641,N,00607.5748410,E,4,10,1.0,368.668,M,49.481,M,2.99,0195*7A
$GPVTG,335.5695,T,335.5695,M,1.015,N,1.881,K,D*23
$GPGGA,122747.20,4612.1813126,N,00607.5748070,E,4,10,1.0,368.654,M,49.481,M,3.19,0195*7B
$GPVTG,336.9003,T,336.9003,M,0.948,N,1.756,K,D*26
$RDENS,572,4486584,PC
$GPGGA,122747.60,4612.1814109,N,00607.5747462,E,4,10,1.0,368.682,M,49.481,M,3.59,0195*72
$GPVTG,336.9532,T,336.9532,M,0.985,N,1.825,K,D*2C
$GPGGA,122747.80,4612.1814548,N,00607.5747145,E,4,10,1.0,368.689,M,49.481,M,3.79,0195*74
$GPVTG,342.0760,T,342.0760,M,0.922,N,1.708,K,D*21
$GPGGA,122748.20,4612.1815452,N,00607.5746620,E,4,10,1.0,368.693,M,49.481,M,4.19,0195*75
$GPVTG,333.5271,T,333.5271,M,0.846,N,1.569,K,D*27
$RDENS,573,4486672,PC
$GPGGA,122748.40,4612.1815923,N,00607.5746410,E,4,10,1.0,368.713,M,49.481,M,4.39,0195*72
$GPVTG,337.5815,T,337.5815,M,0.821,N,1.521,K,D*2A
$GPGGA,122748.80,4612.1816797,N,00607.5745972,E,4,10,1.0,368.698,M,49.481,M,4.79,0195*70
$GPVTG,344.3165,T,344.3165,M,0.870,N,1.613,K,D*2C
$GPGGA,122749.00,4612.1817191,N,00607.5745755,E,4,10,1.0,368.675,M,49.481,M,4.99,0195*7E
$GPVTG,344.0615,T,344.0615,M,0.858,N,1.590,K,D*2E
$RDENS,574,4486760,PC
$GPGGA,122749.40,4612.1818060,N,00607.5745344,E,4,10,1.0,368.665,M,49.481,M,5.39,0195*74
$GPVTG,339.7159,T,339.7159,M,0.796,N,1.475,K,D*29
$GPGGA,122749.60,4612.1818478,N,00607.5745204,E,4,10,1.0,368.662,M,49.481,M,5.59,0195*7F
$GPVTG,339.2978,T,339.2978,M,0.747,N,1.384,K,D*2C
$GPGGA,122750.00,4612.1819290,N,00607.5744863,E,4,10,1.0,368.680,M,49.481,M,5.99,0195*7A
$GPVTG,348.3062,T,348.3062,M,0.787,N,1.459,K,D*27
$RDENS,575,4486847,PC
$GPGGA,122750.20,4612.1819632,N,00607.5744619,E,4,10,1.0,368.654,M,49.481,M,0.00,0195*7B
$GPVTG,345.6932,T,345.6932,M,0.727,N,1.347,K,D*25
$GPGGA,122750.40,4612.1820037,N,00607.5744472,E,4,10,1.0,368.654,M,49.481,M,0.09,0195*72
$GPVTG,343.3004,T,343.3004,M,0.679,N,1.258,K,D*20
$GPGGA,122750.80,4612.1820820,N,00607.5744216,E,4,10,1.0,368.663,M,49.481,M,0.31,0195*7B
$GPVTG,350.7510,T,350.7510,M,0.775,N,1.436,K,D*23
$RDENS,576,4486935,PC
$GPGGA,122751.00,4612.1821182,N,00607.5744029,E,4,10,1.0,368.648,M,49.481,M,0.51,0195*73
$GPVTG,347.3882,T,347.3882,M,0.709,N,1.313,K,D*28
$GPGGA,122751.40,4612.1821968,N,00607.5743746,E,4,10,1.0,368.646,M,49.481,M,0.91,0195*70
$GPVTG,344.8231,T,344.8231,M,0.748,N,1.387,K,D*20
$GPGGA,122751.60,4612.1822327,N,00607.5743658,E,4,10,1.0,368.650,M,49.481,M,1.11,0195*70
$GPVTG,349.7222,T,349.7222,M,0.727,N,1.347,K,D*25
$RDENS,577,4487023,PC
$GPGGA,122752.00,4612.1823131,N,00607.5743445,E,4,10,1.0,368.671,M,49.481,M,1.51,0195*78
$GPVTG,349.6454,T,349.6454,M,0.730,N,1.352,K,D*27
$GPGGA,122752.20,4612.1823531,N,00607.5743358,E,4,10,1.0,368.675,M,49.481,M,1.71,0195*73
$GPVTG,345.3457,T,345.3457,M,0.663,N,1.228,K,D*2C
$GPGGA,122752.60,4612.1824316,N,00607.5743147,E,4,10,1.0,368.664,M,49.481,M,2.11,0195*7A
$GPVTG,353.3657,T,353.3657,M,0.765,N,1.417,K,D*21
$RDENS,578,4487110,PC
$GPGGA,122752.80,4612.1824712,N,00607.5743056,E,4,10,1.0,368.652,M,49.481,M,0.10,0195*73
$GPVTG,353.0043,T,353.0043,M,0.705,N,1.307,K,D*21
$GPGGA,122753.20,4612.1825513,N,00607.5742935,E,4,10,1.0,368.663,M,49.481,M,0.50,0195*71
$GPVTG,354.8980,T,354.8980,M,0.740,N,1.371,K,D*21
$GPGGA,122753.40,4612.1825898,N,00607.5742852,E,4,10,1.0,368.674,M,49.481,M,0.70,0195*7D
$GPVTG,357.0930,T,357.0930,M,0.760,N,1.409,K,D*2B
$RDENS,579,4487197,PC
$GPGGA,122753.80,4612.1826723,N,00607.5742755,E,4,10,1.0,368.672,M,49.481,M,1.10,0195*74
$GPVTG,353.2743,T,353.2743,M,0.726,N,1.345,K,D*26
$GPVTG,356.2526,T,356.2526,M,0.823,N,1.525,K,D*2C
$GPGGA,122754.20,4612.1827588,N,00607.5742721,E,4,10,1.0,368.680,M,49.481,M,1.50,0195*71
$GPVTG,1.3758,T,1.3758,M,0.776,N,1.439,K,D*2F
$RDENS,580,4487284,PC
$GPGGA,122754.40,4612.1828039,N,00607.5742751,E,4,10,1.0,368.671,M,49.481,M,0.02,0195*78
$GPVTG,359.7285,T,359.7285,M,0.743,N,1.377,K,D*24
$GPGGA,122754.80,4612.1828890,N,00607.5742809,E,4,10,1.0,368.664,M,49.481,M,0.13,0195*79
$GPVTG,4.8390,T,4.8390,M,0.800,N,1.483,K,D*20
$GPGGA,122755.00,4612.1829318,N,00607.5742822,E,4,10,1.0,368.671,M,49.481,M,0.02,0195*77
$GPVTG,8.7116,T,8.7116,M,0.803,N,1.489,K,D*29
$RDENS,581,4487371,PC
$GPGGA,122755.20,4612.1829761,N,00607.5742921,E,4,10,1.0,368.669,M,49.481,M,0.22,0195*76
$GPVTG,9.8505,T,9.8505,M,0.784,N,1.454,K,D*29
$GPGGA,122755.60,4612.1830615,N,00607.5743074,E,4,10,1.0,368.667,M,49.481,M,0.62,0195*7A
$GPVTG,8.2427,T,8.2427,M,0.821,N,1.521,K,D*2A
$GPGGA,122755.80,4612.1831063,N,00607.5743167,E,4,10,1.0,368.644,M,49.481,M,0.82,0195*7E
$GPVTG,5.7139,T,5.7139,M,0.711,N,1.318,K,D*2A
$RDENS,582,4487458,PC
$GPGGA,122756.00,4612.1831460,N,00607.5743221,E,4,10,1.0,368.640,M,49.481,M,1.02,0195*7E
$GPVTG,10.3391,T,10.3391,M,0.839,N,1.554,K,D*21
$GPGGA,122756.40,4612.1832346,N,00607.5743370,E,4,10,1.0,368.628,M,49.481,M,1.42,0195*75
$GPVTG,9.2914,T,9.2914,M,0.852,N,1.578,K,D*22
$GPVTG,4.3876,T,4.3876,M,0.734,N,1.360,K,D*22
$GPGGA,122756.80,4612.1833218,N,00607.5743523,E,4,10,1.0,368.616,M,49.481,M,1.82,0195*73
$GPVTG,8.0714,T,8.0714,M,0.762,N,1.412,K,D*23
$RDENS,583,4487545,PC
$GPGGA,122757.00,4612.1833636,N,00607.5743613,E,4,10,1.0,368.623,M,49.481,M,0.10,0195*7E
$GPVTG,4.7344,T,4.7344,M,0.831,N,1.540,K,D*2C
$GPGGA,122757.40,4612.1834507,N,00607.5743728,E,4,10,1.0,368.637,M,49.481,M,0.09,0195*78
$GPVTG,4.2994,T,4.2994,M,0.800,N,1.483,K,D*20
