$GPVTG,44.1592,T,44.1592,M,0.241,N,0.446,K,D*27
$GPVTG,24.1613,T,24.1613,M,0.340,N,0.629,K,D*2C
$RDENS,3549,4749873,PC
$GPVTG,28.5119,T,28.5119,M,0.380,N,0.703,K,D*29
$GPVTG,13.0699,T,13.0699,M,0.360,N,0.667,K,D*24
$GPVTG,3.8840,T,3.8840,M,0.341,N,0.632,K,D*27
$GPVTG,359.4347,T,359.4347,M,0.373,N,0.692,K,D*2C
$RDENS,3550,4749960,PC
$GPVTG,352.2805,T,352.2805,M,0.366,N,0.678,K,D*2C
$GPVTG,351.5332,T,351.5332,M,0.368,N,0.683,K,D*26
$GPVTG,342.9084,T,342.9084,M,0.478,N,0.885,K,D*28
$GPVTG,343.9612,T,343.9612,M,0.429,N,0.794,K,D*23
$GPVTG,333.2345,T,333.2345,M,0.477,N,0.884,K,D*26
$RDENS,3551,4750047,PC
$GPVTG,333.6885,T,333.6885,M,0.437,N,0.810,K,D*2F
$GPVTG,330.8705,T,330.8705,M,0.487,N,0.902,K,D*26
$GPVTG,323.2836,T,323.2836,M,0.509,N,0.944,K,D*23
$GPVTG,313.1732,T,313.1732,M,0.512,N,0.949,K,D*24
$RDENS,3552,4750135,PC
$GPVTG,315.9581,T,315.9581,M,0.541,N,1.003,K,D*24
$GPVTG,310.5016,T,310.5016,M,0.521,N,0.965,K,D*2A
$GPVTG,309.6167,T,309.6167,M,0.542,N,1.004,K,D*20
$GPVTG,310.5368,T,310.5368,M,0.511,N,0.948,K,D*26
$RDENS,3553,4750223,PC
$GPVTG,306.5065,T,306.5065,M,0.687,N,1.274,K,A*2A
$GPVTG,303.2724,T,303.2724,M,0.628,N,1.164,K,D*28
$GPVTG,298.5692,T,298.5692,M,0.628,N,1.164,K,D*28
$RDENS,3554,4750311,PC
$GPVTG,302.9459,T,302.9459,M,0.717,N,1.329,K,D*2E
$GPVTG,298.5758,T,298.5758,M,0.702,N,1.302,K,D*23
$GPVTG,300.7079,T,300.7079,M,0.621,N,1.151,K,D*27
$GPGGA,131145.40,4612.0782182,N,00607.3057997,E,2,10,0.8,368.663,M,49.481,M,0.01,0083*7B
$GPVTG,296.4007,T,296.4007,M,0.720,N,1.334,K,D*26
$RDENS,3555,4750399,PC
$GPGGA,131145.80,4612.0782485,N,00607.3057000,E,2,10,0.8,368.695,M,49.481,M,0.01,0083*7B
$GPVTG,298.8057,T,298.8057,M,0.652,N,1.208,K,D*2C
$GPGGA,131146.00,4612.0782694,N,00607.3056534,E,2,10,0.8,368.715,M,49.481,M,0.12,0083*7A
$GPVTG,309.5942,T,309.5942,M,0.888,N,1.646,K,D*2B
$GPGGA,131146.20,4612.0782981,N,00607.3056042,E,2,10,0.8,368.710,M,49.481,M,0.03,0083*72
$GPVTG,313.5341,T,313.5341,M,0.785,N,1.455,K,D*29
$RDENS,3556,4750487,PC
$GPGGA,131146.60,4612.0783497,N,00607.3055073,E,2,09,1.0,368.661,M,49.481,M,0.43,0083*7E
$GPVTG,317.1261,T,317.1261,M,0.966,N,1.790,K,D*20
$GPGGA,131146.80,4612.0783893,N,00607.3054532,E,2,09,1.0,368.672,M,49.481,M,0.63,0083*79
$GPVTG,318.0768,T,318.0768,M,1.073,N,1.989,K,D*2A
$GPGGA,131147.20,4612.0784749,N,00607.3053426,E,2,09,1.0,368.625,M,49.481,M,1.03,0083*7B
$GPVTG,320.7286,T,320.7286,M,1.135,N,2.104,K,D*27
$RDENS,3557,4750575,PC
$GPGGA,131147.40,4612.0785109,N,00607.3052998,E,2,09,1.0,368.598,M,49.481,M,1.23,0083*70
$GPVTG,324.3281,T,324.3281,M,1.191,N,2.207,K,D*29
$GPGGA,131147.80,4612.0786377,N,00607.3051730,E,2,09,1.0,368.608,M,49.481,M,0.08,0083*79
$GPVTG,327.1466,T,327.1466,M,1.216,N,2.253,K,D*24
$GPGGA,131148.00,4612.0786792,N,00607.3051433,E,2,09,1.0,368.590,M,49.481,M,0.09,0083*72
$GPVTG,328.6938,T,328.6938,M,1.239,N,2.296,K,D*20
$RDENS,3558,4750663,PC
$GPGGA,131148.40,4612.0788284,N,00607.3050225,E,2,09,1.0,368.630,M,49.481,M,0.07,0083*7D
$GPVTG,329.9765,T,329.9765,M,1.335,N,2.475,K,D*26
$GPGGA,131148.60,4612.0788924,N,00607.3049818,E,2,09,1.0,368.664,M,49.481,M,0.13,0083*76
$GPVTG,335.1538,T,335.1538,M,1.302,N,2.412,K,D*23
$GPGGA,131149.00,4612.0790306,N,00607.3048945,E,2,09,1.0,368.625,M,49.481,M,0.53,0083*7B
$GPVTG,335.4986,T,335.4986,M,1.250,N,2.317,K,D*27
$RDENS,3559,4750751,PC
$GPGGA,131149.20,4612.0790709,N,00607.3048742,E,2,09,1.0,368.543,M,49.481,M,0.73,0083*7A
$GPVTG,338.9390,T,338.9390,M,1.339,N,2.481,K,D*21
$GPGGA,131149.60,4612.0792151,N,00607.3047921,E,2,09,1.0,368.511,M,49.481,M,1.13,0083*73
$GPVTG,336.0785,T,336.0785,M,1.393,N,2.581,K,D*20
$GPGGA,131149.80,4612.0792880,N,00607.3047583,E,2,09,1.0,368.550,M,49.481,M,1.33,0083*7B
$GPVTG,342.5098,T,342.5098,M,1.328,N,2.462,K,D*2C
$RDENS,3560,4750839,PC
$GPGGA,131150.20,4612.0794110,N,00607.3047104,E,2,10,0.8,368.568,M,49.481,M,0.20,0083*7D
$GPVTG,340.5354,T,340.5354,M,1.225,N,2.270,K,D*25
$GPGGA,131150.40,4612.0794826,N,00607.3046806,E,2,10,0.8,368.625,M,49.481,M,0.40,0083*71
$GPVTG,343.1134,T,343.1134,M,1.265,N,2.344,K,D*27
$GPGGA,131150.80,4612.0796080,N,00607.3046288,E,2,10,0.8,368.587,M,49.481,M,0.80,0083*70
$GPVTG,344.1376,T,344.1376,M,1.275,N,2.363,K,D*23
$RDENS,3561,4750927,PC
$GPGGA,131151.00,4612.0796859,N,00607.3045987,E,2,10,0.8,368.652,M,49.481,M,1.00,0083*70
$GPVTG,341.6282,T,341.6282,M,1.236,N,2.290,K,D*29
$GPGGA,131151.20,4612.0797351,N,00607.3045858,E,2,10,0.8,368.628,M,49.481,M,1.20,0083*7C
$GPVTG,347.0883,T,347.0883,M,1.267,N,2.347,K,D*26
$GPGGA,131151.60,4612.0798686,N,00607.3045384,E,2,10,0.8,368.625,M,49.481,M,0.09,0083*75
$GPVTG,345.3282,T,345.3282,M,1.280,N,2.372,K,D*29
$RDENS,3562,4751015,PC
$GPGGA,131151.80,4612.0799501,N,00607.3044961,E,2,10,0.8,368.681,M,49.481,M,0.11,0083*71
$GPVTG,349.0099,T,349.0099,M,1.112,N,2.061,K,D*20
$GPGGA,131152.20,4612.0800691,N,00607.3044521,E,2,10,0.8,368.649,M,49.481,M,0.51,0083*75
$GPVTG,344.0652,T,344.0652,M,1.247,N,2.311,K,D*27
$GPGGA,131152.40,4612.0801447,N,00607.3044256,E,2,10,0.8,368.708,M,49.481,M,0.13,0083*7E
$GPVTG,346.3646,T,346.3646,M,1.220,N,2.262,K,D*23
$RDENS,3563,4751103,PC
$GPGGA,131152.80,4612.0802633,N,00607.3043950,E,2,10,0.8,368.705,M,49.481,M,0.27,0083*70
$GPVTG,347.1723,T,347.1723,M,1.300,N,2.410,K,D*23
$GPGGA,131153.00,4612.0803310,N,00607.3043646,E,2,10,0.8,368.709,M,49.481,M,0.47,0083*7E
$GPVTG,349.0913,T,349.0913,M,1.249,N,2.316,K,D*2E
$GPGGA,131153.40,4612.0804698,N,00607.3043156,E,2,10,0.8,368.730,M,49.481,M,0.87,0083*78
$GPVTG,348.8618,T,348.8618,M,1.216,N,2.253,K,D*24
$RDENS,3564,4751191,PC
$GPGGA,131153.60,4612.0805394,N,00607.3042955,E,2,10,0.8,368.720,M,49.481,M,0.06,0083*70
$GPVTG,346.2936,T,346.2936,M,1.238,N,2.294,K,D*23
$GPGGA,131154.00,4612.0806874,N,00607.3042315,E,2,10,0.8,368.708,M,49.481,M,0.46,0083*77
$GPVTG,346.3964,T,346.3964,M,1.308,N,2.423,K,D*2B
$GPGGA,131154.20,4612.0807530,N,00607.3041964,E,2,10,0.8,368.667,M,49.481,M,0.66,0083*7C
$GPVTG,343.8326,T,343.8326,M,1.434,N,2.658,K,D*2D
$RDENS,3565,4751279,PC
$GPGGA,131154.60,4612.0809044,N,00607.3041272,E,2,10,0.8,368.653,M,49.481,M,1.06,0083*7C
$GPVTG,343.6689,T,343.6689,M,1.270,N,2.354,K,D*22
$GPGGA,131154.80,4612.0809820,N,00607.3040830,E,2,10,0.8,368.645,M,49.481,M,1.26,0083*70
$GPVTG,337.2915,T,337.2915,M,1.460,N,2.706,K,D*26
$GPGGA,131155.20,4612.0811496,N,00607.3039847,E,2,10,0.8,368.612,M,49.481,M,1.66,0083*7B
$GPVTG,343.6479,T,343.6479,M,1.425,N,2.642,K,D*26
$RDENS,3566,4751368,PC
$GPGGA,131155.40,4612.0812286,N,00607.3039336,E,2,10,0.8,368.570,M,49.481,M,1.86,0083*7D
$GPVTG,339.2538,T,339.2538,M,1.426,N,2.644,K,D*23
$GPGGA,131155.80,4612.0813978,N,00607.3038285,E,2,10,0.8,368.546,M,49.481,M,2.26,0083*7E
$GPVTG,337.7340,T,337.7340,M,1.609,N,2.981,K,D*2A
$GPGGA,131156.00,4612.0814724,N,00607.3037872,E,2,10,0.8,368.572,M,49.481,M,0.05,0083*7C
$GPVTG,338.4420,T,338.4420,M,1.724,N,3.195,K,D*28
$RDENS,3567,4751457,PC
$GPGGA,131156.20,4612.0815655,N,00607.3037260,E,2,10,0.8,368.520,M,49.481,M,0.25,0083*74
$GPVTG,333.5182,T,333.5182,M,1.548,N,2.868,K,D*2A
$GPGGA,131156.60,4612.0817085,N,00607.3036273,E,2,10,0.8,368.594,M,49.481,M,0.65,0083*71
$GPVTG,338.5086,T,338.5086,M,1.554,N,2.880,K,D*21
$GPGGA,131156.80,4612.0818017,N,00607.3035633,E,2,10,0.8,368.581,M,49.481,M,0.85,0083*72
$GPVTG,333.2905,T,333.2905,M,1.721,N,3.190,K,D*28
$RDENS,3568,4751546,PC
$GPGGA,131157.20,4612.0819754,N,00607.3034354,E,2,10,0.8,368.558,M,49.481,M,1.25,0083*72
$GPVTG,332.9259,T,332.9259,M,1.655,N,3.067,K,D*23
$GPGGA,131157.40,4612.0820649,N,00607.3033675,E,2,09,1.0,368.527,M,49.481,M,0.13,0083*7F
$GPVTG,332.7802,T,332.7802,M,1.708,N,3.165,K,D*29
$GPGGA,131157.80,4612.0822348,N,00607.3032317,E,2,09,1.0,368.420,M,49.481,M,0.27,0083*74
$GPVTG,333.2141,T,333.2141,M,1.724,N,3.194,K,D*29
$RDENS,3569,4751635,PC
$GPGGA,131158.00,4612.0823118,N,00607.3031688,E,2,09,1.0,368.430,M,49.481,M,0.47,0083*72
$GPVTG,332.1150,T,332.1150,M,1.727,N,3.201,K,D*25
$GPGGA,131158.40,4612.0824803,N,00607.3030303,E,2,09,1.0,368.488,M,49.481,M,0.87,0083*7A
$GPVTG,329.3956,T,329.3956,M,1.552,N,2.876,K,D*2E
$GPGGA,131158.60,4612.0825543,N,00607.3029681,E,2,09,1.0,368.528,M,49.481,M,1.07,0083*75
$GPVTG,331.3518,T,331.3518,M,1.795,N,3.326,K,D*28
$RDENS,3570,4751724,PC
$GPGGA,131159.00,4612.0827125,N,00607.3028327,E,2,09,1.0,368.506,M,49.481,M,1.47,0083*74
$GPVTG,328.9930,T,328.9930,M,1.597,N,2.959,K,D*2B
$GPGGA,131159.20,4612.0827960,N,00607.3027627,E,2,09,1.0,368.500,M,49.481,M,0.09,0083*78
$GPVTG,329.7835,T,329.7835,M,1.692,N,3.137,K,D*2C
$GPGGA,131159.60,4612.0829536,N,00607.3026306,E,2,09,1.0,368.474,M,49.481,M,0.31,0083*73
$GPVTG,329.5199,T,329.5199,M,1.733,N,3.212,K,D*22
$RDENS,3571,4751813,PC
$GPGGA,131159.80,4612.0830275,N,00607.3025685,E,2,09,1.0,368.503,M,49.481,M,0.51,0083*7F
$GPVTG,328.9328,T,328.9328,M,1.641,N,3.041,K,D*22
$GPGGA,131200.20,4612.0831896,N,00607.3024246,E,2,09,1.0,368.503,M,49.481,M,0.91,0083*7A
$GPVTG,327.0547,T,327.0547,M,1.644,N,3.047,K,D*21
$GPGGA,131200.40,4612.0832626,N,00607.3023615,E,2,09,1.0,368.503,M,49.481,M,1.11,0083*76
$GPVTG,326.0392,T,326.0392,M,1.619,N,3.000,K,D*2A
$RDENS,3572,4751902,PC
$GPGGA,131200.80,4612.0834068,N,00607.3022244,E,2,09,1.0,368.479,M,49.481,M,1.51,0083*79
$GPVTG,326.2137,T,326.2137,M,1.642,N,3.043,K,D*23
$GPGGA,131201.00,4612.0834802,N,00607.3021462,E,2,09,1.0,368.476,M,49.481,M,1.71,0083*78
$GPVTG,323.7941,T,323.7941,M,1.658,N,3.072,K,D*2A
$GPGGA,131201.20,4612.0835583,N,00607.3020664,E,2,09,1.0,368.512,M,49.481,M,1.91,0083*77
$GPVTG,325.6389,T,325.6389,M,2.310,N,4.281,K,D*29
$RDENS,3573,4751991,PC
$GPGGA,131201.60,4612.0837196,N,00607.3018956,E,2,09,1.0,368.395,M,49.481,M,2.31,0083*74
$GPVTG,322.5518,T,322.5518,M,1.698,N,3.146,K,D*20
$GPVTG,320.9318,T,320.9318,M,1.667,N,3.090,K,D*2A
$GPVTG,321.0728,T,321.0728,M,1.602,N,2.969,K,D*27
$GPVTG,319.1374,T,319.1374,M,1.699,N,3.148,K,D*2F
$RDENS,3574,4752080,PC
$GPVTG,319.6956,T,319.6956,M,1.763,N,3.268,K,D*2A
$GPVTG,319.1189,T,319.1189,M,1.739,N,3.223,K,D*2A
$GPVTG,317.9421,T,317.9421,M,1.813,N,3.361,K,D*2A
$GPVTG,317.4108,T,317.4108,M,1.906,N,3.531,K,D*2C
$GPVTG,318.0996,T,318.0996,M,1.957,N,3.626,K,D*2D
$RDENS,3575,4752170,PC
$GPVTG,317.4722,T,317.4722,M,1.866,N,3.458,K,D*25
$GPVTG,317.0293,T,317.0293,M,2.050,N,3.799,K,D*25
$GPVTG,316.2631,T,316.2631,M,2.083,N,3.861,K,D*23
$GPVTG,315.4497,T,315.4497,M,2.036,N,3.772,K,D*20
$RDENS,3576,4752259,PC
$GPVTG,316.6378,T,316.6378,M,2.089,N,3.872,K,D*2B
$GPVTG,316.8061,T,316.8061,M,2.157,N,3.997,K,D*23
$GPVTG,317.1981,T,317.1981,M,2.159,N,4.001,K,D*2C
$GPVTG,315.7184,T,315.7184,M,2.140,N,3.966,K,D*2B
$GPVTG,317.9287,T,317.9287,M,2.189,N,4.057,K,D*22
$RDENS,3577,4752348,PC
$GPVTG,317.3352,T,317.3352,M,2.187,N,4.053,K,D*28
$GPVTG,317.2576,T,317.2576,M,2.113,N,3.916,K,D*2A
$GPVTG,317.0349,T,317.0349,M,2.197,N,4.071,K,D*29
$GPVTG,318.8374,T,318.8374,M,2.195,N,4.069,K,D*22
$RDENS,3578,4752436,PC
$GPVTG,318.4748,T,318.4748,M,2.089,N,3.871,K,D*28
$GPVTG,317.6794,T,317.6794,M,2.057,N,3.813,K,D*2F
$GPVTG,316.7168,T,316.7168,M,2.080,N,3.855,K,D*27
$GPVTG,317.2792,T,317.2792,M,1.964,N,3.639,K,D*23
$GPVTG,316.9668,T,316.9668,M,2.024,N,3.751,K,D*22
$RDENS,3579,4752525,PC
$GPGGA,131207.00,4612.0859666,N,00607.2989846,E,2,09,1.0,368.354,M,49.481,M,7.71,0083*78
$GPVTG,316.1340,T,316.1340,M,1.925,N,3.567,K,D*2E
$GPGGA,131207.40,4612.0861128,N,00607.2987813,E,2,09,1.0,368.398,M,49.481,M,8.11,0083*7D
$GPVTG,317.0671,T,317.0671,M,1.916,N,3.551,K,D*2B
$GPGGA,131207.60,4612.0861790,N,00607.2986855,E,2,09,1.0,368.417,M,49.481,M,8.31,0083*7B
$GPVTG,317.1339,T,317.1339,M,1.768,N,3.277,K,D*2F
$RDENS,3580,4752614,PC
$GPGGA,131207.80,4612.0862496,N,00607.2985908,E,2,09,1.0,368.429,M,49.481,M,8.51,0083*72
$GPVTG,315.1816,T,315.1816,M,1.731,N,3.208,K,D*2B
$GPGGA,131208.20,4612.0863832,N,00607.2984002,E,2,09,1.0,368.446,M,49.481,M,8.91,0083*73
$GPVTG,316.2290,T,316.2290,M,1.669,N,3.093,K,D*27
$GPGGA,131208.40,4612.0864411,N,00607.2983111,E,2,09,1.0,368.455,M,49.481,M,9.11,0083*70
$GPVTG,316.4457,T,316.4457,M,1.760,N,3.261,K,D*20
$RDENS,3581,4752703,PC
$GPGGA,131208.80,4612.0865778,N,00607.2981182,E,2,09,1.0,368.393,M,49.481,M,9.51,0083*70
$GPVTG,315.1236,T,315.1236,M,1.579,N,2.926,K,D*23
$GPGGA,131209.00,4612.0866395,N,00607.2980245,E,2,09,1.0,368.396,M,49.481,M,9.71,0083*73
$GPVTG,307.4817,T,307.4817,M,1.354,N,2.510,K,D*23
$GPGGA,131209.40,4612.0867512,N,00607.2978493,E,2,09,1.0,368.379,M,49.481,M,10.11,0083*4A
$GPVTG,310.3070,T,310.3070,M,1.424,N,2.640,K,D*25
$RDENS,3582,4752792,PC
$GPGGA,131209.60,4612.0868068,N,00607.2977613,E,2,09,1.0,368.371,M,49.481,M,10.31,0083*40
$GPVTG,312.6945,T,312.6945,M,1.374,N,2.546,K,D*22
$GPGGA,131210.00,4612.0869116,N,00607.2975922,E,2,09,1.0,368.332,M,49.481,M,10.71,0083*4B
$GPVTG,308.7151,T,308.7151,M,1.358,N,2.516,K,D*29
$GPGGA,131210.20,4612.0869529,N,00607.2975167,E,2,09,1.0,368.347,M,49.481,M,10.91,0083*44
$GPVTG,310.0606,T,310.0606,M,1.374,N,2.546,K,D*22
$RDENS,3583,4752881,PC
$GPGGA,131210.60,4612.0870516,N,00607.2973493,E,2,09,1.0,368.290,M,49.481,M,11.31,0083*4C
$GPVTG,309.9165,T,309.9165,M,1.243,N,2.304,K,D*27
$GPGGA,131210.80,4612.0870865,N,00607.2972711,E,2,09,1.0,368.304,M,49.481,M,11.51,0083*49
$GPVTG,304.5999,T,304.5999,M,1.154,N,2.138,K,D*2F
$GPGGA,131211.20,4612.0871685,N,00607.2971135,E,2,09,1.0,368.295,M,49.481,M,11.91,0083*45
$GPVTG,309.7909,T,309.7909,M,1.305,N,2.418,K,D*2E
$RDENS,3584,4752970,PC
$GPGGA,131211.40,4612.0872078,N,00607.2970311,E,2,09,1.0,368.283,M,49.481,M,12.11,0083*4D
$GPVTG,301.1147,T,301.1147,M,1.130,N,2.093,K,D*2D
$GPGGA,131211.80,4612.0872752,N,00607.2968792,E,2,09,1.0,368.313,M,49.481,M,12.51,0083*44
$GPVTG,304.4047,T,304.4047,M,1.241,N,2.299,K,D*20
$GPGGA,131212.00,4612.0873143,N,00607.2967933,E,2,09,1.0,368.296,M,49.481,M,12.71,0083*4C
$GPVTG,304.0159,T,304.0159,M,1.310,N,2.428,K,D*29
$RDENS,3585,4753059,PC
$GPGGA,131212.40,4612.0873468,N,00607.2966995,E,2,11,0.8,368.552,M,49.481,M,13.11,0083*41
$GPVTG,299.0634,T,299.0634,M,1.299,N,2.407,K,D*24
$GPGGA,131212.60,4612.0873904,N,00607.2965864,E,2,11,0.8,368.459,M,49.481,M,13.31,0083*40
$GPVTG,301.0608,T,301.0608,M,1.348,N,2.499,K,D*2E
$GPGGA,131213.00,4612.0874464,N,00607.2964518,E,2,11,0.8,368.599,M,49.481,M,13.71,0083*45
$GPVTG,304.4191,T,304.4191,M,1.246,N,2.308,K,D*2E
$RDENS,3586,4753147,PC
$GPGGA,131213.20,4612.0874864,N,00607.2963616,E,2,11,0.8,368.621,M,49.481,M,13.91,0083*4F
$GPVTG,303.1457,T,303.1457,M,1.404,N,2.602,K,D*21
$GPGGA,131213.60,4612.0875654,N,00607.2961760,E,2,11,0.8,368.657,M,49.481,M,14.31,0083*49
$GPVTG,301.9429,T,301.9429,M,1.456,N,2.698,K,D*25
$GPGGA,131213.80,4612.0876192,N,00607.2960656,E,2,11,0.8,368.618,M,49.481,M,14.51,0083*41
$GPVTG,307.5354,T,307.5354,M,1.441,N,2.670,K,D*25
$RDENS,3587,4753236,PC
$GPGGA,131214.20,4612.0877175,N,00607.2958931,E,2,11,0.8,368.670,M,49.481,M,14.91,0083*43
$GPVTG,312.4226,T,312.4226,M,1.489,N,2.760,K,D*21
$GPGGA,131214.40,4612.0877779,N,00607.2958054,E,2,11,0.8,368.683,M,49.481,M,15.11,0083*40
$GPVTG,315.5416,T,315.5416,M,1.508,N,2.795,K,D*23
$GPGGA,131214.80,4612.0879062,N,00607.2956322,E,2,11,0.8,368.729,M,49.481,M,15.51,0083*46
$GPVTG,317.8410,T,317.8410,M,1.738,N,3.221,K,D*29
$RDENS,3588,4753325,PC
$GPVTG,319.4576,T,319.4576,M,1.730,N,3.206,K,D*24
$GPVTG,321.7630,T,321.7630,M,1.653,N,3.063,K,D*21
$GPVTG,326.2819,T,326.2819,M,1.741,N,3.227,K,D*21
$GPVTG,323.6630,T,323.6630,M,1.745,N,3.235,K,D*26
$GPVTG,323.9649,T,323.9649,M,1.789,N,3.316,K,D*26
$RDENS,3589,4753414,PC
$GPVTG,328.9579,T,328.9579,M,1.847,N,3.423,K,D*2A
$GPVTG,330.0478,T,330.0478,M,1.839,N,3.408,K,D*2A
$GPGGA,131216.20,4612.0884701,N,00607.2950458,E,2,11,0.8,368.705,M,49.481,M,16.91,0083*43
$GPVTG,329.3150,T,329.3150,M,1.735,N,3.216,K,D*20
$GPGGA,131216.60,4612.0886452,N,00607.2949088,E,2,11,0.8,368.677,M,49.481,M,17.31,0083*4E
$RDENS,3590,4753502,PC
$GPVTG,334.7020,T,334.7020,M,1.817,N,3.367,K,D*28
$GPGGA,131216.80,4612.0887081,N,00607.2948457,E,2,11,0.8,368.708,M,49.481,M,0.04,0083*75
$GPVTG,337.1091,T,337.1091,M,1.803,N,3.342,K,D*2A
$GPGGA,131217.20,4612.0888888,N,00607.2947325,E,2,11,0.8,368.696,M,49.481,M,0.44,0083*7F
$GPVTG,335.5348,T,335.5348,M,1.685,N,3.122,K,D*2E
$GPGGA,131217.40,4612.0889835,N,00607.2946805,E,2,11,0.8,368.664,M,49.481,M,0.64,0083*79
$RDENS,3591,4753591,PC
$GPVTG,338.9491,T,338.9491,M,1.548,N,2.869,K,D*2B
$GPGGA,131217.80,4612.0891674,N,00607.2945762,E,2,11,0.8,368.599,M,49.481,M,1.04,0083*7C
$GPVTG,343.1436,T,343.1436,M,1.704,N,3.158,K,D*2B
$GPGGA,131218.00,4612.0892548,N,00607.2945431,E,2,11,0.8,368.587,M,49.481,M,1.24,0083*7C
$GPVTG,344.4796,T,344.4796,M,1.588,N,2.944,K,D*29
$GPGGA,131218.20,4612.0893344,N,00607.2945199,E,2,11,0.8,368.604,M,49.481,M,0.15,0083*79
$RDENS,3592,4753679,PC
$GPVTG,342.7457,T,342.7457,M,1.445,N,2.678,K,D*29
$GPGGA,131218.60,4612.0894830,N,00607.2944660,E,2,11,0.8,368.574,M,49.481,M,0.00,0083*72
$GPVTG,346.2286,T,346.2286,M,1.300,N,2.409,K,D*2B
$GPGGA,131219.00,4612.0896298,N,00607.2943900,E,4,06,1.8,368.474,M,49.481,M,0.40,0083*75
$GPVTG,344.0305,T,344.0305,M,1.349,N,2.500,K,D*2E
$GPGGA,131219.20,4612.0896950,N,00607.2943585,E,4,06,1.8,368.484,M,49.481,M,0.60,0083*74
$RDENS,3593,4753767,PC
$GPVTG,342.3507,T,342.3507,M,1.204,N,2.231,K,D*23
$GPGGA,131219.40,4612.0897553,N,00607.2943364,E,4,06,1.8,368.505,M,49.481,M,0.80,0083*73
$GPVTG,343.5741,T,343.5741,M,1.172,N,2.172,K,D*25
$GPGGA,131219.80,4612.0898893,N,00607.2942719,E,4,06,1.8,368.491,M,49.481,M,1.20,0083*79
$GPVTG,343.9776,T,343.9776,M,1.249,N,2.315,K,D*2D
$GPGGA,131220.00,4612.0899378,N,00607.2942486,E,4,06,1.8,368.552,M,49.481,M,1.40,0083*79
$RDENS,3594,4753855,PC
$GPVTG,340.5233,T,340.5233,M,1.131,N,2.096,K,D*29
$GPGGA,131220.40,4612.0900599,N,00607.2942051,E,4,06,1.8,368.598,M,49.481,M,0.13,0083*7A
$GPVTG,343.1888,T,343.1888,M,1.250,N,2.316,K,D*26
$GPGGA,131220.60,4612.0901285,N,00607.2941761,E,4,06,1.8,368.601,M,49.481,M,0.33,0083*75
$GPVTG,349.8437,T,349.8437,M,1.275,N,2.364,K,D*24
$GPGGA,131221.00,4612.0902743,N,00607.2941213,E,4,06,1.8,368.588,M,49.481,M,0.73,0083*78
$RDENS,3595,4753943,PC
$GPVTG,347.7899,T,347.7899,M,1.261,N,2.337,K,D*27
$GPGGA,131221.20,4612.0903477,N,00607.2940912,E,4,06,1.8,368.583,M,49.481,M,0.93,0083*71
$GPVTG,351.1937,T,351.1937,M,1.370,N,2.539,K,D*2E
$GPGGA,131221.60,4612.0905002,N,00607.2940424,E,4,06,1.8,368.581,M,49.481,M,1.33,0083*74
$GPVTG,344.1897,T,344.1897,M,1.449,N,2.686,K,D*24
$GPGGA,131221.80,4612.0905821,N,00607.2940173,E,4,06,1.8,368.571,M,49.481,M,1.53,0083*7D
$RDENS,3596,4754031,PC
$GPVTG,349.3427,T,349.3427,M,1.559,N,2.889,K,D*25
$GPGGA,131222.20,4612.0907499,N,00607.2939740,E,4,06,1.8,368.557,M,49.481,M,1.93,0083*79
$GPVTG,351.6500,T,351.6500,M,1.517,N,2.811,K,D*2E
$GPGGA,131222.40,4612.0908324,N,00607.2939525,E,4,06,1.8,368.570,M,49.481,M,2.13,0083*7E
$GPVTG,349.7620,T,349.7620,M,1.675,N,3.105,K,D*24
$GPGGA,131222.80,4612.0910194,N,00607.2938971,E,4,06,1.8,368.538,M,49.481,M,2.53,0083*76
$RDENS,3597,4754119,PC
$GPVTG,352.7732,T,352.7732,M,1.647,N,3.052,K,D*26
$GPGGA,131223.00,4612.0911165,N,00607.2938684,E,4,06,1.8,368.513,M,49.481,M,2.73,0083*7E
$GPVTG,350.6893,T,350.6893,M,1.709,N,3.167,K,D*2A
$GPGGA,131223.40,4612.0913061,N,00607.2938216,E,4,06,1.8,368.514,M,49.481,M,3.13,0083*72
$GPVTG,351.2253,T,351.2253,M,1.736,N,3.216,K,D*23
$GPGGA,131223.60,4612.0913976,N,00607.2938070,E,4,06,1.8,368.544,M,49.481,M,3.33,0083*7A
$RDENS,3598,4754207,PC
$GPVTG,352.4411,T,352.4411,M,1.820,N,3.373,K,D*29
$GPGGA,131224.00,4612.0916008,N,00607.2937548,E,4,06,1.8,368.526,M,49.481,M,0.22,0083*78
$GPVTG,350.5446,T,350.5446,M,1.873,N,3.471,K,D*2A
$GPGGA,131224.20,4612.0917040,N,00607.2937259,E,4,06,1.8,368.501,M,49.481,M,0.42,0083*73
$GPVTG,350.7704,T,350.7704,M,1.946,N,3.607,K,D*2E
$GPGGA,131224.40,4612.0918104,N,00607.2937000,E,4,06,1.8,368.497,M,49.481,M,0.62,0083*79
$RDENS,3599,4754294,PC
$GPVTG,352.2242,T,352.2242,M,1.855,N,3.439,K,D*22
$GPGGA,131224.80,4612.0920065,N,00607.2936713,E,4,06,1.8,368.524,M,49.481,M,1.02,0083*72
$GPVTG,350.6762,T,350.6762,M,1.819,N,3.370,K,D*20
$GPGGA,131225.00,4612.0921154,N,00607.2936494,E,4,06,1.8,368.515,M,49.481,M,1.22,0083*75
$GPVTG,353.2948,T,353.2948,M,2.000,N,3.706,K,D*26
$GPGGA,131225.40,4612.0923331,N,00607.2936118,E,4,06,1.8,368.505,M,49.481,M,1.62,0083*76
$RDENS,3600,4754383,PC
$GPVTG,353.4329,T,353.4329,M,1.918,N,3.554,K,D*20
$GPGGA,131225.60,4612.0924405,N,00607.2936017,E,4,06,1.8,368.499,M,49.481,M,1.82,0083*77
$GPVTG,354.2814,T,354.2814,M,2.064,N,3.824,K,D*2B
$GPGGA,131226.00,4612.0926540,N,00607.2935937,E,4,06,1.8,368.534,M,49.481,M,2.22,0083*77
$GPVTG,357.1254,T,357.1254,M,1.900,N,3.520,K,D*2A
$GPGGA,131226.20,4612.0927622,N,00607.2935870,E,4,06,1.8,368.525,M,49.481,M,2.42,0083*77
$RDENS,3601,4754471,PC
$GPVTG,0.2904,T,0.2904,M,1.965,N,3.641,K,D*2D
$GPGGA,131226.40,4612.0928731,N,00607.2935803,E,4,06,1.8,368.501,M,49.481,M,2.62,0083*7D
$GPVTG,0.0130,T,0.0130,M,1.893,N,3.509,K,D*2A
$GPGGA,131226.80,4612.0930866,N,00607.2935827,E,4,06,1.8,368.460,M,49.481,M,3.02,0083*72
$GPVTG,5.2882,T,5.2882,M,1.825,N,3.382,K,D*22
$GPGGA,131227.00,4612.0931877,N,00607.2935894,E,4,06,1.8,368.455,M,49.481,M,3.22,0083*76
$RDENS,3602,4754559,PC
$GPVTG,1.3182,T,1.3182,M,1.801,N,3.338,K,D*25
$GPGGA,131227.20,4612.0932867,N,00607.2935983,E,4,06,1.8,368.456,M,49.481,M,3.42,0083*74
$GPVTG,7.1421,T,7.1421,M,1.803,N,3.342,K,D*2A
$GPGGA,131227.60,4612.0934840,N,00607.2936208,E,4,06,1.8,368.439,M,49.481,M,3.82,0083*7D
$GPVTG,3.1623,T,3.1623,M,1.700,N,3.150,K,D*27
$GPGGA,131227.80,4612.0935786,N,00607.2936292,E,4,06,1.8,368.419,M,49.481,M,4.02,0083*79
$RDENS,3603,4754647,PC
$GPVTG,5.4028,T,5.4028,M,1.680,N,3.114,K,D*2E
$GPGGA,131228.20,4612.0937572,N,00607.2936559,E,4,06,1.8,368.441,M,49.481,M,4.42,0083*7E
$GPVTG,3.0918,T,3.0918,M,1.551,N,2.875,K,D*2E
$GPGGA,131228.40,4612.0938391,N,00607.2936739,E,4,06,1.8,368.460,M,49.481,M,0.14,0083*7C
$GPVTG,7.7980,T,7.7980,M,1.536,N,2.846,K,D*2F
$GPGGA,131228.80,4612.0940064,N,00607.2936986,E,4,06,1.8,368.502,M,49.481,M,0.26,0083*78
$GPVTG,2.9068,T,2.9068,M,1.489,N,2.759,K,D*2B
$RDENS,3604,4754735,PC
$GPGGA,131229.00,4612.0940875,N,00607.2937153,E,4,06,1.8,368.555,M,49.481,M,0.11,0083*7E
$GPVTG,5.1439,T,5.1439,M,1.490,N,2.762,K,D*2B
$GPGGA,131229.20,4612.0941739,N,00607.2937134,E,4,06,1.8,368.546,M,49.481,M,0.31,0083*7B
$GPVTG,359.6459,T,359.6459,M,1.552,N,2.876,K,D*2E
$GPGGA,131229.60,4612.0943480,N,00607.2937104,E,4,06,1.8,368.557,M,49.481,M,0.71,0083*7B
$GPVTG,1.7096,T,1.7096,M,1.481,N,2.745,K,D*2E
$RDENS,3605,4754823,PC
$GPVTG,356.8438,T,356.8438,M,1.670,N,3.095,K,D*29
$GPGGA,131230.00,4612.0945265,N,00607.2936941,E,4,06,1.8,368.534,M,49.481,M,1.11,0083*74
$GPVTG,354.7040,T,354.7040,M,1.683,N,3.118,K,D*21
$GPGGA,131230.40,4612.0947200,N,00607.2936565,E,4,06,1.8,368.509,M,49.481,M,1.51,0083*71
$GPVTG,354.2560,T,354.2560,M,1.726,N,3.199,K,D*26
$GPGGA,131230.60,4612.0948134,N,00607.2936430,E,4,05,4.2,368.533,M,49.481,M,1.71,0083*7E
$RDENS,3606,4754911,PC
$GPVTG,352.0785,T,352.0785,M,1.919,N,3.556,K,D*23
$GPGGA,131231.00,4612.0950111,N,00607.2936110,E,4,05,4.2,368.574,M,49.481,M,0.04,0083*70
$GPVTG,352.2569,T,352.2569,M,1.906,N,3.532,K,D*2F
$GPGGA,131231.20,4612.0951268,N,00607.2935771,E,4,05,4.2,368.555,M,49.481,M,0.16,0083*7C
$GPVTG,346.9514,T,346.9514,M,2.227,N,4.128,K,D*2C
$GPGGA,131231.60,4612.0953690,N,00607.2935024,E,4,05,4.2,368.553,M,49.481,M,0.56,0083*7C
$RDENS,3607,4754999,PC
$GPVTG,349.4217,T,349.4217,M,2.160,N,4.003,K,D*24
$GPGGA,131231.80,4612.0954761,N,00607.2934825,E,4,04,4.4,368.704,M,49.481,M,0.76,0083*77
$GPVTG,346.3103,T,346.3103,M,2.349,N,4.353,K,D*2B
$GPGGA,131232.20,4612.0957418,N,00607.2933908,E,4,04,4.4,368.678,M,49.481,M,1.16,0083*74
$GPVTG,347.6745,T,347.6745,M,2.514,N,4.659,K,D*2A
$GPGGA,131232.40,4612.0958769,N,00607.2933429,E,4,04,4.4,368.686,M,49.481,M,1.36,0083*75
$RDENS,3608,4755087,PC
$GPVTG,345.9368,T,345.9368,M,2.561,N,4.745,K,D*24
$GPGGA,131232.80,4612.0961587,N,00607.2932451,E,4,04,4.4,368.685,M,49.481,M,1.76,0083*78
$GPVTG,346.5619,T,346.5619,M,2.665,N,4.938,K,D*27
$GPGGA,131233.00,4612.0962950,N,00607.2932040,E,4,04,4.4,368.696,M,49.481,M,1.96,0083*7C
$GPVTG,348.3144,T,348.3144,M,2.549,N,4.724,K,D*29
$GPGGA,131233.40,4612.0965863,N,00607.2931120,E,4,04,4.4,368.662,M,49.481,M,2.36,0083*78
$RDENS,3609,4755175,PC
$GPVTG,348.2381,T,348.2381,M,2.661,N,4.931,K,D*2A
$GPGGA,131233.60,4612.0967439,N,00607.2930638,E,4,04,4.4,368.609,M,49.481,M,0.05,0083*7B
$GPVTG,350.4996,T,350.4996,M,2.674,N,4.956,K,D*2F
$GPGGA,131233.80,4612.0968859,N,00607.2930293,E,4,04,4.4,368.599,M,49.481,M,0.15,0083*7E
$GPVTG,349.9476,T,349.9476,M,2.659,N,4.929,K,D*28
$GPGGA,131234.20,4612.0971695,N,00607.2929701,E,4,04,4.4,368.646,M,49.481,M,0.10,0083*77
$RDENS,3610,4755263,PC
$GPVTG,351.2299,T,351.2299,M,2.662,N,4.933,K,D*2B
$GPGGA,131234.40,4612.0973241,N,00607.2929358,E,4,04,4.4,368.614,M,49.481,M,0.10,0083*71
$GPVTG,351.8809,T,351.8809,M,2.657,N,4.923,K,D*2C
$GPGGA,131234.80,4612.0976139,N,00607.2928851,E,4,04,4.4,368.631,M,49.481,M,0.14,0083*74
$GPVTG,351.6091,T,351.6091,M,2.701,N,5.005,K,D*22
$GPGGA,131235.00,4612.0977772,N,00607.2928458,E,4,04,4.4,368.558,M,49.481,M,0.34,0083*7E
$RDENS,3611,4755351,PC
$GPVTG,352.6899,T,352.6899,M,2.718,N,5.037,K,D*2B
$GPGGA,131235.40,4612.0980673,N,00607.2928019,E,4,04,4.4,368.564,M,49.481,M,0.74,0083*78
$GPVTG,354.5987,T,354.5987,M,2.584,N,4.790,K,D*27
$GPGGA,131235.60,4612.0982097,N,00607.2927823,E,4,04,4.4,368.562,M,49.481,M,0.94,0083*72
$GPVTG,355.8084,T,355.8084,M,2.496,N,4.626,K,D*29
$GPGGA,131236.00,4612.0984932,N,00607.2927438,E,4,04,4.4,368.535,M,49.481,M,1.34,0083*78
$RDENS,3612,4755439,PC
$GPVTG,356.0729,T,356.0729,M,2.524,N,4.678,K,D*2A
$GPGGA,131236.20,4612.0986257,N,00607.2927361,E,4,04,4.4,368.568,M,49.481,M,1.54,0083*75
$GPVTG,356.0236,T,356.0236,M,2.492,N,4.618,K,D*20
$GPGGA,131236.60,4612.0989030,N,00607.2927078,E,4,04,4.4,368.558,M,49.481,M,1.94,0083*79
$GPVTG,358.3893,T,358.3893,M,2.420,N,4.485,K,D*2F
$GPGGA,131236.80,4612.0990330,N,00607.2927016,E,4,04,4.4,368.575,M,49.481,M,2.14,0083*70
$RDENS,3613,4755527,PC
$GPVTG,355.8891,T,355.8891,M,2.394,N,4.437,K,D*2E
$GPGGA,131237.20,4612.0992723,N,00607.2926916,E,4,04,4.4,368.667,M,49.481,M,0.14,0083*75
$GPVTG,354.9699,T,354.9699,M,2.344,N,4.344,K,D*20
$GPGGA,131237.40,4612.0994092,N,00607.2926681,E,4,04,4.4,368.640,M,49.481,M,0.34,0083*7E
$GPVTG,353.0926,T,353.0926,M,2.352,N,4.359,K,D*2B
$GPGGA,131237.80,4612.0996528,N,00607.2926329,E,4,04,4.4,368.650,M,49.481,M,0.74,0083*76
$RDENS,3614,4755615,PC
$GPVTG,352.7713,T,352.7713,M,2.298,N,4.259,K,D*2D
$GPGGA,131238.00,4612.0997723,N,00607.2926164,E,4,04,4.4,368.654,M,49.481,M,0.94,0083*78
$GPVTG,354.2193,T,354.2193,M,2.201,N,4.080,K,D*2B
$GPGGA,131238.20,4612.0998957,N,00607.2925951,E,4,04,4.4,368.645,M,49.481,M,1.14,0083*7C
$GPVTG,350.8142,T,350.8142,M,2.314,N,4.289,K,D*25
$GPGGA,131238.60,4612.1001405,N,00607.2925477,E,4,04,4.4,368.614,M,49.481,M,1.54,0083*73
$RDENS,3615,4755703,PC
$GPVTG,351.4546,T,351.4546,M,2.127,N,3.941,K,D*2F
$GPGGA,131238.80,4612.1002544,N,00607.2925239,E,4,04,4.4,368.622,M,49.481,M,1.74,0083*71
$GPVTG,349.4771,T,349.4771,M,2.201,N,4.079,K,D*2D
$GPGGA,131239.20,4612.1004810,N,00607.2924741,E,4,04,4.4,368.661,M,49.481,M,2.14,0083*79
$GPVTG,354.3446,T,354.3446,M,1.854,N,3.435,K,D*2F
$GPGGA,131239.40,4612.1005910,N,00607.2924503,E,4,04,4.4,368.688,M,49.481,M,2.34,0083*7E
$RDENS,3616,4755790,PC
$GPVTG,347.8330,T,347.8330,M,2.143,N,3.971,K,D*2E
$GPGGA,131239.80,4612.1008178,N,00607.2923808,E,4,04,4.4,368.699,M,49.481,M,2.74,0083*7C
$GPVTG,347.9272,T,347.9272,M,2.146,N,3.977,K,D*2D
$GPGGA,131240.00,4612.1009364,N,00607.2923471,E,4,04,4.4,368.691,M,49.481,M,0.06,0083*79
$GPVTG,347.1193,T,347.1193,M,1.923,N,3.564,K,D*2B
$RDENS,3617,4755878,PC
$GPGGA,131240.40,4612.1011656,N,00607.2922597,E,4,04,4.4,368.632,M,49.481,M,0.34,0083*70
$GPVTG,347.9675,T,347.9675,M,1.861,N,3.449,K,D*22
$GPGGA,131240.60,4612.1012828,N,00607.2922202,E,4,04,4.4,368.602,M,49.481,M,0.54,0083*78
$GPVTG,344.2611,T,344.2611,M,2.198,N,4.073,K,D*24
$GPGGA,131241.00,4612.1015019,N,00607.2921427,E,4,04,4.4,368.602,M,49.481,M,0.94,0083*7C
$GPVTG,349.1419,T,349.1419,M,1.832,N,3.395,K,D*22
$RDENS,3618,4755966,PC
$GPGGA,131241.20,4612.1016142,N,00607.2920968,E,4,04,4.4,368.570,M,49.481,M,1.14,0083*7A
$GPVTG,343.7365,T,343.7365,M,2.168,N,4.019,K,D*27
$GPGGA,131241.60,4612.1018325,N,00607.2920106,E,4,04,4.4,368.573,M,49.481,M,1.54,0083*74
$GPVTG,343.8206,T,343.8206,M,2.153,N,3.990,K,D*20
$GPGGA,131241.80,4612.1019480,N,00607.2919716,E,4,04,4.4,368.555,M,49.481,M,0.01,0083*7B
$GPVTG,343.6172,T,343.6172,M,2.056,N,3.810,K,D*2D
$RDENS,3619,4756054,PC
$GPGGA,131242.20,4612.1021484,N,00607.2918888,E,4,04,4.4,368.596,M,49.481,M,0.39,0083*70
$GPVTG,342.1303,T,342.1303,M,2.032,N,3.766,K,D*21
$GPGGA,131242.40,4612.1022675,N,00607.2918339,E,4,04,4.4,368.574,M,49.481,M,0.05,0083*7B
$GPVTG,340.6126,T,340.6126,M,1.974,N,3.658,K,D*25
$GPGGA,131242.80,4612.1024585,N,00607.2917371,E,4,04,4.4,368.606,M,49.481,M,0.45,0083*7C
$GPVTG,340.7987,T,340.7987,M,1.738,N,3.221,K,D*29
$RDENS,3620,4756141,PC
$GPGGA,131243.00,4612.1025737,N,00607.2916739,E,4,04,4.4,368.545,M,49.481,M,0.65,0083*70
$GPVTG,337.3582,T,337.3582,M,1.810,N,3.354,K,D*2F
$GPGGA,131243.20,4612.1026590,N,00607.2916231,E,4,04,4.4,368.565,M,49.481,M,0.85,0083*7F
$GPVTG,338.9336,T,338.9336,M,1.561,N,2.894,K,D*22
$GPGGA,131243.60,4612.1028449,N,00607.2915060,E,4,04,4.4,368.545,M,49.481,M,0.07,0083*7D
$GPVTG,334.6808,T,334.6808,M,2.078,N,3.851,K,D*24
$RDENS,3621,4756228,PC
$GPGGA,131243.80,4612.1029293,N,00607.2914554,E,4,04,4.4,368.546,M,49.481,M,0.13,0083*76
$GPVTG,332.5454,T,332.5454,M,1.726,N,3.199,K,D*26
$GPGGA,131244.20,4612.1030887,N,00607.2913361,E,4,04,4.4,368.564,M,49.481,M,0.53,0083*7F
$GPVTG,332.9046,T,332.9046,M,1.509,N,2.797,K,D*20
$GPGGA,131244.40,4612.1031732,N,00607.2912707,E,4,04,4.4,368.551,M,49.481,M,0.73,0083*78
$GPVTG,329.7288,T,329.7288,M,1.721,N,3.189,K,D*20
$RDENS,3622,4756315,PC
$GPGGA,131244.80,4612.1033201,N,00607.2911505,E,4,04,4.4,368.558,M,49.481,M,1.13,0083*7E
$GPVTG,331.5010,T,331.5010,M,1.288,N,2.387,K,D*2B
$GPGGA,131245.00,4612.1033899,N,00607.2910850,E,4,04,4.4,368.575,M,49.481,M,1.33,0083*7D
$GPVTG,328.5278,T,328.5278,M,1.631,N,3.023,K,D*21
$GPGGA,131245.40,4612.1035415,N,00607.2909447,E,4,04,4.4,368.543,M,49.481,M,1.73,0083*74
$GPVTG,325.3620,T,325.3620,M,1.578,N,2.924,K,D*20
$RDENS,3623,4756402,PC
$GPGGA,131245.60,4612.1036086,N,00607.2908809,E,4,04,4.4,368.544,M,49.481,M,1.93,0083*75
$GPVTG,324.1965,T,324.1965,M,1.176,N,2.179,K,D*2A
$GPGGA,131246.00,4612.1037151,N,00607.2907687,E,4,04,4.4,368.644,M,49.481,M,2.33,0083*77
$GPVTG,324.1487,T,324.1487,M,1.420,N,2.632,K,D*24
$GPGGA,131246.20,4612.1037777,N,00607.2907094,E,4,04,4.4,368.665,M,49.481,M,2.53,0083*76
$GPVTG,326.7437,T,326.7437,M,1.556,N,2.883,K,D*20
$RDENS,3624,4756489,PC
$GPGGA,131246.60,4612.1038923,N,00607.2905928,E,4,04,4.4,368.674,M,49.481,M,2.93,0083*72
$GPVTG,322.5781,T,322.5781,M,0.935,N,1.733,K,D*2F
$GPGGA,131246.80,4612.1039592,N,00607.2905216,E,4,04,4.4,368.626,M,49.481,M,3.13,0083*73
$GPVTG,325.9363,T,325.9363,M,1.083,N,2.007,K,D*29
$GPGGA,131247.20,4612.1040617,N,00607.2904031,E,4,04,4.4,368.630,M,49.481,M,3.53,0083*7D
$GPVTG,318.1545,T,318.1545,M,1.362,N,2.524,K,D*21
$RDENS,3625,4756576,PC
$GPGGA,131247.40,4612.1041071,N,00607.2903502,E,4,04,4.4,368.634,M,49.481,M,3.73,0083*78
$GPVTG,321.0881,T,321.0881,M,1.253,N,2.322,K,D*22
$GPGGA,131247.80,4612.1042048,N,00607.2902258,E,4,04,4.4,368.633,M,49.481,M,4.13,0083*72
$GPVTG,317.3260,T,317.3260,M,1.246,N,2.309,K,D*2F
$GPGGA,131248.00,4612.1042560,N,00607.2901765,E,4,04,4.4,368.631,M,49.481,M,4.33,0083*72
$GPVTG,314.9972,T,314.9972,M,1.150,N,2.132,K,D*21
$RDENS,3626,4756663,PC
$GPGGA,131248.20,4612.1043010,N,00607.2901113,E,4,04,4.4,368.666,M,49.481,M,4.53,0083*70
$GPVTG,325.3521,T,325.3521,M,1.480,N,2.743,K,D*29
$GPGGA,131248.60,4612.1044043,N,00607.2900047,E,4,04,4.4,368.655,M,49.481,M,4.93,0083*78
$GPVTG,323.6157,T,323.6157,M,0.847,N,1.569,K,D*26
$GPGGA,131248.80,4612.1044646,N,00607.2899465,E,4,04,4.4,368.625,M,49.481,M,5.13,0083*7E
$GPVTG,325.5029,T,325.5029,M,0.767,N,1.421,K,D*26
$RDENS,3627,4756750,PC
$GPGGA,131249.20,4612.1045372,N,00607.2898870,E,4,04,4.4,368.744,M,49.481,M,5.53,0083*7D
$GPVTG,335.1563,T,335.1563,M,0.838,N,1.552,K,D*26
$GPGGA,131249.40,4612.1045904,N,00607.2898422,E,4,04,4.4,368.725,M,49.481,M,5.73,0083*7E
$GPVTG,335.5620,T,335.5620,M,1.025,N,1.900,K,D*28
$GPGGA,131249.80,4612.1046850,N,00607.2897849,E,4,04,4.4,368.768,M,49.481,M,6.13,0083*73
$GPVTG,339.0377,T,339.0377,M,0.870,N,1.612,K,D*2D
$RDENS,3628,4756837,PC
$GPGGA,131250.00,4612.1047468,N,00607.2897448,E,4,04,4.4,368.727,M,49.481,M,6.33,0083*71
$GPVTG,339.5117,T,339.5117,M,0.869,N,1.610,K,D*27
$GPGGA,131250.40,4612.1048397,N,00607.2897145,E,4,04,4.4,368.770,M,49.481,M,6.73,0083*73
$GPVTG,351.7145,T,351.7145,M,0.978,N,1.812,K,D*2A
$GPGGA,131250.60,4612.1048974,N,00607.2896890,E,4,04,4.4,368.746,M,49.481,M,6.93,0083*7D
$GPVTG,352.3297,T,352.3297,M,0.857,N,1.588,K,D*28
$RDENS,3629,4756924,PC
$GPGGA,131251.00,4612.1049791,N,00607.2896851,E,4,04,4.4,368.833,M,49.481,M,7.33,0083*75
$GPVTG,10.7218,T,10.7218,M,0.575,N,1.066,K,D*20
$GPGGA,131251.20,4612.1050506,N,00607.2896603,E,4,04,4.4,368.762,M,49.481,M,7.53,0083*77
$GPVTG,355.6294,T,355.6294,M,1.115,N,2.066,K,D*20
$GPGGA,131251.60,4612.1051548,N,00607.2896619,E,4,04,4.4,368.771,M,49.481,M,7.93,0083*7D
$GPVTG,4.0342,T,4.0342,M,0.817,N,1.515,K,D*28
$RDENS,3630,4757010,PC
$GPVTG,11.3915,T,11.3915,M,0.750,N,1.390,K,D*2F
$GPGGA,131252.00,4612.1052561,N,00607.2896584,E,4,04,4.4,368.782,M,49.481,M,8.33,0083*7E
$GPVTG,355.2755,T,355.2755,M,0.970,N,1.797,K,D*20
$GPGGA,131252.20,4612.1053149,N,00607.2896476,E,4,04,4.4,368.748,M,49.481,M,8.53,0083*7F
$GPVTG,349.9565,T,349.9565,M,0.964,N,1.787,K,D*24
$RDENS,3631,4757096,PC
$GPGGA,131252.60,4612.1054061,N,00607.2896452,E,4,04,4.4,368.735,M,49.481,M,8.93,0083*77
$GPVTG,5.9899,T,5.9899,M,0.763,N,1.414,K,D*24
$GPGGA,131252.80,4612.1054496,N,00607.2896496,E,4,04,4.4,368.745,M,49.481,M,9.13,0083*73
$GPVTG,346.9733,T,346.9733,M,1.066,N,1.975,K,D*2D
$GPGGA,131253.20,4612.1055386,N,00607.2896318,E,4,04,4.4,368.703,M,49.481,M,9.53,0083*78
$GPVTG,355.6291,T,355.6291,M,0.674,N,1.249,K,D*2D
$RDENS,3632,4757182,PC
$GPGGA,131253.40,4612.1055691,N,00607.2896413,E,4,04,4.4,368.739,M,49.481,M,9.73,0083*7A
$GPVTG,355.8227,T,355.8227,M,0.749,N,1.389,K,D*2F
$GPGGA,131253.80,4612.1056221,N,00607.2896529,E,4,04,4.4,368.798,M,49.481,M,10.13,0083*47
$GPVTG,14.5928,T,14.5928,M,0.368,N,0.683,K,D*26
$GPGGA,131254.00,4612.1056597,N,00607.2896483,E,4,04,4.4,368.770,M,49.481,M,10.33,0083*47
$GPVTG,357.7966,T,357.7966,M,0.507,N,0.940,K,D*29
$RDENS,3633,4757268,PC
$GPGGA,131254.40,4612.1057107,N,00607.2896498,E,2,04,4.4,368.769,M,49.481,M,10.73,0083*4F
$GPVTG,2.1478,T,2.1478,M,0.441,N,0.817,K,D*29
$GPGGA,131254.60,4612.1057481,N,00607.2896356,E,2,04,4.4,368.739,M,49.481,M,10.93,0083*48
$GPVTG,358.9464,T,358.9464,M,0.294,N,0.545,K,D*2D
$GPGGA,131255.00,4612.1057804,N,00607.2896358,E,2,04,4.4,368.794,M,49.481,M,11.33,0083*4C
$GPVTG,8.0368,T,8.0368,M,0.271,N,0.502,K,D*25
$RDENS,3634,4757354,PC
$GPGGA,131255.20,4612.1057957,N,00607.2896390,E,2,04,4.4,368.817,M,49.481,M,11.53,0083*4F
$GPVTG,358.9698,T,358.9698,M,0.318,N,0.590,K,D*20
$GPGGA,131255.60,4612.1058279,N,00607.2896396,E,2,04,4.4,368.829,M,49.481,M,11.93,0083*44
$GPVTG,13.7922,T,13.7922,M,0.194,N,0.359,K,D*25
$GPGGA,131255.80,4612.1058476,N,00607.2896347,E,2,04,4.4,368.803,M,49.481,M,0.10,0083*7C
$GPVTG,337.0972,T,337.0972,M,0.471,N,0.873,K,D*28
$RDENS,3635,4757440,PC
$GPGGA,131256.00,4612.1058846,N,00607.2896050,E,4,04,4.4,368.684,M,49.481,M,0.10,0083*7A
$GPVTG,335.4502,T,335.4502,M,0.335,N,0.622,K,D*25
$GPGGA,131256.40,4612.1059295,N,00607.2895738,E,4,04,4.4,368.597,M,49.481,M,0.07,0083*76
$GPVTG,331.6313,T,331.6313,M,0.511,N,0.947,K,D*29
$GPGGA,131256.60,4612.1059484,N,00607.2895539,E,4,04,4.4,368.566,M,49.481,M,0.08,0083*70
$GPVTG,307.5676,T,307.5676,M,0.181,N,0.335,K,D*2B
$RDENS,3636,4757526,PC
$GPGGA,131257.00,4612.1059615,N,00607.2895314,E,4,04,4.4,368.571,M,49.481,M,0.11,0083*7A
$GPVTG,312.9474,T,312.9474,M,0.197,N,0.365,K,D*29
$GPGGA,131257.20,4612.1059583,N,00607.2895252,E,4,04,4.4,368.606,M,49.481,M,0.31,0083*76
$GPVTG,302.6426,T,302.6426,M,0.243,N,0.450,K,D*22
$GPGGA,131257.60,4612.1059620,N,00607.2895000,E,4,04,4.4,368.631,M,49.481,M,0.15,0083*7F
$GPVTG,280.7364,T,280.7364,M,0.151,N,0.280,K,D*29
$RDENS,3637,4757613,PC
$GPGGA,131257.80,4612.1059681,N,00607.2894836,E,4,04,4.4,368.624,M,49.481,M,0.35,0083*70
$GPVTG,300.6961,T,300.6961,M,0.266,N,0.494,K,D*2D
$GPGGA,131258.20,4612.1059728,N,00607.2894577,E,4,04,4.4,368.628,M,49.481,M,0.75,0083*77
$GPVTG,268.7833,T,268.7833,M,0.134,N,0.248,K,D*2E
$GPGGA,131258.40,4612.1059758,N,00607.2894490,E,4,04,4.4,368.609,M,49.481,M,0.95,0083*73
$GPVTG,246.9380,T,246.9380,M,0.111,N,0.206,K,D*23
$RDENS,3638,4757699,PC
$GPGGA,131258.80,4612.1059674,N,00607.2894350,E,4,04,4.4,368.596,M,49.481,M,0.16,0083*75
$GPVTG,214.7485,T,214.7485,M,0.115,N,0.213,K,D*23
$GPGGA,131259.00,4612.1059639,N,00607.2894262,E,4,04,4.4,368.597,M,49.481,M,0.36,0083*76
$GPVTG,241.9360,T,241.9360,M,0.111,N,0.205,K,D*20
$GPGGA,131259.40,4612.1059628,N,00607.2894074,E,4,04,4.4,368.577,M,49.481,M,0.00,0083*7C
$GPVTG,295.1187,T,295.1187,M,0.191,N,0.354,K,D*2D
$RDENS,3639,4757785,PC
$GPGGA,131259.60,4612.1059592,N,00607.2893985,E,4,04,4.4,368.595,M,49.481,M,0.20,0083*72
$GPVTG,159.9750,T,159.9750,M,0.392,N,0.727,K,D*2C
$GPGGA,131259.80,4612.1059423,N,00607.2894050,E,4,04,4.4,368.642,M,49.481,M,0.40,0083*7E
$GPVTG,155.1779,T,155.1779,M,0.239,N,0.443,K,D*2D
$GPGGA,131300.20,4612.1059311,N,00607.2894142,E,4,04,4.5,368.679,M,49.481,M,0.80,0083*78
