$GPGGA,123149.40,4612.1966308,N,00607.5732001,E,4,04,2.8,368.739,M,49.481,M,0.02,0195*7F
$GPVTG,43.8868,T,43.8868,M,0.886,N,1.643,K,D*20
$GPGGA,123149.60,4612.1966560,N,00607.5732413,E,4,04,2.8,368.710,M,49.481,M,0.22,0195*7B
$GPVTG,50.2201,T,50.2201,M,0.772,N,1.431,K,D*23
$GPGGA,123150.00,4612.1967116,N,00607.5733277,E,4,04,2.8,368.720,M,49.481,M,0.62,0195*73
$GPVTG,46.6734,T,46.6734,M,0.615,N,1.140,K,D*20
$GPGGA,123150.20,4612.1967242,N,00607.5733555,E,4,04,2.8,368.743,M,49.481,M,0.82,0195*7F
$GPVTG,39.7126,T,39.7126,M,0.572,N,1.060,K,D*21
$RDENS,850,4510891,PC
$GPGGA,123150.60,4612.1967720,N,00607.5734054,E,4,04,2.8,368.702,M,49.481,M,1.22,0195*77
$GPVTG,27.7145,T,27.7145,M,0.449,N,0.833,K,D*27
$GPGGA,123150.80,4612.1967850,N,00607.5734216,E,4,04,2.8,368.716,M,49.481,M,1.42,0195*76
$GPVTG,39.7439,T,39.7439,M,0.398,N,0.738,K,D*28
$GPGGA,123151.00,4612.1968007,N,00607.5734475,E,4,04,2.8,368.754,M,49.481,M,0.17,0195*7E
$GPVTG,30.1882,T,30.1882,M,0.239,N,0.443,K,D*2D
$GPGGA,123151.40,4612.1968231,N,00607.5734566,E,4,04,2.8,368.757,M,49.481,M,0.23,0195*7A
$RDENS,851,4510979,PC
$GPVTG,7.7877,T,7.7877,M,0.200,N,0.371,K,D*21
$GPGGA,123151.60,4612.1968336,N,00607.5734537,E,4,04,2.8,368.739,M,49.481,M,0.43,0195*74
$GPVTG,330.9652,T,330.9652,M,0.185,N,0.344,K,D*29
$GPGGA,123152.00,4612.1968480,N,00607.5734395,E,4,04,2.8,368.720,M,49.481,M,0.83,0195*71
$GPVTG,309.8502,T,309.8502,M,0.152,N,0.282,K,D*28
$GPGGA,123152.20,4612.1968514,N,00607.5734287,E,4,04,2.8,368.719,M,49.481,M,1.03,0195*7E
$RDENS,852,4511067,PC
$GPVTG,308.8407,T,308.8407,M,0.150,N,0.277,K,D*20
$GPGGA,123152.60,4612.1968598,N,00607.5734087,E,4,04,2.8,368.710,M,49.481,M,1.43,0195*71
$GPVTG,303.5061,T,303.5061,M,0.168,N,0.311,K,D*2A
$GPGGA,123152.80,4612.1968639,N,00607.5733980,E,4,04,2.8,368.707,M,49.481,M,0.04,0195*7A
$GPVTG,308.0945,T,308.0945,M,0.152,N,0.281,K,D*2B
$GPGGA,123153.20,4612.1968699,N,00607.5733722,E,4,04,2.8,368.719,M,49.481,M,0.21,0195*75
$RDENS,853,4511155,PC
$GPVTG,279.1125,T,279.1125,M,0.164,N,0.305,K,D*23
$GPGGA,123153.40,4612.1968732,N,00607.5733603,E,4,04,2.8,368.731,M,49.481,M,0.41,0195*7D
$GPVTG,268.4207,T,268.4207,M,0.173,N,0.320,K,D*22
$GPVTG,273.7211,T,273.7211,M,0.150,N,0.278,K,D*2F
$GPGGA,123154.00,4612.1968756,N,00607.5733214,E,4,04,2.8,368.768,M,49.481,M,0.33,0195*77
$RDENS,854,4511243,PC
$GPVTG,286.7188,T,286.7188,M,0.126,N,0.234,K,D*26
$GPGGA,123154.20,4612.1968752,N,00607.5733085,E,4,04,2.8,368.780,M,49.481,M,0.53,0195*7B
$GPVTG,296.1137,T,296.1137,M,0.117,N,0.217,K,D*25
$GPGGA,123154.60,4612.1968865,N,00607.5733000,E,4,04,2.8,368.792,M,49.481,M,0.93,0195*76
$GPVTG,5.6224,T,5.6224,M,0.161,N,0.299,K,D*22
$GPGGA,123154.80,4612.1969001,N,00607.5733084,E,4,04,2.8,368.781,M,49.481,M,1.13,0195*74
$RDENS,855,4511331,PC
$GPVTG,43.3094,T,43.3094,M,0.213,N,0.396,K,D*2A
$GPGGA,123155.20,4612.1969262,N,00607.5733480,E,4,04,2.8,368.767,M,49.481,M,1.53,0195*74
$GPVTG,48.9190,T,48.9190,M,0.266,N,0.493,K,D*2A
$GPGGA,123155.40,4612.1969378,N,00607.5733745,E,4,04,2.8,368.762,M,49.481,M,1.73,0195*75
$GPVTG,70.5634,T,70.5634,M,0.436,N,0.807,K,D*28
$GPGGA,123155.80,4612.1969585,N,00607.5734205,E,4,04,2.8,368.776,M,49.481,M,2.13,0195*7B
$RDENS,856,4511418,PC
$GPVTG,47.1668,T,47.1668,M,0.565,N,1.047,K,D*22
$GPGGA,123156.00,4612.1969839,N,00607.5734694,E,4,04,2.8,368.765,M,49.481,M,2.33,0195*76
$GPVTG,64.5465,T,64.5465,M,0.684,N,1.268,K,D*21
$GPGGA,123156.40,4612.1970075,N,00607.5735668,E,4,04,2.8,368.788,M,49.481,M,0.08,0195*71
$GPVTG,57.3506,T,57.3506,M,0.747,N,1.384,K,D*2C
$GPGGA,123156.60,4612.1970310,N,00607.5736357,E,4,04,2.8,368.765,M,49.481,M,0.28,0195*78
$RDENS,857,4511507,PC
$GPVTG,75.3012,T,75.3012,M,0.922,N,1.709,K,D*20
$GPGGA,123156.80,4612.1970436,N,00607.5736946,E,4,04,2.8,368.777,M,49.481,M,0.48,0195*7A
$GPVTG,63.8340,T,63.8340,M,0.943,N,1.747,K,D*2D
$GPGGA,123157.20,4612.1970839,N,00607.5738466,E,4,04,2.8,368.790,M,49.481,M,0.88,0195*76
$GPVTG,82.5363,T,82.5363,M,0.988,N,1.832,K,D*27
$GPGGA,123157.40,4612.1971067,N,00607.5739209,E,4,04,2.8,368.723,M,49.481,M,1.08,0195*7D
$RDENS,858,4511596,PC
$GPVTG,82.6170,T,82.6170,M,0.902,N,1.672,K,D*2F
$GPGGA,123157.80,4612.1971328,N,00607.5740564,E,4,04,2.8,368.697,M,49.481,M,1.48,0195*71
$GPVTG,68.6686,T,68.6686,M,0.968,N,1.794,K,D*2A
$GPGGA,123158.00,4612.1971315,N,00607.5741173,E,4,04,2.8,368.675,M,49.481,M,1.68,0195*75
$GPVTG,73.5714,T,73.5714,M,0.755,N,1.399,K,D*23
$GPGGA,123158.40,4612.1971335,N,00607.5742472,E,4,04,2.8,368.754,M,49.481,M,2.08,0195*73
$RDENS,859,4511684,PC
$GPVTG,91.3291,T,91.3291,M,0.989,N,1.834,K,D*20
$GPGGA,123158.60,4612.1971253,N,00607.5742860,E,4,04,2.8,368.760,M,49.481,M,2.28,0195*7A
$GPVTG,85.5420,T,85.5420,M,0.732,N,1.356,K,D*21
$GPGGA,123159.00,4612.1971238,N,00607.5743948,E,4,04,2.8,368.745,M,49.481,M,2.68,0195*79
$GPVTG,91.2847,T,91.2847,M,0.592,N,1.096,K,D*26
$GPGGA,123159.20,4612.1971194,N,00607.5744410,E,4,04,2.8,368.762,M,49.481,M,2.88,0195*72
$GPVTG,117.1973,T,117.1973,M,0.536,N,0.993,K,D*25
$RDENS,860,4511772,PC
$GPGGA,123159.40,4612.1971153,N,00607.5744879,E,4,04,2.8,368.753,M,49.481,M,0.19,0195*74
$GPVTG,89.5987,T,89.5987,M,0.551,N,1.021,K,D*25
$GPGGA,123159.80,4612.1970988,N,00607.5745624,E,4,05,2.0,368.740,M,49.481,M,0.12,0195*70
$GPVTG,110.2381,T,110.2381,M,0.486,N,0.900,K,D*25
$GPGGA,123200.00,4612.1970910,N,00607.5745943,E,4,05,2.0,368.722,M,49.481,M,0.32,0195*7E
$GPVTG,117.8091,T,117.8091,M,0.413,N,0.766,K,D*27
$RDENS,861,4511860,PC
$GPGGA,123200.40,4612.1970633,N,00607.5746525,E,4,05,2.0,368.725,M,49.481,M,0.72,0195*78
$GPVTG,132.9194,T,132.9194,M,0.512,N,0.949,K,D*24
$GPGGA,123200.60,4612.1970514,N,00607.5746890,E,4,05,2.0,368.733,M,49.481,M,0.92,0195*76
$GPVTG,113.2187,T,113.2187,M,0.398,N,0.737,K,D*27
$GPGGA,123201.00,4612.1970101,N,00607.5747370,E,4,05,2.0,368.764,M,49.481,M,1.32,0195*7C
$GPVTG,144.5394,T,144.5394,M,0.468,N,0.868,K,D*2A
$RDENS,862,4511948,PC
$GPGGA,123201.20,4612.1969920,N,00607.5747576,E,4,05,2.0,368.764,M,49.481,M,1.52,0195*7B
$GPVTG,142.2368,T,142.2368,M,0.439,N,0.813,K,D*22
$GPGGA,123201.60,4612.1969564,N,00607.5748017,E,4,05,2.0,368.772,M,49.481,M,1.92,0195*75
$GPVTG,144.5231,T,144.5231,M,0.440,N,0.816,K,D*29
$GPGGA,123201.80,4612.1969475,N,00607.5748217,E,4,05,2.0,368.736,M,49.481,M,2.12,0195*73
$RDENS,863,4512035,PC
$GPVTG,158.0346,T,158.0346,M,0.401,N,0.743,K,D*23
$GPGGA,123202.20,4612.1968964,N,00607.5748493,E,4,05,2.0,368.758,M,49.481,M,0.19,0195*7D
$GPVTG,154.4444,T,154.4444,M,0.534,N,0.989,K,D*2C
$GPGGA,123202.40,4612.1968743,N,00607.5748739,E,4,05,2.0,368.756,M,49.481,M,0.39,0195*7F
$GPVTG,147.7773,T,147.7773,M,0.602,N,1.115,K,D*26
$GPGGA,123202.80,4612.1968148,N,00607.5749249,E,4,05,2.0,368.722,M,49.481,M,0.07,0195*73
$RDENS,864,4512123,PC
$GPVTG,156.7533,T,156.7533,M,0.715,N,1.325,K,D*20
$GPGGA,123203.00,4612.1967844,N,00607.5749603,E,4,05,2.0,368.718,M,49.481,M,0.27,0195*71
$GPVTG,152.9710,T,152.9710,M,0.653,N,1.209,K,D*2C
$GPGGA,123203.40,4612.1967150,N,00607.5750306,E,4,05,2.0,368.678,M,49.481,M,0.11,0195*73
$GPVTG,140.3478,T,140.3478,M,0.910,N,1.687,K,D*26
$GPGGA,123203.60,4612.1966683,N,00607.5750579,E,4,05,2.0,368.687,M,49.481,M,0.01,0195*76
$RDENS,865,4512211,PC
$GPVTG,150.6975,T,150.6975,M,0.908,N,1.684,K,D*2C
$GPGGA,123204.00,4612.1965745,N,00607.5751415,E,4,05,2.0,368.713,M,49.481,M,0.39,0195*72
$GPVTG,143.3577,T,143.3577,M,1.019,N,1.889,K,D*27
$GPGGA,123204.20,4612.1965293,N,00607.5751706,E,4,05,2.0,368.668,M,49.481,M,0.59,0195*74
$GPVTG,150.6609,T,150.6609,M,1.027,N,1.904,K,D*2E
$GPGGA,123204.40,4612.1964714,N,00607.5752124,E,4,05,2.0,368.714,M,49.481,M,0.79,0195*74
$GPVTG,148.9311,T,148.9311,M,1.004,N,1.860,K,D*2C
$RDENS,866,4512299,PC
$GPGGA,123204.80,4612.1963623,N,00607.5752956,E,4,05,2.0,368.672,M,49.481,M,0.06,0195*7E
$GPVTG,154.8040,T,154.8040,M,1.201,N,2.225,K,D*23
$GPGGA,123205.00,4612.1962959,N,00607.5753394,E,4,05,2.0,368.731,M,49.481,M,0.26,0195*75
$GPVTG,147.4732,T,147.4732,M,1.016,N,1.883,K,D*22
$GPGGA,123205.40,4612.1961860,N,00607.5754277,E,4,05,2.0,368.673,M,49.481,M,0.66,0195*71
$GPVTG,153.9664,T,153.9664,M,1.291,N,2.393,K,D*26
$RDENS,867,4512387,PC
$GPGGA,123205.60,4612.1961314,N,00607.5754591,E,4,05,2.0,368.659,M,49.481,M,0.04,0195*78
$GPVTG,150.1456,T,150.1456,M,1.252,N,2.320,K,D*21
$GPGGA,123206.00,4612.1960167,N,00607.5755375,E,4,05,2.0,368.702,M,49.481,M,0.44,0195*7C
$GPVTG,160.1416,T,160.1416,M,1.052,N,1.950,K,D*2D
$GPGGA,123206.20,4612.1959632,N,00607.5755617,E,4,05,2.0,368.689,M,49.481,M,0.64,0195*72
$GPVTG,156.9624,T,156.9624,M,1.171,N,2.169,K,D*2C
$RDENS,868,4512476,PC
$GPGGA,123206.60,4612.1958519,N,00607.5756361,E,4,05,2.0,368.696,M,49.481,M,1.04,0195*73
$GPVTG,154.9290,T,154.9290,M,1.036,N,1.920,K,D*28
$GPGGA,123206.80,4612.1957884,N,00607.5756756,E,4,05,2.0,368.722,M,49.481,M,1.24,0195*77
$GPVTG,155.7384,T,155.7384,M,1.030,N,1.909,K,D*25
$GPGGA,123207.20,4612.1956927,N,00607.5757471,E,4,05,2.0,368.733,M,49.481,M,1.64,0195*76
$GPVTG,154.7755,T,154.7755,M,1.063,N,1.969,K,D*25
$RDENS,869,4512565,PC
$GPGGA,123207.40,4612.1956348,N,00607.5757659,E,4,05,2.0,368.729,M,49.481,M,1.84,0195*7E
$GPVTG,158.0503,T,158.0503,M,1.072,N,1.986,K,D*24
$GPGGA,123207.80,4612.1955302,N,00607.5758244,E,4,05,2.0,368.704,M,49.481,M,0.24,0195*7C
$GPVTG,162.8323,T,162.8323,M,1.039,N,1.925,K,D*22
$GPGGA,123208.00,4612.1954738,N,00607.5758387,E,4,05,2.0,368.705,M,49.481,M,0.11,0195*7E
$GPVTG,155.1497,T,155.1497,M,1.111,N,2.060,K,D*22
$RDENS,870,4512654,PC
$GPGGA,123208.40,4612.1953705,N,00607.5758896,E,4,05,2.0,368.682,M,49.481,M,0.29,0195*7D
$GPVTG,169.3519,T,169.3519,M,0.908,N,1.683,K,D*2B
$GPGGA,123208.60,4612.1953163,N,00607.5759160,E,4,05,2.0,368.685,M,49.481,M,0.05,0195*71
$GPVTG,171.1902,T,171.1902,M,0.971,N,1.800,K,D*20
$GPGGA,123208.80,4612.1952633,N,00607.5759284,E,4,05,2.0,368.665,M,49.481,M,0.15,0195*7A
$RDENS,871,4512740,PC
$GPVTG,164.4230,T,164.4230,M,0.923,N,1.710,K,D*29
$GPGGA,123209.20,4612.1951574,N,00607.5759648,E,4,05,2.0,368.686,M,49.481,M,0.55,0195*7F
$GPVTG,169.0931,T,169.0931,M,0.966,N,1.791,K,D*21
$GPGGA,123209.40,4612.1951141,N,00607.5759738,E,4,05,2.0,368.664,M,49.481,M,0.75,0195*73
$GPVTG,162.9229,T,162.9229,M,0.953,N,1.767,K,D*2E
$GPGGA,123209.80,4612.1950124,N,00607.5760026,E,4,05,2.0,368.660,M,49.481,M,1.15,0195*7C
$RDENS,872,4512826,PC
$GPVTG,175.1102,T,175.1102,M,0.941,N,1.744,K,D*2C
$GPGGA,123210.00,4612.1949679,N,00607.5760276,E,4,05,2.0,368.654,M,49.481,M,1.35,0195*79
$GPVTG,171.8510,T,171.8510,M,0.904,N,1.675,K,D*2E
$GPGGA,123210.40,4612.1948594,N,00607.5760527,E,4,05,2.0,368.666,M,49.481,M,1.75,0195*7A
$GPVTG,169.0704,T,169.0704,M,0.935,N,1.733,K,D*2F
$GPGGA,123210.60,4612.1948164,N,00607.5760630,E,4,05,2.0,368.668,M,49.481,M,1.95,0195*76
$RDENS,873,4512912,PC
$GPVTG,168.2750,T,168.2750,M,0.924,N,1.713,K,D*2D
$GPGGA,123211.00,4612.1947174,N,00607.5760793,E,4,05,2.0,368.660,M,49.481,M,2.35,0195*76
$GPVTG,181.0333,T,181.0333,M,0.799,N,1.481,K,D*2D
$GPGGA,123211.20,4612.1946599,N,00607.5760942,E,4,05,2.0,368.706,M,49.481,M,2.55,0195*77
$GPVTG,172.7003,T,172.7003,M,0.848,N,1.571,K,D*20
$GPGGA,123211.60,4612.1945656,N,00607.5761023,E,4,05,2.0,368.647,M,49.481,M,2.95,0195*77
$RDENS,874,4512998,PC
$GPVTG,181.1003,T,181.1003,M,0.853,N,1.581,K,D*25
$GPGGA,123211.80,4612.1945172,N,00607.5761098,E,4,05,2.0,368.679,M,49.481,M,3.15,0195*7C
$GPVTG,174.8215,T,174.8215,M,0.851,N,1.577,K,D*2E
$GPGGA,123212.20,4612.1944285,N,00607.5761269,E,4,05,2.0,368.664,M,49.481,M,3.55,0195*7B
$GPVTG,170.3435,T,170.3435,M,0.900,N,1.668,K,D*26
$GPGGA,123212.40,4612.1943850,N,00607.5761280,E,4,05,2.0,368.647,M,49.481,M,3.75,0195*7C
$RDENS,875,4513084,PC
$GPVTG,175.2139,T,175.2139,M,0.969,N,1.795,K,D*2A
$GPGGA,123212.80,4612.1942777,N,00607.5761498,E,4,05,2.0,368.707,M,49.481,M,4.15,0195*70
$GPVTG,167.4475,T,167.4475,M,0.918,N,1.700,K,D*20
$GPGGA,123213.00,4612.1942245,N,00607.5761671,E,4,05,2.0,368.691,M,49.481,M,4.35,0195*74
$GPVTG,165.7707,T,165.7707,M,0.909,N,1.684,K,D*2D
$GPGGA,123213.40,4612.1941281,N,00607.5761955,E,4,05,2.0,368.685,M,49.481,M,4.75,0195*73
$RDENS,876,4513170,PC
$GPVTG,171.3703,T,171.3703,M,0.871,N,1.615,K,D*2B
$GPGGA,123213.60,4612.1940751,N,00607.5762353,E,4,05,2.0,368.705,M,49.481,M,4.95,0195*70
$GPVTG,154.8025,T,154.8025,M,1.187,N,2.200,K,D*29
$GPGGA,123213.80,4612.1940106,N,00607.5762540,E,4,05,2.0,368.704,M,49.481,M,5.15,0195*76
$GPVTG,157.9065,T,157.9065,M,1.054,N,1.954,K,D*2F
$RDENS,877,4513256,PC
$GPGGA,123214.20,4612.1939086,N,00607.5763228,E,4,05,2.0,368.651,M,49.481,M,5.55,0195*71
$GPVTG,155.7126,T,155.7126,M,1.092,N,2.023,K,D*2F
$GPGGA,123214.40,4612.1938422,N,00607.5763517,E,4,05,2.0,368.665,M,49.481,M,0.19,0195*7D
$GPVTG,158.0845,T,158.0845,M,1.216,N,2.254,K,D*23
$GPGGA,123214.80,4612.1937182,N,00607.5764123,E,4,05,2.0,368.636,M,49.481,M,0.15,0195*7F
$GPVTG,159.3786,T,159.3786,M,1.198,N,2.220,K,D*25
$RDENS,878,4513342,PC
$GPGGA,123215.00,4612.1936505,N,00607.5764495,E,4,05,2.0,368.630,M,49.481,M,0.35,0195*70
$GPVTG,158.2443,T,158.2443,M,1.194,N,2.212,K,D*28
$GPGGA,123215.40,4612.1935162,N,00607.5765210,E,4,05,2.0,368.648,M,49.481,M,0.75,0195*73
$GPVTG,159.1892,T,159.1892,M,1.295,N,2.399,K,D*28
$GPGGA,123215.60,4612.1934491,N,00607.5765684,E,4,05,2.0,368.648,M,49.481,M,0.95,0195*7E
$GPVTG,155.8717,T,155.8717,M,1.326,N,2.458,K,D*2B
$RDENS,879,4513429,PC
$GPGGA,123216.00,4612.1933087,N,00607.5766532,E,4,05,2.0,368.620,M,49.481,M,1.35,0195*77
$GPVTG,158.8803,T,158.8803,M,1.371,N,2.541,K,D*20
$GPVTG,155.2638,T,155.2638,M,1.427,N,2.644,K,D*22
$GPGGA,123216.40,4612.1931677,N,00607.5767509,E,4,05,2.0,368.614,M,49.481,M,0.10,0195*70
$GPVTG,159.6938,T,159.6938,M,1.485,N,2.752,K,D*2C
$GPGGA,123216.60,4612.1930887,N,00607.5767926,E,4,05,2.0,368.616,M,49.481,M,0.30,0195*73
$RDENS,880,4513516,PC
$GPVTG,157.9780,T,157.9780,M,1.448,N,2.684,K,D*27
$GPGGA,123217.00,4612.1929343,N,00607.5768797,E,4,05,2.0,368.640,M,49.481,M,0.70,0195*73
$GPVTG,159.1669,T,159.1669,M,1.511,N,2.801,K,D*29
$GPGGA,123217.20,4612.1928588,N,00607.5769264,E,4,05,2.0,368.650,M,49.481,M,0.90,0195*76
$GPVTG,159.8161,T,159.8161,M,1.424,N,2.639,K,D*2B
$GPGGA,123217.60,4612.1927121,N,00607.5770025,E,4,05,2.0,368.642,M,49.481,M,1.30,0195*7D
$RDENS,881,4513603,PC
$GPVTG,160.7307,T,160.7307,M,1.384,N,2.566,K,D*2F
$GPGGA,123217.80,4612.1926389,N,00607.5770453,E,4,05,2.0,368.649,M,49.481,M,1.50,0195*7A
$GPVTG,164.4262,T,164.4262,M,1.377,N,2.552,K,D*24
$GPGGA,123218.20,4612.1924877,N,00607.5771048,E,4,05,2.0,368.609,M,49.481,M,1.90,0195*70
$GPVTG,164.9673,T,164.9673,M,1.383,N,2.564,K,D*2A
$GPGGA,123218.40,4612.1924179,N,00607.5771319,E,4,05,2.0,368.634,M,49.481,M,0.05,0195*75
$RDENS,882,4513690,PC
$GPVTG,165.0337,T,165.0337,M,1.412,N,2.616,K,D*23
$GPGGA,123218.80,4612.1922665,N,00607.5771806,E,4,05,2.0,368.638,M,49.481,M,0.01,0195*78
$GPVTG,167.2356,T,167.2356,M,1.356,N,2.512,K,D*23
$GPGGA,123219.00,4612.1921907,N,00607.5772006,E,4,05,2.0,368.640,M,49.481,M,0.00,0195*7C
$GPVTG,172.7993,T,172.7993,M,1.413,N,2.619,K,D*2D
$GPGGA,123219.40,4612.1920416,N,00607.5772306,E,4,05,2.0,368.626,M,49.481,M,0.40,0195*73
$RDENS,883,4513777,PC
$GPVTG,171.6075,T,171.6075,M,1.296,N,2.401,K,D*2D
$GPGGA,123219.60,4612.1919675,N,00607.5772459,E,4,05,2.0,368.615,M,49.481,M,0.14,0195*70
$GPVTG,172.9213,T,172.9213,M,1.350,N,2.503,K,D*25
$GPGGA,123220.00,4612.1918100,N,00607.5772715,E,4,05,2.0,368.655,M,49.481,M,0.54,0195*73
$GPVTG,174.4768,T,174.4768,M,1.440,N,2.669,K,D*2C
$GPGGA,123220.20,4612.1917365,N,00607.5772831,E,4,05,2.0,368.660,M,49.481,M,0.74,0195*72
$RDENS,884,4513864,PC
$GPVTG,176.2725,T,176.2725,M,1.328,N,2.461,K,D*2F
$GPGGA,123220.40,4612.1916641,N,00607.5772898,E,4,05,2.0,368.660,M,49.481,M,0.94,0195*7B
$GPVTG,181.5905,T,181.5905,M,1.377,N,2.551,K,D*27
$GPGGA,123220.80,4612.1915173,N,00607.5772920,E,4,05,2.0,368.639,M,49.481,M,1.34,0195*77
$GPVTG,177.8329,T,177.8329,M,1.347,N,2.496,K,D*2E
$GPGGA,123221.00,4612.1914384,N,00607.5772920,E,4,05,2.0,368.643,M,49.481,M,1.54,0195*7E
$RDENS,885,4513951,PC
$GPVTG,180.2023,T,180.2023,M,1.376,N,2.551,K,D*26
$GPGGA,123221.40,4612.1912824,N,00607.5772888,E,4,05,2.0,368.648,M,49.481,M,1.94,0195*79
$GPVTG,182.1852,T,182.1852,M,1.331,N,2.466,K,D*20
$GPGGA,123221.60,4612.1912087,N,00607.5772872,E,4,05,2.0,368.627,M,49.481,M,2.14,0195*7D
$GPVTG,181.8124,T,181.8124,M,1.562,N,2.895,K,D*20
$GPGGA,123222.00,4612.1910374,N,00607.5772780,E,4,05,2.0,368.603,M,49.481,M,2.54,0195*75
$RDENS,886,4514038,PC
$GPVTG,183.0726,T,183.0726,M,1.473,N,2.730,K,D*21
$GPGGA,123222.20,4612.1909502,N,00607.5772737,E,4,05,2.0,368.590,M,49.481,M,0.07,0195*79
$GPVTG,180.4844,T,180.4844,M,1.692,N,3.135,K,D*2E
$GPGGA,123222.60,4612.1907629,N,00607.5772629,E,4,05,2.0,368.618,M,49.481,M,0.03,0195*70
$GPVTG,182.3379,T,182.3379,M,1.567,N,2.904,K,D*2C
$RDENS,887,4514125,PC
$GPGGA,123222.80,4612.1906740,N,00607.5772602,E,4,05,2.0,368.583,M,49.481,M,0.23,0195*7B
$GPVTG,181.5185,T,181.5185,M,1.642,N,3.044,K,D*24
$GPGGA,123223.20,4612.1904802,N,00607.5772510,E,4,05,2.0,368.586,M,49.481,M,0.63,0195*7A
$GPVTG,182.8817,T,182.8817,M,1.782,N,3.302,K,D*28
$GPGGA,123223.40,4612.1903794,N,00607.5772470,E,4,05,2.0,368.588,M,49.481,M,0.83,0195*7C
$GPVTG,182.7314,T,182.7314,M,1.853,N,3.434,K,D*29
$RDENS,888,4514211,PC
$GPGGA,123223.80,4612.1901741,N,00607.5772338,E,4,05,2.0,368.598,M,49.481,M,1.23,0195*7B
$GPVTG,182.7795,T,182.7795,M,1.833,N,3.397,K,D*21
$GPGGA,123224.00,4612.1900658,N,00607.5772274,E,4,05,2.0,368.613,M,49.481,M,1.43,0195*73
$GPVTG,181.5881,T,181.5881,M,1.868,N,3.461,K,D*21
$GPGGA,123224.40,4612.1898541,N,00607.5772142,E,4,05,2.0,368.620,M,49.481,M,1.83,0195*76
$GPVTG,183.7094,T,183.7094,M,2.003,N,3.712,K,D*20
$RDENS,889,4514298,PC
$GPGGA,123224.60,4612.1897489,N,00607.5772021,E,4,05,2.0,368.594,M,49.481,M,2.03,0195*7D
$GPVTG,182.6364,T,182.6364,M,2.063,N,3.824,K,D*2C
$GPGGA,123225.00,4612.1895169,N,00607.5771834,E,4,05,2.0,368.612,M,49.481,M,2.43,0195*75
$GPVTG,184.5949,T,184.5949,M,2.028,N,3.759,K,D*26
$GPGGA,123225.20,4612.1894073,N,00607.5771707,E,4,05,2.0,368.603,M,49.481,M,2.63,0195*71
$GPVTG,183.8749,T,183.8749,M,2.041,N,3.782,K,D*2F
$RDENS,890,4514385,PC
$GPGGA,123225.40,4612.1892884,N,00607.5771587,E,4,05,2.0,368.603,M,49.481,M,2.83,0195*75
$GPVTG,185.3860,T,185.3860,M,2.077,N,3.850,K,D*2A
$GPGGA,123225.80,4612.1890526,N,00607.5771258,E,4,05,2.0,368.618,M,49.481,M,3.23,0195*7A
$GPVTG,186.7207,T,186.7207,M,2.121,N,3.931,K,D*2E
$GPGGA,123226.00,4612.1889373,N,00607.5771141,E,4,05,2.0,368.594,M,49.481,M,3.43,0195*75
$GPVTG,185.2739,T,185.2739,M,2.117,N,3.923,K,D*28
$RDENS,891,4514472,PC
$GPGGA,123226.40,4612.1886915,N,00607.5770738,E,4,05,2.0,368.608,M,49.481,M,3.83,0195*77
$GPVTG,187.7152,T,187.7152,M,2.273,N,4.213,K,D*26
$GPGGA,123226.60,4612.1885771,N,00607.5770513,E,4,05,2.0,368.590,M,49.481,M,4.03,0195*7C
$GPVTG,188.0637,T,188.0637,M,2.124,N,3.936,K,D*2C
$GPGGA,123227.00,4612.1883355,N,00607.5770014,E,4,05,2.0,368.618,M,49.481,M,4.43,0195*7A
$GPVTG,189.0323,T,189.0323,M,2.213,N,4.102,K,D*23
$RDENS,892,4514559,PC
$GPGGA,123227.20,4612.1882179,N,00607.5769710,E,4,05,2.0,368.616,M,49.481,M,4.63,0195*72
$GPVTG,191.4953,T,191.4953,M,2.084,N,3.862,K,D*27
$GPGGA,123227.60,4612.1879854,N,00607.5769070,E,4,05,2.0,368.629,M,49.481,M,5.03,0195*7E
$GPVTG,190.7825,T,190.7825,M,2.097,N,3.887,K,D*2E
$GPGGA,123227.80,4612.1878702,N,00607.5768751,E,4,05,2.0,368.640,M,49.481,M,5.23,0195*75
$GPVTG,192.4601,T,192.4601,M,2.072,N,3.840,K,D*2E
$RDENS,893,4514646,PC
$GPGGA,123228.20,4612.1876459,N,00607.5768040,E,4,05,2.0,368.621,M,49.481,M,5.63,0195*77
$GPVTG,193.0856,T,193.0856,M,2.156,N,3.996,K,D*23
$GPGGA,123228.40,4612.1875390,N,00607.5767637,E,4,05,2.0,368.615,M,49.481,M,5.83,0195*70
$GPVTG,194.3229,T,194.3229,M,2.114,N,3.919,K,D*22
$GPGGA,123228.80,4612.1873191,N,00607.5766806,E,4,05,2.0,368.618,M,49.481,M,6.23,0195*70
$GPVTG,195.1815,T,195.1815,M,2.063,N,3.823,K,D*2B
$RDENS,894,4514733,PC
$GPGGA,123229.00,4612.1872056,N,00607.5766344,E,4,05,2.0,368.632,M,49.481,M,6.43,0195*71
$GPVTG,197.2341,T,197.2341,M,1.934,N,3.584,K,D*23
$GPGGA,123229.40,4612.1870004,N,00607.5765470,E,4,05,2.0,368.620,M,49.481,M,6.83,0195*7C
$GPVTG,197.3969,T,197.3969,M,1.962,N,3.637,K,D*2B
$GPGGA,123229.60,4612.1869014,N,00607.5765013,E,4,05,2.0,368.589,M,49.481,M,7.03,0195*7F
$GPVTG,196.6254,T,196.6254,M,1.955,N,3.622,K,D*2B
$RDENS,895,4514820,PC
$GPGGA,123229.80,4612.1867891,N,00607.5764582,E,4,05,2.0,368.612,M,49.481,M,7.23,0195*75
$GPVTG,196.3305,T,196.3305,M,2.013,N,3.730,K,D*21
$GPGGA,123230.20,4612.1865736,N,00607.5763712,E,4,05,2.0,368.609,M,49.481,M,7.63,0195*75
$GPVTG,195.6015,T,195.6015,M,1.975,N,3.661,K,D*2E
$GPGGA,123230.40,4612.1864605,N,00607.5763334,E,4,05,2.0,368.629,M,49.481,M,7.83,0195*7F
$GPVTG,193.8191,T,193.8191,M,2.029,N,3.760,K,D*2D
$RDENS,896,4514907,PC
$GPGGA,123230.80,4612.1862451,N,00607.5762570,E,4,05,2.0,368.617,M,49.481,M,8.23,0195*79
$GPVTG,192.3248,T,192.3248,M,2.064,N,3.826,K,D*29
$GPGGA,123231.00,4612.1861377,N,00607.5762220,E,4,05,2.0,368.617,M,49.481,M,8.43,0195*74
$GPVTG,192.7681,T,192.7681,M,2.030,N,3.761,K,D*24
$GPGGA,123231.40,4612.1859075,N,00607.5761532,E,4,05,2.0,368.637,M,49.481,M,8.83,0195*73
$GPVTG,191.7374,T,191.7374,M,2.072,N,3.839,K,D*20
$RDENS,897,4514994,PC
$GPGGA,123231.60,4612.1857975,N,00607.5761237,E,4,05,2.0,368.624,M,49.481,M,9.03,0195*7F
$GPVTG,191.0355,T,191.0355,M,2.062,N,3.821,K,D*28
$GPGGA,123232.00,4612.1855667,N,00607.5760655,E,4,05,2.0,368.626,M,49.481,M,9.43,0195*73
$GPVTG,189.7255,T,189.7255,M,2.098,N,3.889,K,D*2F
$GPGGA,123232.20,4612.1854521,N,00607.5760408,E,4,05,2.0,368.641,M,49.481,M,9.63,0195*78
$GPVTG,188.2751,T,188.2751,M,2.115,N,3.920,K,D*29
$RDENS,898,4515081,PC
$GPGGA,123232.60,4612.1852217,N,00607.5759895,E,4,05,2.0,368.659,M,49.481,M,10.03,0195*4D
$GPVTG,189.0953,T,189.0953,M,2.169,N,4.019,K,D*26
$GPGGA,123232.80,4612.1851089,N,00607.5759583,E,4,05,2.0,368.659,M,49.481,M,10.23,0195*4D
$GPVTG,190.6542,T,190.6542,M,2.009,N,3.723,K,D*28
$GPGGA,123233.20,4612.1848861,N,00607.5758996,E,4,05,2.0,368.678,M,49.481,M,10.63,0195*4E
$GPVTG,190.5458,T,190.5458,M,2.053,N,3.804,K,D*2D
$RDENS,899,4515168,PC
$GPGGA,123233.40,4612.1847791,N,00607.5758668,E,4,05,2.0,368.668,M,49.481,M,10.83,0195*46
$GPVTG,192.4556,T,192.4556,M,1.933,N,3.582,K,D*22
$GPGGA,123233.80,4612.1845695,N,00607.5757995,E,4,05,2.0,368.654,M,49.481,M,11.23,0195*4B
$GPVTG,193.0913,T,193.0913,M,1.942,N,3.599,K,D*2E
$GPGGA,123234.00,4612.1844623,N,00607.5757625,E,4,05,2.0,368.693,M,49.481,M,11.43,0195*41
$GPVTG,195.3724,T,195.3724,M,1.939,N,3.594,K,D*2F
$RDENS,900,4515255,PC
$GPGGA,123234.40,4612.1842553,N,00607.5756837,E,4,05,2.0,368.691,M,49.481,M,11.83,0195*45
$GPVTG,194.7042,T,194.7042,M,1.902,N,3.525,K,D*2D
$GPGGA,123234.60,4612.1841560,N,00607.5756419,E,4,05,2.0,368.686,M,49.481,M,12.03,0195*49
$GPVTG,196.8502,T,196.8502,M,1.912,N,3.544,K,D*2B
$GPGGA,123235.00,4612.1839489,N,00607.5755600,E,4,05,2.0,368.688,M,49.481,M,12.43,0195*44
$RDENS,901,4515342,PC
$GPVTG,194.8228,T,194.8228,M,1.897,N,3.516,K,D*20
$GPGGA,123235.20,4612.1838467,N,00607.5755130,E,4,05,2.0,368.668,M,49.481,M,0.05,0195*7C
$GPVTG,193.7217,T,193.7217,M,2.030,N,3.762,K,D*27
$GPGGA,123235.40,4612.1837380,N,00607.5754754,E,4,05,2.0,368.666,M,49.481,M,0.25,0195*72
$GPVTG,192.3423,T,192.3423,M,1.931,N,3.578,K,D*25
$GPGGA,123235.80,4612.1835275,N,00607.5754106,E,4,05,2.0,368.663,M,49.481,M,0.65,0195*77
$RDENS,902,4515429,PC
$GPVTG,191.6920,T,191.6920,M,1.970,N,3.651,K,D*28
$GPGGA,123236.00,4612.1834231,N,00607.5753759,E,4,05,2.0,368.656,M,49.481,M,0.85,0195*7E
$GPVTG,189.6290,T,189.6290,M,1.976,N,3.661,K,D*2D
$GPGGA,123236.40,4612.1832116,N,00607.5753149,E,4,05,2.0,368.661,M,49.481,M,0.09,0195*7D
$GPVTG,193.0199,T,193.0199,M,1.957,N,3.627,K,D*2C
$GPGGA,123236.60,4612.1831193,N,00607.5752724,E,4,06,1.4,368.630,M,49.481,M,0.07,0195*73
$RDENS,903,4515516,PC
$GPVTG,195.9455,T,195.9455,M,1.947,N,3.607,K,D*2F
$GPGGA,123237.00,4612.1829139,N,00607.5751911,E,4,06,1.4,368.637,M,49.481,M,0.33,0195*76
$GPVTG,194.5300,T,194.5300,M,1.868,N,3.461,K,D*21
$GPGGA,123237.20,4612.1828140,N,00607.5751514,E,4,06,1.4,368.645,M,49.481,M,0.53,0195*71
$GPVTG,196.6295,T,196.6295,M,1.788,N,3.313,K,D*22
$GPGGA,123237.60,4612.1826230,N,00607.5750624,E,4,06,1.4,368.613,M,49.481,M,0.93,0195*71
$RDENS,904,4515603,PC
$GPVTG,197.8493,T,197.8493,M,1.836,N,3.403,K,D*2E
$GPGGA,123237.80,4612.1825292,N,00607.5750211,E,4,06,1.4,368.627,M,49.481,M,1.13,0195*78
$GPVTG,197.9248,T,197.9248,M,1.800,N,3.336,K,D*2A
$GPGGA,123238.20,4612.1823373,N,00607.5749277,E,4,06,1.4,368.630,M,49.481,M,1.53,0195*7F
$GPVTG,198.7464,T,198.7464,M,1.858,N,3.443,K,D*22
$GPVTG,200.7592,T,200.7592,M,1.755,N,3.252,K,D*26
$RDENS,905,4515690,PC
$GPGGA,123238.60,4612.1821569,N,00607.5748307,E,4,06,1.4,368.629,M,49.481,M,0.09,0195*75
$GPVTG,202.5120,T,202.5120,M,1.794,N,3.324,K,D*2B
$GPGGA,123238.80,4612.1820639,N,00607.5747744,E,4,06,1.4,368.630,M,49.481,M,0.08,0195*79
$GPVTG,201.1415,T,201.1415,M,1.757,N,3.256,K,D*20
$GPGGA,123239.20,4612.1818875,N,00607.5746694,E,4,06,1.4,368.633,M,49.481,M,0.32,0195*78
$GPVTG,202.8820,T,202.8820,M,1.705,N,3.159,K,D*2B
$RDENS,906,4515778,PC
$GPGGA,123239.40,4612.1817963,N,00607.5746170,E,4,06,1.4,368.638,M,49.481,M,0.52,0195*77
$GPVTG,205.0245,T,205.0245,M,1.717,N,3.183,K,D*2F
$GPGGA,123239.80,4612.1816214,N,00607.5745047,E,4,06,1.4,368.632,M,49.481,M,0.92,0195*71
$GPVTG,202.9870,T,202.9870,M,1.754,N,3.250,K,D*25
$GPGGA,123240.00,4612.1815361,N,00607.5744496,E,4,06,1.4,368.633,M,49.481,M,1.12,0195*76
$GPVTG,205.3858,T,205.3858,M,1.769,N,3.279,K,D*20
$RDENS,907,4515865,PC
$GPGGA,123240.40,4612.1813629,N,00607.5743333,E,4,06,1.4,368.630,M,49.481,M,1.52,0195*75
$GPVTG,203.9980,T,203.9980,M,1.668,N,3.091,K,D*24
$GPGGA,123240.60,4612.1812755,N,00607.5742736,E,4,06,1.4,368.638,M,49.481,M,0.06,0195*74
$GPVTG,207.8010,T,207.8010,M,1.725,N,3.198,K,D*24
$GPGGA,123241.00,4612.1811058,N,00607.5741478,E,4,06,1.4,368.642,M,49.481,M,0.34,0195*7C
$GPVTG,206.6788,T,206.6788,M,1.709,N,3.168,K,D*25
$RDENS,908,4515953,PC
$GPGGA,123241.20,4612.1810213,N,00607.5740846,E,4,06,1.4,368.645,M,49.481,M,0.54,0195*73
$GPVTG,204.1793,T,204.1793,M,1.766,N,3.273,K,D*25
$GPGGA,123241.60,4612.1808427,N,00607.5739752,E,4,06,1.4,368.670,M,49.481,M,0.94,0195*71
$GPVTG,204.4194,T,204.4194,M,1.702,N,3.154,K,D*21
$GPGGA,123241.80,4612.1807495,N,00607.5739249,E,4,06,1.4,368.673,M,49.481,M,0.05,0195*7D
$GPVTG,200.0605,T,200.0605,M,1.725,N,3.196,K,D*2A
$RDENS,909,4516041,PC
$GPGGA,123242.20,4612.1805666,N,00607.5738270,E,4,06,1.4,368.664,M,49.481,M,0.35,0195*76
$GPVTG,199.6481,T,199.6481,M,1.821,N,3.374,K,D*2F
$GPGGA,123242.40,4612.1804698,N,00607.5737811,E,4,06,1.4,368.644,M,49.481,M,0.15,0195*72
$GPVTG,194.1704,T,194.1704,M,1.846,N,3.422,K,D*2A
$GPGGA,123242.60,4612.1803732,N,00607.5737403,E,4,06,1.4,368.618,M,49.481,M,0.35,0195*72
$GPVTG,194.5815,T,194.5815,M,1.840,N,3.410,K,D*2D
$RDENS,910,4516129,PC
$GPGGA,123243.00,4612.1801732,N,00607.5736566,E,4,06,1.4,368.613,M,49.481,M,0.75,0195*7B
$GPVTG,196.3963,T,196.3963,M,1.907,N,3.535,K,D*29
$GPGGA,123243.20,4612.1800689,N,00607.5736146,E,4,06,1.4,368.631,M,49.481,M,0.95,0195*71
$GPVTG,194.9415,T,194.9415,M,1.912,N,3.544,K,D*2B
$GPGGA,123243.60,4612.1798563,N,00607.5735298,E,4,06,1.4,368.644,M,49.481,M,1.35,0195*76
$GPVTG,196.3950,T,196.3950,M,2.026,N,3.755,K,D*24
$RDENS,911,4516217,PC
$GPGGA,123243.80,4612.1797508,N,00607.5734878,E,4,06,1.4,368.620,M,49.481,M,0.07,0195*7D
$GPVTG,194.1066,T,194.1066,M,1.995,N,3.697,K,D*29
$GPGGA,123244.20,4612.1795373,N,00607.5734111,E,4,06,1.4,368.620,M,49.481,M,0.47,0195*7A
$GPVTG,194.7844,T,194.7844,M,1.940,N,3.595,K,D*20
$GPGGA,123244.40,4612.1794278,N,00607.5733743,E,4,06,1.4,368.621,M,49.481,M,0.67,0195*72
$GPVTG,192.6304,T,192.6304,M,2.059,N,3.817,K,D*25
$RDENS,912,4516305,PC
$GPGGA,123244.80,4612.1792088,N,00607.5733042,E,4,06,1.4,368.610,M,49.481,M,1.07,0195*76
$GPVTG,192.3925,T,192.3925,M,2.003,N,3.711,K,D*23
$GPGGA,123245.00,4612.1790938,N,00607.5732691,E,4,06,1.4,368.614,M,49.481,M,1.27,0195*70
$GPVTG,192.4011,T,192.4011,M,2.073,N,3.842,K,D*2D
$GPGGA,123245.40,4612.1788739,N,00607.5731984,E,4,06,1.4,368.612,M,49.481,M,0.04,0195*7C
$GPVTG,192.2294,T,192.2294,M,2.033,N,3.768,K,D*2E
$RDENS,913,4516393,PC
$GPGGA,123245.60,4612.1787607,N,00607.5731626,E,4,06,1.4,368.621,M,49.481,M,0.24,0195*78
$GPVTG,191.4011,T,191.4011,M,2.077,N,3.849,K,D*22
$GPGGA,123246.00,4612.1785354,N,00607.5730920,E,4,06,1.4,368.613,M,49.481,M,0.16,0195*74
$GPVTG,191.9709,T,191.9709,M,2.099,N,3.890,K,D*26
$GPGGA,123246.20,4612.1784226,N,00607.5730593,E,4,06,1.4,368.605,M,49.481,M,0.36,0195*72
$GPVTG,190.6047,T,190.6047,M,2.123,N,3.935,K,D*28
$RDENS,914,4516482,PC
$GPGGA,123246.60,4612.1781943,N,00607.5729947,E,4,06,1.4,368.607,M,49.481,M,0.76,0195*70
$GPVTG,191.6957,T,191.6957,M,2.085,N,3.864,K,D*20
$GPGGA,123246.80,4612.1780788,N,00607.5729629,E,4,06,1.4,368.612,M,49.481,M,0.96,0195*7B
$GPVTG,189.0109,T,189.0109,M,2.109,N,3.909,K,D*2F
$GPGGA,123247.20,4612.1778479,N,00607.5729126,E,4,06,1.4,368.629,M,49.481,M,1.36,0195*71
$GPVTG,188.6293,T,188.6293,M,2.089,N,3.872,K,D*2B
$RDENS,915,4516570,PC
$GPGGA,123247.40,4612.1777312,N,00607.5728855,E,4,06,1.4,368.628,M,49.481,M,1.56,0195*79
$GPVTG,188.3236,T,188.3236,M,2.083,N,3.860,K,D*22
$GPGGA,123247.60,4612.1776148,N,00607.5728623,E,4,06,1.4,368.615,M,49.481,M,0.01,0195*75
$GPVTG,188.1405,T,188.1405,M,2.123,N,3.934,K,D*29
$GPGGA,123248.00,4612.1773802,N,00607.5728150,E,4,06,1.4,368.636,M,49.481,M,0.39,0195*77
$GPVTG,187.4288,T,187.4288,M,2.168,N,4.018,K,D*26
$RDENS,916,4516658,PC
$GPGGA,123248.20,4612.1772667,N,00607.5727915,E,4,06,1.4,368.629,M,49.481,M,0.59,0195*77
$GPVTG,187.4502,T,187.4502,M,2.100,N,3.892,K,D*25
$GPGGA,123248.60,4612.1770335,N,00607.5727490,E,4,06,1.4,368.628,M,49.481,M,0.99,0195*7E
$GPVTG,186.9146,T,186.9146,M,2.130,N,3.948,K,D*20
$GPGGA,123248.80,4612.1769187,N,00607.5727342,E,4,06,1.4,368.632,M,49.481,M,1.19,0195*79
$GPVTG,185.2821,T,185.2821,M,2.075,N,3.846,K,D*2F
$RDENS,917,4516746,PC
$GPGGA,123249.20,4612.1766874,N,00607.5727041,E,4,06,1.4,368.631,M,49.481,M,0.15,0195*76
$GPVTG,184.9519,T,184.9519,M,2.096,N,3.884,K,D*2C
$GPGGA,123249.40,4612.1765682,N,00607.5726865,E,4,06,1.4,368.628,M,49.481,M,0.35,0195*71
$GPVTG,185.4787,T,185.4787,M,2.123,N,3.935,K,D*28
$GPGGA,123249.80,4612.1763349,N,00607.5726544,E,4,06,1.4,368.633,M,49.481,M,0.75,0195*79
$GPVTG,185.3568,T,185.3568,M,2.112,N,3.914,K,D*29
$RDENS,918,4516833,PC
$GPGGA,123250.00,4612.1762143,N,00607.5726406,E,4,06,1.4,368.635,M,49.481,M,0.95,0195*7F
$GPVTG,184.0743,T,184.0743,M,2.185,N,4.049,K,D*21
$GPGGA,123250.40,4612.1759726,N,00607.5726136,E,4,06,1.4,368.641,M,49.481,M,1.35,0195*78
$GPVTG,184.6922,T,184.6922,M,2.196,N,4.070,K,D*29
$GPGGA,123250.60,4612.1758497,N,00607.5726002,E,4,06,1.4,368.638,M,49.481,M,1.55,0195*7C
$GPVTG,183.7212,T,183.7212,M,2.208,N,4.092,K,D*21
$RDENS,919,4516921,PC
$GPGGA,123251.00,4612.1756034,N,00607.5725739,E,4,06,1.4,368.646,M,49.481,M,0.12,0195*7F
$GPVTG,184.4363,T,184.4363,M,2.237,N,4.147,K,D*24
$GPGGA,123251.20,4612.1754806,N,00607.5725601,E,4,06,1.4,368.637,M,49.481,M,0.32,0195*78
$GPVTG,185.4414,T,185.4414,M,2.215,N,4.106,K,D*21
$GPGGA,123251.60,4612.1752342,N,00607.5725231,E,4,06,1.4,368.614,M,49.481,M,0.23,0195*77
$GPVTG,185.1778,T,185.1778,M,2.269,N,4.205,K,D*2A
$RDENS,920,4517009,PC
$GPGGA,123251.80,4612.1751126,N,00607.5725086,E,4,06,1.4,368.619,M,49.481,M,0.43,0195*7F
$GPVTG,185.9102,T,185.9102,M,2.276,N,4.218,K,D*28
$GPGGA,123252.20,4612.1748602,N,00607.5724682,E,4,06,1.4,368.591,M,49.481,M,0.23,0195*79
$GPVTG,186.1937,T,186.1937,M,2.264,N,4.196,K,D*2E
$GPGGA,123252.40,4612.1747341,N,00607.5724458,E,4,06,1.4,368.598,M,49.481,M,0.43,0195*78
$GPVTG,187.0435,T,187.0435,M,2.292,N,4.248,K,D*27
$RDENS,921,4517098,PC
$GPGGA,123252.60,4612.1746052,N,00607.5724238,E,4,06,1.4,368.600,M,49.481,M,0.63,0195*7A
$GPVTG,187.5032,T,187.5032,M,2.328,N,4.314,K,D*2F
$GPGGA,123253.00,4612.1743512,N,00607.5723757,E,4,06,1.4,368.613,M,49.481,M,1.03,0195*77
$GPVTG,187.1656,T,187.1656,M,2.325,N,4.308,K,D*2F
$GPGGA,123253.20,4612.1742222,N,00607.5723492,E,4,06,1.4,368.605,M,49.481,M,1.23,0195*7F
$GPVTG,188.2608,T,188.2608,M,2.369,N,4.390,K,D*26
$RDENS,922,4517185,PC
$GPGGA,123253.60,4612.1739639,N,00607.5722904,E,4,06,1.4,368.589,M,49.481,M,1.63,0195*79
$GPVTG,190.0125,T,190.0125,M,2.325,N,4.310,K,D*26
$GPGGA,123253.80,4612.1738329,N,00607.5722596,E,4,06,1.4,368.580,M,49.481,M,0.09,0195*71
$GPVTG,189.8982,T,189.8982,M,2.418,N,4.482,K,D*23
$GPGGA,123254.20,4612.1735735,N,00607.5721952,E,4,06,1.4,368.593,M,49.481,M,0.49,0195*79
$GPVTG,189.3520,T,189.3520,M,2.349,N,4.353,K,D*2B
$RDENS,923,4517274,PC
$GPGGA,123254.40,4612.1734415,N,00607.5721623,E,4,06,1.4,368.607,M,49.481,M,0.69,0195*7A
$GPVTG,191.2184,T,191.2184,M,2.397,N,4.442,K,D*2F
$GPGGA,123254.80,4612.1731806,N,00607.5720909,E,4,06,1.4,368.619,M,49.481,M,1.09,0195*73
$GPVTG,190.1504,T,190.1504,M,2.402,N,4.452,K,D*25
$GPGGA,123255.00,4612.1730485,N,00607.5720549,E,4,06,1.4,368.612,M,49.481,M,1.29,0195*7D
$GPVTG,191.5403,T,191.5403,M,2.384,N,4.419,K,D*23
$RDENS,924,4517362,PC
$GPGGA,123255.40,4612.1727900,N,00607.5719783,E,4,06,1.4,368.599,M,49.481,M,0.13,0195*79
$GPVTG,191.0736,T,191.0736,M,2.371,N,4.394,K,D*2B
$GPGGA,123255.60,4612.1726595,N,00607.5719361,E,4,06,1.4,368.592,M,49.481,M,0.33,0195*7B
$GPVTG,193.2597,T,193.2597,M,2.374,N,4.399,K,D*23
$GPGGA,123256.00,4612.1724035,N,00607.5718500,E,4,06,1.4,368.585,M,49.480,M,0.07,0195*73
$GPVTG,192.7105,T,192.7105,M,2.352,N,4.358,K,D*2A
$RDENS,925,4517450,PC
$GPGGA,123256.20,4612.1722735,N,00607.5718134,E,4,06,1.4,368.601,M,49.480,M,0.27,0195*7E
$GPVTG,193.8980,T,193.8980,M,2.305,N,4.271,K,D*22
$GPGGA,123256.60,4612.1720246,N,00607.5717274,E,4,06,1.4,368.599,M,49.480,M,0.67,0195*77
$GPVTG,192.9521,T,192.9521,M,2.334,N,4.326,K,D*23
$GPGGA,123256.80,4612.1718984,N,00607.5716882,E,4,06,1.4,368.613,M,49.480,M,0.87,0195*7A
$GPVTG,192.5261,T,192.5261,M,2.376,N,4.404,K,D*22
$RDENS,926,4517537,PC
$GPGGA,123257.00,4612.1717690,N,00607.5716475,E,4,06,1.4,368.626,M,49.480,M,1.07,0195*7D
$GPVTG,191.7364,T,191.7364,M,2.350,N,4.355,K,D*25
$GPGGA,123257.40,4612.1715145,N,00607.5715691,E,4,06,1.4,368.631,M,49.480,M,1.47,0195*7D
$GPVTG,192.7402,T,192.7402,M,2.333,N,4.324,K,D*26
$GPGGA,123257.60,4612.1713895,N,00607.5715312,E,4,06,1.4,368.639,M,49.480,M,1.67,0195*79
$GPVTG,192.6886,T,192.6886,M,2.261,N,4.190,K,D*2D
$RDENS,927,4517625,PC
$GPGGA,123258.00,4612.1711424,N,00607.5714598,E,4,06,1.4,368.626,M,49.480,M,2.07,0195*7A
$GPVTG,190.0471,T,190.0471,M,2.294,N,4.252,K,D*2A
$GPGGA,123258.20,4612.1710181,N,00607.5714233,E,4,06,1.4,368.628,M,49.480,M,2.27,0195*79
$GPVTG,191.1852,T,191.1852,M,2.246,N,4.163,K,D*24
$GPGGA,123258.60,4612.1707718,N,00607.5713527,E,4,06,1.4,368.633,M,49.480,M,0.11,0195*75
$GPVTG,190.2280,T,190.2280,M,2.287,N,4.238,K,D*24
$RDENS,928,4517713,PC
$GPGGA,123258.80,4612.1706532,N,00607.5713166,E,4,06,1.4,368.625,M,49.480,M,0.31,0195*74
$GPVTG,189.3917,T,189.3917,M,2.250,N,4.171,K,D*20
$GPGGA,123259.20,4612.1704080,N,00607.5712589,E,4,06,1.4,368.636,M,49.480,M,0.71,0195*73
$GPVTG,189.5478,T,189.5478,M,2.224,N,4.121,K,D*26
$GPGGA,123259.40,4612.1702860,N,00607.5712277,E,4,06,1.4,368.634,M,49.480,M,0.91,0195*7F
$GPVTG,189.6969,T,189.6969,M,2.185,N,4.049,K,D*21
$RDENS,929,4517801,PC
$GPGGA,123259.80,4612.1700515,N,00607.5711706,E,4,06,1.4,368.628,M,49.480,M,1.31,0195*78
$GPVTG,189.2244,T,189.2244,M,2.122,N,3.933,K,D*2F
$GPGGA,123300.00,4612.1699348,N,00607.5711403,E,4,06,1.4,368.623,M,49.480,M,1.51,0195*79
$GPVTG,188.3093,T,188.3093,M,2.065,N,3.827,K,D*29
$GPGGA,123300.40,4612.1697063,N,00607.5710907,E,4,06,1.4,368.631,M,49.480,M,1.91,0195*7E
$GPVTG,189.1097,T,189.1097,M,2.084,N,3.862,K,D*27
$RDENS,930,4517889,PC
$GPVTG,188.7426,T,188.7426,M,2.045,N,3.790,K,D*28
$GPGGA,123300.80,4612.1694810,N,00607.5710386,E,4,06,1.4,368.622,M,49.480,M,0.32,0195*74
$GPVTG,189.7582,T,189.7582,M,1.943,N,3.601,K,D*2D
$GPGGA,123301.00,4612.1693736,N,00607.5710142,E,4,06,1.4,368.619,M,49.480,M,0.52,0195*75
$GPVTG,189.1320,T,189.1320,M,1.971,N,3.652,K,D*2A
$GPGGA,123301.40,4612.1691576,N,00607.5709648,E,4,06,1.4,368.613,M,49.480,M,0.07,0195*7A
$RDENS,931,4517977,PC
$GPVTG,190.1431,T,190.1431,M,1.920,N,3.559,K,D*26
$GPGGA,123301.60,4612.1690515,N,00607.5709434,E,4,06,1.4,368.599,M,49.480,M,0.05,0195*76
$GPVTG,186.0909,T,186.0909,M,1.916,N,3.551,K,D*2B
$GPGGA,123302.00,4612.1688448,N,00607.5709035,E,4,06,1.4,368.602,M,49.480,M,0.35,0195*74
$GPVTG,188.1143,T,188.1143,M,1.862,N,3.451,K,D*28
$GPGGA,123302.20,4612.1687414,N,00607.5708899,E,4,06,1.4,368.600,M,49.480,M,0.55,0195*7B
$RDENS,932,4518065,PC
$GPVTG,187.2512,T,187.2512,M,1.829,N,3.390,K,D*2D
$GPGGA,123302.60,4612.1685384,N,00607.5708581,E,4,06,1.4,368.590,M,49.480,M,0.15,0195*79
$GPVTG,183.3191,T,183.3191,M,1.857,N,3.442,K,D*2C
$GPGGA,123302.80,4612.1684385,N,00607.5708472,E,4,06,1.4,368.593,M,49.480,M,0.35,0195*7B
$GPVTG,184.8475,T,184.8475,M,1.815,N,3.364,K,D*29
$RDENS,933,4518153,PC
$GPGGA,123303.20,4612.1682394,N,00607.5708330,E,4,06,1.4,368.613,M,49.480,M,0.75,0195*78
$GPVTG,181.5614,T,181.5614,M,1.769,N,3.279,K,D*20
$GPGGA,123303.40,4612.1681479,N,00607.5708269,E,4,06,1.4,368.606,M,49.480,M,0.95,0195*7E
$GPVTG,182.4557,T,182.4557,M,1.769,N,3.278,K,D*21
$GPGGA,123303.80,4612.1679557,N,00607.5708155,E,4,06,1.4,368.600,M,49.480,M,1.35,0195*79
$GPVTG,182.7139,T,182.7139,M,1.681,N,3.116,K,D*2D
$RDENS,934,4518241,PC
$GPGGA,123304.00,4612.1678593,N,00607.5708137,E,4,06,1.4,368.622,M,49.480,M,1.55,0195*7D
$GPVTG,182.3546,T,182.3546,M,1.620,N,3.003,K,D*23
$GPGGA,123304.40,4612.1676758,N,00607.5708093,E,4,06,1.4,368.618,M,49.480,M,1.95,0195*78
$GPVTG,180.6081,T,180.6081,M,1.675,N,3.104,K,D*25
$GPGGA,123304.60,4612.1675833,N,00607.5708075,E,4,06,1.4,368.607,M,49.480,M,2.15,0195*76
$GPVTG,179.0647,T,179.0647,M,1.695,N,3.142,K,D*29
$RDENS,935,4518329,PC
$GPGGA,123304.80,4612.1674917,N,00607.5708067,E,4,06,1.4,368.609,M,49.480,M,0.14,0195*70
$GPVTG,180.8531,T,180.8531,M,1.619,N,3.000,K,D*2A
$GPGGA,123305.20,4612.1673103,N,00607.5708106,E,4,06,1.4,368.587,M,49.480,M,0.26,0195*73
$GPVTG,177.4245,T,177.4245,M,1.663,N,3.083,K,D*2C
$GPGGA,123305.40,4612.1672176,N,00607.5708140,E,4,06,1.4,368.595,M,49.480,M,0.14,0195*76
$GPVTG,176.4921,T,176.4921,M,1.661,N,3.077,K,D*25
$RDENS,936,4518417,PC
$GPGGA,123305.80,4612.1670386,N,00607.5708236,E,4,06,1.4,368.581,M,49.480,M,0.26,0195*73
$GPVTG,179.4367,T,179.4367,M,1.545,N,2.863,K,D*2C
$GPGGA,123306.00,4612.1669484,N,00607.5708323,E,4,06,1.4,368.603,M,49.480,M,0.46,0195*7F
$GPVTG,178.6820,T,178.6820,M,1.592,N,2.950,K,D*27
$GPGGA,123306.40,4612.1667729,N,00607.5708393,E,4,06,1.4,368.590,M,49.480,M,0.86,0195*7F
$GPVTG,177.4785,T,177.4785,M,1.620,N,3.002,K,D*22
$RDENS,937,4518505,PC
$GPGGA,123306.60,4612.1666886,N,00607.5708464,E,4,06,1.4,368.582,M,49.480,M,1.06,0195*73
$GPVTG,182.4744,T,182.4744,M,1.473,N,2.729,K,D*29
$GPGGA,123307.00,4612.1665143,N,00607.5708620,E,4,06,1.4,368.576,M,49.480,M,0.05,0195*7C
$GPVTG,176.5477,T,176.5477,M,1.574,N,2.918,K,D*23
$GPGGA,123307.20,4612.1664278,N,00607.5708680,E,4,06,1.4,368.581,M,49.480,M,0.15,0195*77
$GPVTG,174.3553,T,174.3553,M,1.578,N,2.925,K,D*21
$RDENS,938,4518593,PC
$GPGGA,123307.60,4612.1662559,N,00607.5708881,E,4,06,1.4,368.584,M,49.480,M,0.03,0195*7C
$GPVTG,176.1721,T,176.1721,M,1.549,N,2.871,K,D*23
$GPGGA,123307.80,4612.1661706,N,00607.5708958,E,4,06,1.4,368.574,M,49.480,M,0.23,0195*71
$GPVTG,176.0123,T,176.0123,M,1.540,N,2.854,K,D*2D
$GPGGA,123308.20,4612.1660009,N,00607.5709126,E,4,06,1.4,368.577,M,49.480,M,0.63,0195*7A
$GPVTG,176.3961,T,176.3961,M,1.499,N,2.778,K,D*29
$RDENS,939,4518681,PC
$GPGGA,123308.40,4612.1659146,N,00607.5709216,E,4,06,1.4,368.573,M,49.480,M,0.83,0195*76
$GPVTG,174.7265,T,174.7265,M,1.506,N,2.792,K,D*2A
$GPGGA,123308.80,4612.1657473,N,00607.5709417,E,4,06,1.4,368.578,M,49.480,M,1.23,0195*70
$GPVTG,175.7588,T,175.7588,M,1.515,N,2.807,K,D*2B
$GPGGA,123309.00,4612.1656640,N,00607.5709503,E,4,06,1.4,368.568,M,49.480,M,1.43,0195*79
$GPVTG,175.5990,T,175.5990,M,1.509,N,2.797,K,D*20
$RDENS,940,4518769,PC
$GPGGA,123309.40,4612.1654940,N,00607.5709708,E,4,06,1.4,368.569,M,49.480,M,0.16,0195*79
$GPVTG,174.3312,T,174.3312,M,1.546,N,2.864,K,D*28
$GPGGA,123309.60,4612.1654126,N,00607.5709826,E,4,06,1.4,368.572,M,49.480,M,0.04,0195*79
$GPVTG,176.0123,T,176.0123,M,1.441,N,2.670,K,D*25
$GPGGA,123309.80,4612.1653323,N,00607.5709896,E,4,06,1.4,368.562,M,49.480,M,0.16,0195*7E
$GPVTG,175.3965,T,175.3965,M,1.458,N,2.703,K,D*28
$RDENS,941,4518858,PC
$GPGGA,123310.20,4612.1651688,N,00607.5710092,E,4,06,1.4,368.564,M,49.480,M,0.56,0195*7C
$GPVTG,175.5379,T,175.5379,M,1.477,N,2.737,K,D*22
$GPGGA,123310.40,4612.1650886,N,00607.5710202,E,4,06,1.4,368.572,M,49.480,M,0.76,0195*75
$GPVTG,176.0574,T,176.0574,M,1.417,N,2.627,K,D*24
$GPGGA,123310.80,4612.1649324,N,00607.5710343,E,4,06,1.4,368.535,M,49.480,M,1.16,0195*72
$GPVTG,177.1832,T,177.1832,M,1.373,N,2.545,K,D*26
$RDENS,942,4518945,PC
$GPGGA,123311.00,4612.1648541,N,00607.5710469,E,4,06,1.4,368.540,M,49.480,M,1.36,0195*70
$GPVTG,176.4152,T,176.4152,M,1.400,N,2.595,K,D*28
$GPGGA,123311.40,4612.1646982,N,00607.5710661,E,4,06,1.4,368.543,M,49.480,M,1.76,0195*74
$GPVTG,173.9878,T,173.9878,M,1.429,N,2.648,K,D*20
$GPGGA,123311.60,4612.1646208,N,00607.5710784,E,4,06,1.4,368.542,M,49.480,M,0.06,0195*72
$GPVTG,172.0500,T,172.0500,M,1.423,N,2.636,K,D*23
$RDENS,943,4519033,PC
$GPGGA,123312.00,4612.1644665,N,00607.5711076,E,4,06,1.4,368.551,M,49.480,M,0.46,0195*77
$GPVTG,173.5792,T,173.5792,M,1.313,N,2.434,K,D*27
$GPGGA,123312.20,4612.1643909,N,00607.5711221,E,4,06,1.4,368.551,M,49.480,M,0.66,0195*75
$GPVTG,171.0277,T,171.0277,M,1.337,N,2.478,K,D*29
$GPGGA,123312.60,4612.1642440,N,00607.5711497,E,4,06,1.4,368.550,M,49.480,M,0.03,0195*79
$GPVTG,173.5413,T,173.5413,M,1.319,N,2.445,K,D*2B
$RDENS,944,4519122,PC
$GPGGA,123312.80,4612.1641726,N,00607.5711651,E,4,06,1.4,368.556,M,49.480,M,0.23,0195*7B
$GPVTG,173.6212,T,173.6212,M,1.330,N,2.464,K,D*23
$GPGGA,123313.20,4612.1640292,N,00607.5711877,E,4,06,1.4,368.548,M,49.480,M,0.63,0195*7A
$GPVTG,173.6688,T,173.6688,M,1.272,N,2.357,K,D*23
$GPGGA,123313.40,4612.1639600,N,00607.5712081,E,4,06,1.4,368.555,M,49.480,M,0.83,0195*7D
$GPVTG,171.9523,T,171.9523,M,1.230,N,2.279,K,D*28
$RDENS,945,4519210,PC
$GPGGA,123313.80,4612.1638233,N,00607.5712379,E,4,06,1.4,368.544,M,49.480,M,1.23,0195*7B
$GPVTG,170.6522,T,170.6522,M,1.286,N,2.382,K,D*20
$GPGGA,123314.00,4612.1637559,N,00607.5712587,E,4,06,1.4,368.539,M,49.480,M,1.43,0195*7B
$GPVTG,167.7834,T,167.7834,M,1.179,N,2.185,K,D*26
$GPGGA,123314.40,4612.1636248,N,00607.5712978,E,4,06,1.4,368.543,M,49.480,M,0.20,0195*7C
$GPVTG,167.2639,T,167.2639,M,1.239,N,2.296,K,D*20
$RDENS,946,4519297,PC
$GPGGA,123314.60,4612.1635592,N,00607.5713203,E,4,06,1.4,368.543,M,49.480,M,0.40,0195*7D
$GPVTG,165.0731,T,165.0731,M,1.254,N,2.324,K,D*23
$GPGGA,123314.80,4612.1634937,N,00607.5713451,E,4,06,1.4,368.547,M,49.480,M,0.60,0195*76
$GPVTG,165.4574,T,165.4574,M,1.221,N,2.264,K,D*24
$GPGGA,123315.20,4612.1633656,N,00607.5713955,E,4,06,1.4,368.547,M,49.480,M,1.00,0195*7C
$GPVTG,162.1692,T,162.1692,M,1.202,N,2.228,K,D*2D
$RDENS,947,4519386,PC
$GPGGA,123315.40,4612.1633007,N,00607.5714223,E,4,06,1.4,368.545,M,49.480,M,1.20,0195*75
$GPVTG,163.8537,T,163.8537,M,1.174,N,2.177,K,D*26
$GPGGA,123315.80,4612.1631713,N,00607.5714811,E,4,06,1.4,368.544,M,49.480,M,1.60,0195*77
$GPVTG,160.0971,T,160.0971,M,1.207,N,2.237,K,D*26
$GPGGA,123316.00,4612.1631075,N,00607.5715107,E,4,06,1.4,368.540,M,49.480,M,1.80,0195*7E
$GPVTG,160.7816,T,160.7816,M,1.246,N,2.310,K,D*27
$RDENS,948,4519473,PC
$GPGGA,123316.40,4612.1629756,N,00607.5715734,E,4,06,1.4,368.553,M,49.480,M,2.20,0195*78
$GPVTG,161.4226,T,161.4226,M,1.281,N,2.373,K,D*29
$GPGGA,123316.60,4612.1629133,N,00607.5716045,E,4,06,1.4,368.553,M,49.480,M,2.40,0195*7B
$GPVTG,160.0797,T,160.0797,M,1.202,N,2.228,K,D*2D
$GPGGA,123317.00,4612.1627829,N,00607.5716671,E,4,06,1.4,368.551,M,49.480,M,2.80,0195*7F
$GPVTG,161.3081,T,161.3081,M,1.229,N,2.278,K,D*21
$RDENS,949,4519561,PC
$GPGGA,123317.20,4612.1627157,N,00607.5716974,E,4,06,1.4,368.533,M,49.480,M,3.00,0195*7A
$GPVTG,159.7848,T,159.7848,M,1.323,N,2.452,K,D*24
$GPGGA,123317.60,4612.1625844,N,00607.5717638,E,4,06,1.4,368.539,M,49.480,M,3.40,0195*7F
$GPVTG,161.9784,T,161.9784,M,1.317,N,2.440,K,D*20
$GPGGA,123317.80,4612.1625134,N,00607.5717943,E,4,06,1.4,368.547,M,49.480,M,3.60,0195*77
$GPVTG,160.6615,T,160.6615,M,1.311,N,2.429,K,D*29
$RDENS,950,4519649,PC
$GPGGA,123318.20,4612.1623779,N,00607.5718554,E,4,06,1.4,368.545,M,49.480,M,4.00,0195*7D
$GPVTG,162.5599,T,162.5599,M,1.264,N,2.342,K,D*20
$GPGGA,123318.40,4612.1623060,N,00607.5718832,E,4,06,1.4,368.545,M,49.480,M,4.20,0195*7B
$GPVTG,163.4301,T,163.4301,M,1.355,N,2.510,K,D*22
$GPGGA,123318.80,4612.1621588,N,00607.5719473,E,4,06,1.4,368.554,M,49.480,M,4.60,0195*7A
$GPVTG,162.9747,T,162.9747,M,1.388,N,2.572,K,D*26
$RDENS,951,4519737,PC
$GPGGA,123319.00,4612.1620841,N,00607.5719739,E,4,06,1.4,368.562,M,49.480,M,4.80,0195*7C
$GPVTG,163.4868,T,163.4868,M,1.414,N,2.621,K,D*21
$GPGGA,123319.20,4612.1620107,N,00607.5720002,E,4,06,1.4,368.560,M,49.480,M,5.00,0195*7B
$GPVTG,164.8513,T,164.8513,M,1.419,N,2.630,K,D*2C
$GPGGA,123319.60,4612.1618627,N,00607.5720578,E,4,06,1.4,368.556,M,49.480,M,5.40,0195*78
$GPVTG,163.5927,T,163.5927,M,1.417,N,2.627,K,D*24
$RDENS,952,4519825,PC
$GPGGA,123319.80,4612.1617829,N,00607.5720877,E,4,06,1.4,368.568,M,49.480,M,5.60,0195*74
$GPVTG,161.3210,T,161.3210,M,1.474,N,2.732,K,D*24
$GPGGA,123320.20,4612.1616276,N,00607.5721410,E,4,06,1.4,368.555,M,49.480,M,6.00,0195*72
$GPVTG,168.4862,T,168.4862,M,1.427,N,2.645,K,D*23
$GPGGA,123320.40,4612.1615517,N,00607.5721719,E,4,06,1.4,368.562,M,49.480,M,6.20,0195*7B
$GPVTG,166.1189,T,166.1189,M,1.399,N,2.593,K,D*29
$RDENS,953,4519913,PC
$GPGGA,123320.80,4612.1613978,N,00607.5722219,E,4,06,1.4,368.569,M,49.480,M,6.60,0195*7D
$GPVTG,170.2669,T,170.2669,M,1.417,N,2.627,K,D*24
$GPGGA,123321.00,4612.1613250,N,00607.5722462,E,4,06,1.4,368.553,M,49.480,M,6.80,0195*78
$GPVTG,170.6240,T,170.6240,M,1.413,N,2.618,K,D*2C
$GPGGA,123321.40,4612.1611632,N,00607.5722931,E,4,06,1.4,368.557,M,49.480,M,7.20,0195*7A
$GPVTG,168.6517,T,168.6517,M,1.480,N,2.744,K,D*2E
$RDENS,954,4520001,PC
$GPGGA,123321.60,4612.1610834,N,00607.5723144,E,4,06,1.4,368.557,M,49.480,M,7.40,0195*7C
$GPVTG,165.2056,T,165.2056,M,1.401,N,2.597,K,D*2B
$GPGGA,123322.00,4612.1609397,N,00607.5723638,E,4,06,1.4,368.535,M,49.480,M,7.80,0195*77
$GPVTG,167.0930,T,167.0930,M,1.336,N,2.476,K,D*26
$GPGGA,123322.20,4612.1608655,N,00607.5723873,E,4,06,1.4,368.532,M,49.480,M,8.00,0195*7E
$GPVTG,167.0304,T,167.0304,M,1.439,N,2.666,K,D*2D
$RDENS,955,4520089,PC
$GPGGA,123322.60,4612.1607141,N,00607.5724312,E,4,06,1.4,368.555,M,49.480,M,8.40,0195*79
$GPVTG,166.7604,T,166.7604,M,1.378,N,2.554,K,D*2D
$GPVTG,167.3271,T,167.3271,M,1.305,N,2.419,K,D*2F
$GPGGA,123323.00,4612.1605645,N,00607.5724831,E,4,06,1.4,368.572,M,49.480,M,8.80,0195*7C
$GPVTG,166.1565,T,166.1565,M,1.339,N,2.482,K,D*22
$GPGGA,123323.20,4612.1604906,N,00607.5725087,E,4,06,1.4,368.573,M,49.480,M,9.00,0195*7B
$RDENS,956,4520177,PC
$GPVTG,165.0179,T,165.0179,M,1.406,N,2.606,K,D*27
$GPGGA,123323.60,4612.1603407,N,00607.5725671,E,4,06,1.4,368.574,M,49.480,M,9.40,0195*78
$GPVTG,164.3642,T,164.3642,M,1.388,N,2.572,K,D*26
$GPGGA,123323.80,4612.1602717,N,00607.5726042,E,4,06,1.4,368.572,M,49.480,M,9.60,0195*74
$GPVTG,163.6568,T,163.6568,M,1.381,N,2.558,K,D*27
$GPGGA,123324.20,4612.1601277,N,00607.5726693,E,4,06,1.4,368.564,M,49.480,M,10.00,0195*4A
$RDENS,957,4520266,PC
$GPVTG,161.2035,T,161.2035,M,1.283,N,2.378,K,D*20
$GPGGA,123324.40,4612.1600561,N,00607.5727070,E,4,06,1.4,368.581,M,49.480,M,10.20,0195*4E
$GPVTG,160.1402,T,160.1402,M,1.375,N,2.548,K,D*2D
$GPGGA,123324.80,4612.1599120,N,00607.5727846,E,4,06,1.4,368.602,M,49.480,M,10.60,0195*41
$GPVTG,161.4447,T,161.4447,M,1.377,N,2.553,K,D*25
$GPGGA,123325.00,4612.1598402,N,00607.5728174,E,4,06,1.4,368.609,M,49.480,M,0.01,0195*76
$RDENS,958,4520354,PC
$GPVTG,159.0339,T,159.0339,M,1.365,N,2.530,K,D*23
$GPGGA,123325.40,4612.1596937,N,00607.5728978,E,4,06,1.4,368.618,M,49.480,M,0.39,0195*78
$GPVTG,159.8120,T,159.8120,M,1.410,N,2.614,K,D*23
$GPGGA,123325.60,4612.1596192,N,00607.5729415,E,4,06,1.4,368.618,M,49.480,M,0.59,0195*7C
$GPVTG,158.9517,T,158.9517,M,1.405,N,2.605,K,D*27
$GPGGA,123326.00,4612.1594768,N,00607.5730154,E,4,06,1.4,368.572,M,49.480,M,0.99,0195*73
$RDENS,959,4520442,PC
$GPVTG,158.1199,T,158.1199,M,1.442,N,2.672,K,D*24
$GPGGA,123326.20,4612.1593970,N,00607.5730561,E,4,06,1.4,368.592,M,49.480,M,1.19,0195*74
$GPVTG,157.1937,T,157.1937,M,1.501,N,2.782,K,D*2C
$GPGGA,123326.60,4612.1592488,N,00607.5731478,E,4,06,1.4,368.596,M,49.480,M,1.59,0195*73
$GPVTG,156.0357,T,156.0357,M,1.454,N,2.694,K,D*2B
$GPGGA,123326.80,4612.1591688,N,00607.5731897,E,4,06,1.4,368.599,M,49.480,M,1.79,0195*7C
$RDENS,960,4520530,PC
$GPVTG,159.1582,T,159.1582,M,1.517,N,2.811,K,D*2E
$GPGGA,123327.20,4612.1590104,N,00607.5732782,E,4,06,1.4,368.614,M,49.480,M,2.19,0195*7E
$GPVTG,158.5264,T,158.5264,M,1.546,N,2.866,K,D*2A
$GPGGA,123327.40,4612.1589268,N,00607.5733224,E,4,06,1.4,368.621,M,49.480,M,2.39,0195*75
$GPVTG,161.0767,T,161.0767,M,1.631,N,3.022,K,D*20
$GPGGA,123327.80,4612.1587549,N,00607.5734040,E,4,06,1.4,368.623,M,49.480,M,2.79,0195*72
$RDENS,961,4520618,PC
$GPVTG,162.7686,T,162.7686,M,1.602,N,2.969,K,D*27
$GPGGA,123328.00,4612.1586718,N,00607.5734434,E,4,06,1.4,368.609,M,49.480,M,2.99,0195*73
$GPVTG,163.7110,T,163.7110,M,1.683,N,3.120,K,D*2A
$GPGGA,123328.20,4612.1585814,N,00607.5734843,E,4,06,1.4,368.607,M,49.480,M,3.19,0195*7A
$GPVTG,162.5147,T,162.5147,M,1.674,N,3.103,K,D*23
$GPGGA,123328.60,4612.1584057,N,00607.5735641,E,4,06,1.4,368.612,M,49.480,M,3.59,0195*7D
$RDENS,962,4520706,PC
$GPVTG,163.6867,T,163.6867,M,1.732,N,3.211,K,D*20
$GPGGA,123328.80,4612.1583166,N,00607.5735945,E,4,06,1.4,368.608,M,49.480,M,3.79,0195*75
$GPVTG,165.9256,T,165.9256,M,1.721,N,3.189,K,D*20
$GPGGA,123329.20,4612.1581271,N,00607.5736649,E,4,06,1.4,368.656,M,49.480,M,4.19,0195*73
$GPVTG,168.4837,T,168.4837,M,1.656,N,3.068,K,D*2F
$GPGGA,123329.40,4612.1580367,N,00607.5736924,E,4,06,1.4,368.651,M,49.480,M,4.39,0195*73
$RDENS,963,4520794,PC
$GPVTG,171.7610,T,171.7610,M,1.776,N,3.292,K,D*2B
$GPGGA,123329.80,4612.1578485,N,00607.5737446,E,4,06,1.4,368.655,M,49.480,M,4.79,0195*7B
$GPVTG,168.2421,T,168.2421,M,1.647,N,3.053,K,D*27
$GPGGA,123330.00,4612.1577528,N,00607.5737790,E,4,06,1.4,368.664,M,49.480,M,4.99,0195*76
$GPVTG,169.4392,T,169.4392,M,1.740,N,3.224,K,D*23
$GPGGA,123330.40,4612.1575690,N,00607.5738232,E,4,06,1.4,368.640,M,49.480,M,5.39,0195*7F
$RDENS,964,4520882,PC
$GPVTG,169.6937,T,169.6937,M,1.745,N,3.235,K,D*26
$GPGGA,123330.60,4612.1574724,N,00607.5738494,E,4,06,1.4,368.646,M,49.480,M,5.59,0195*78
$GPVTG,170.0834,T,170.0834,M,1.728,N,3.201,K,D*2A
$GPGGA,123331.00,4612.1572832,N,00607.5738980,E,4,06,1.4,368.657,M,49.480,M,5.99,0195*75
$GPVTG,173.0853,T,173.0853,M,1.693,N,3.138,K,D*22
$GPGGA,123331.20,4612.1571892,N,00607.5739245,E,4,06,1.4,368.664,M,49.480,M,6.19,0195*76
$RDENS,965,4520970,PC
$GPVTG,165.8863,T,165.8863,M,1.757,N,3.255,K,D*23
$GPGGA,123331.60,4612.1570037,N,00607.5739760,E,4,06,1.4,368.668,M,49.480,M,6.59,0195*7E
$GPVTG,170.6948,T,170.6948,M,1.643,N,3.045,K,D*24
$GPGGA,123331.80,4612.1569075,N,00607.5740014,E,4,06,1.4,368.668,M,49.480,M,6.79,0195*76
$GPVTG,167.6635,T,167.6635,M,1.658,N,3.073,K,D*2B
$GPGGA,123332.20,4612.1567281,N,00607.5740472,E,2,06,1.4,368.665,M,49.480,M,7.19,0195*70
$RDENS,966,4521058,PC
$GPVTG,171.0620,T,171.0620,M,1.637,N,3.034,K,D*21
$GPGGA,123332.40,4612.1566364,N,00607.5740724,E,2,06,1.4,368.666,M,49.480,M,7.39,0195*7C
$GPVTG,170.5428,T,170.5428,M,1.632,N,3.024,K,D*25
$GPGGA,123332.60,4612.1565426,N,00607.5740956,E,4,06,1.4,368.674,M,49.480,M,0.02,0195*7D
$GPVTG,166.1910,T,166.1910,M,1.661,N,3.078,K,D*2A
$GPGGA,123333.00,4612.1563683,N,00607.5741539,E,4,06,1.4,368.659,M,49.480,M,0.42,0195*7E
$RDENS,967,4521145,PC
$GPVTG,166.5967,T,166.5967,M,1.648,N,3.055,K,D*2E
$GPGGA,123333.20,4612.1562794,N,00607.5741921,E,4,06,1.4,368.667,M,49.480,M,0.62,0195*70
$GPVTG,165.2170,T,165.2170,M,1.601,N,2.968,K,D*25
$GPGGA,123333.60,4612.1561111,N,00607.5742519,E,4,06,1.4,368.631,M,49.480,M,1.02,0195*7C
$GPVTG,165.0578,T,165.0578,M,1.580,N,2.927,K,D*24
$GPGGA,123333.80,4612.1560202,N,00607.5742942,E,4,06,1.4,368.669,M,49.480,M,1.22,0195*7F
$RDENS,968,4521233,PC
$GPVTG,163.9886,T,163.9886,M,1.574,N,2.918,K,D*23
$GPGGA,123334.20,4612.1558487,N,00607.5743684,E,4,06,1.4,368.656,M,49.480,M,1.62,0195*7E
$GPVTG,162.0193,T,162.0193,M,1.741,N,3.227,K,D*21
$GPGGA,123334.40,4612.1557627,N,00607.5744095,E,4,06,1.4,368.668,M,49.480,M,1.82,0195*7D
$GPVTG,160.7626,T,160.7626,M,1.622,N,3.005,K,D*27
$GPGGA,123334.80,4612.1555954,N,00607.5744940,E,4,06,1.4,368.652,M,49.480,M,2.22,0195*79
$RDENS,969,4521322,PC
$GPVTG,159.4694,T,159.4694,M,1.627,N,3.014,K,D*22
$GPGGA,123335.00,4612.1555089,N,00607.5745371,E,4,06,1.4,368.662,M,49.480,M,2.42,0195*75
$GPVTG,161.5617,T,161.5617,M,1.578,N,2.924,K,D*20
$GPGGA,123335.40,4612.1553445,N,00607.5746263,E,4,06,1.4,368.665,M,49.480,M,2.82,0195*79
$GPVTG,159.7393,T,159.7393,M,1.553,N,2.877,K,D*2E
$GPGGA,123335.60,4612.1552608,N,00607.5746732,E,4,06,1.4,368.681,M,49.480,M,3.02,0195*73
$RDENS,970,4521410,PC
$GPVTG,157.5943,T,157.5943,M,1.665,N,3.086,K,D*2F
$GPGGA,123336.00,4612.1550936,N,00607.5747691,E,4,06,1.4,368.700,M,49.480,M,3.42,0195*73
$GPVTG,160.9735,T,160.9735,M,1.556,N,2.884,K,D*27
$GPGGA,123336.20,4612.1550097,N,00607.5748156,E,2,06,1.4,368.697,M,49.480,M,3.62,0195*7B
$GPVTG,154.8858,T,154.8858,M,1.567,N,2.905,K,D*2D
$GPGGA,123336.60,4612.1548476,N,00607.5749161,E,2,06,1.4,368.706,M,49.480,M,4.02,0195*70
$RDENS,971,4521498,PC
$GPVTG,158.0407,T,158.0407,M,1.542,N,2.858,K,D*23
$GPGGA,123336.80,4612.1547710,N,00607.5749657,E,2,06,1.4,368.686,M,49.480,M,4.22,0195*7B
$GPVTG,156.0579,T,156.0579,M,1.592,N,2.950,K,D*27
$GPGGA,123337.00,4612.1546905,N,00607.5750158,E,2,06,1.4,368.685,M,49.480,M,4.42,0195*7C
$GPVTG,156.3592,T,156.3592,M,1.565,N,2.900,K,D*2A
$GPGGA,123337.40,4612.1545323,N,00607.5751241,E,2,06,1.4,368.688,M,49.480,M,4.82,0195*7E
$RDENS,972,4521586,PC
$GPVTG,153.2590,T,153.2590,M,1.580,N,2.929,K,D*2A
$GPGGA,123337.60,4612.1544526,N,00607.5751745,E,2,06,1.4,368.691,M,49.480,M,5.02,0195*7E
$GPVTG,158.2042,T,158.2042,M,1.441,N,2.671,K,D*24
$GPGGA,123338.00,4612.1543042,N,00607.5752801,E,2,06,1.4,368.681,M,49.480,M,5.42,0195*7E
$GPVTG,151.3321,T,151.3321,M,1.546,N,2.865,K,D*29
$GPGGA,123338.20,4612.1542280,N,00607.5753421,E,2,06,1.4,368.692,M,49.480,M,5.62,0195*7E
$RDENS,973,4521674,PC
$GPVTG,152.8090,T,152.8090,M,1.510,N,2.799,K,D*26
$GPGGA,123338.60,4612.1540841,N,00607.5754539,E,2,06,1.4,368.680,M,49.480,M,6.02,0195*76
$GPVTG,146.5042,T,146.5042,M,1.498,N,2.776,K,D*26
$GPGGA,123338.80,4612.1540122,N,00607.5755145,E,2,06,1.4,368.688,M,49.480,M,6.22,0195*70
$GPVTG,150.1127,T,150.1127,M,1.472,N,2.728,K,D*29
$GPGGA,123339.20,4612.1538728,N,00607.5756315,E,2,06,1.4,368.681,M,49.480,M,6.62,0195*71
$RDENS,974,4521762,PC
$GPVTG,147.2401,T,147.2401,M,1.467,N,2.719,K,D*2F
$GPGGA,123339.40,4612.1538101,N,00607.5756911,E,2,06,1.4,368.661,M,49.480,M,6.82,0195*74
$GPVTG,143.5359,T,143.5359,M,1.415,N,2.623,K,D*22
$GPGGA,123339.80,4612.1536806,N,00607.5758282,E,2,06,1.4,368.683,M,49.480,M,7.22,0195*70
$GPVTG,142.3065,T,142.3065,M,1.490,N,2.762,K,D*2B
$GPGGA,123340.00,4612.1536142,N,00607.5758998,E,2,06,1.4,368.694,M,49.480,M,7.42,0195*7F
$RDENS,975,4521849,PC
$GPVTG,140.7856,T,140.7856,M,1.382,N,2.562,K,D*2D
$GPGGA,123340.40,4612.1534972,N,00607.5760474,E,2,06,1.4,368.708,M,49.480,M,7.82,0195*7E
$GPVTG,138.9571,T,138.9571,M,1.393,N,2.581,K,D*20
$GPGGA,123340.60,4612.1534427,N,00607.5761143,E,2,06,1.4,368.685,M,49.480,M,8.02,0195*72
$GPVTG,141.5235,T,141.5235,M,1.296,N,2.401,K,D*2D
$GPGGA,123341.00,4612.1533383,N,00607.5762526,E,2,06,1.4,368.683,M,49.480,M,8.42,0195*7D
$RDENS,976,4521937,PC
$GPVTG,136.8994,T,136.8994,M,1.215,N,2.252,K,D*26
$GPGGA,123341.20,4612.1532864,N,00607.5763222,E,2,06,1.4,368.692,M,49.480,M,8.62,0195*7C
$GPVTG,136.9815,T,136.9815,M,1.193,N,2.211,K,D*2C
$GPGGA,123341.60,4612.1531923,N,00607.5764462,E,2,06,1.4,368.709,M,49.480,M,9.02,0195*78
$GPVTG,136.0279,T,136.0279,M,1.092,N,2.024,K,D*28
$GPGGA,123341.80,4612.1531479,N,00607.5765040,E,2,06,1.4,368.703,M,49.480,M,9.22,0195*79
$RDENS,977,4522024,PC
$GPVTG,140.5727,T,140.5727,M,1.043,N,1.933,K,D*28
$GPGGA,123342.00,4612.1531050,N,00607.5765635,E,2,06,1.4,368.705,M,49.480,M,9.42,0195*79
$GPVTG,133.3361,T,133.3361,M,1.059,N,1.963,K,D*26
$GPGGA,123342.40,4612.1530189,N,00607.5766813,E,2,06,1.4,368.721,M,49.480,M,9.82,0195*7A
$GPVTG,137.0143,T,137.0143,M,1.061,N,1.965,K,D*2B
$GPGGA,123342.60,4612.1529814,N,00607.5767400,E,2,06,1.4,368.734,M,49.480,M,10.02,0195*46
$RDENS,978,4522111,PC
$GPVTG,138.9672,T,138.9672,M,0.909,N,1.684,K,D*2D
$GPGGA,123343.00,4612.1529123,N,00607.5768524,E,2,06,1.4,368.733,M,49.480,M,10.42,0195*47
$GPVTG,128.7570,T,128.7570,M,0.919,N,1.703,K,D*22
$GPGGA,123343.20,4612.1528818,N,00607.5769030,E,2,06,1.4,368.719,M,49.480,M,10.62,0195*4E
$GPVTG,128.9283,T,128.9283,M,0.862,N,1.598,K,D*2F
$RDENS,979,4522198,PC
$GPGGA,123343.60,4612.1528152,N,00607.5770194,E,2,06,1.4,368.777,M,49.480,M,11.02,0195*45
$GPVTG,130.7777,T,130.7777,M,0.816,N,1.512,K,D*2E
$GPGGA,123343.80,4612.1527866,N,00607.5770686,E,2,06,1.4,368.791,M,49.480,M,11.22,0195*44
$GPVTG,133.2359,T,133.2359,M,0.797,N,1.477,K,D*2A
$GPGGA,123344.20,4612.1527236,N,00607.5771622,E,2,06,1.4,368.807,M,49.480,M,11.62,0195*4D
$GPVTG,131.6308,T,131.6308,M,0.770,N,1.427,K,D*26
$RDENS,980,4522285,PC
$GPGGA,123344.40,4612.1526933,N,00607.5772111,E,2,06,1.4,368.831,M,49.480,M,11.82,0195*4B
$GPVTG,132.5513,T,132.5513,M,0.739,N,1.369,K,D*26
$GPGGA,123344.80,4612.1526430,N,00607.5772834,E,2,06,1.4,368.764,M,49.480,M,12.22,0195*41
$GPVTG,133.2279,T,133.2279,M,0.715,N,1.325,K,D*20
$GPVTG,128.3369,T,128.3369,M,0.790,N,1.464,K,D*2F
$GPGGA,123345.20,4612.1525953,N,00607.5773693,E,2,06,1.4,368.737,M,49.480,M,12.62,0195*41
$RDENS,981,4522371,PC
$GPVTG,132.5955,T,132.5955,M,0.637,N,1.181,K,D*2D
$GPGGA,123345.40,4612.1525704,N,00607.5774109,E,2,06,1.4,368.730,M,49.480,M,12.82,0195*41
$GPVTG,127.6750,T,127.6750,M,0.720,N,1.334,K,D*26
$GPGGA,123345.80,4612.1525230,N,00607.5774929,E,2,06,1.4,368.756,M,49.480,M,13.22,0195*4E
$GPVTG,134.2379,T,134.2379,M,0.588,N,1.090,K,D*2B
$GPGGA,123346.00,4612.1524969,N,00607.5775337,E,2,06,1.4,368.762,M,49.480,M,13.42,0195*46
$RDENS,982,4522457,PC
$GPVTG,138.6662,T,138.6662,M,0.565,N,1.046,K,D*23
$GPGGA,123346.40,4612.1524501,N,00607.5776087,E,2,06,1.4,368.781,M,49.480,M,13.82,0195*4A
$GPVTG,131.5475,T,131.5475,M,0.650,N,1.205,K,D*23
$GPGGA,123346.60,4612.1524276,N,00607.5776398,E,2,06,1.4,368.773,M,49.480,M,14.02,0195*40
$GPVTG,130.6473,T,130.6473,M,0.640,N,1.186,K,D*2A
$GPGGA,123347.00,4612.1523830,N,00607.5777068,E,2,06,1.4,368.753,M,49.480,M,14.42,0195*43
$RDENS,983,4522543,PC
$GPVTG,134.8119,T,134.8119,M,0.529,N,0.981,K,D*28
$GPGGA,123347.20,4612.1523587,N,00607.5777433,E,2,06,1.4,368.774,M,49.480,M,14.62,0195*4D
$GPVTG,142.1420,T,142.1420,M,0.521,N,0.965,K,D*2A
$GPGGA,123347.60,4612.1523122,N,00607.5778023,E,2,06,1.4,368.776,M,49.480,M,15.02,0195*4D
$GPVTG,134.6635,T,134.6635,M,0.597,N,1.107,K,D*2A
$GPGGA,123347.80,4612.1522922,N,00607.5778315,E,2,06,1.4,368.770,M,49.480,M,15.22,0195*48
$RDENS,984,4522629,PC
$GPVTG,134.5159,T,134.5159,M,0.555,N,1.028,K,D*28
$GPGGA,123348.20,4612.1522504,N,00607.5778851,E,2,06,1.4,368.765,M,49.480,M,15.62,0195*4E
$GPVTG,143.4547,T,143.4547,M,0.521,N,0.965,K,D*2A
$GPGGA,123348.40,4612.1522291,N,00607.5779109,E,2,06,1.4,368.755,M,49.480,M,15.82,0195*4B
$GPVTG,141.4554,T,141.4554,M,0.455,N,0.843,K,D*2D
$RDENS,985,4522715,PC
$GPGGA,123348.80,4612.1521869,N,00607.5779629,E,2,06,1.4,368.766,M,49.480,M,16.22,0195*45
$GPVTG,136.0118,T,136.0118,M,0.548,N,1.015,K,D*2A
$GPGGA,123349.00,4612.1521669,N,00607.5779832,E,2,06,1.4,368.756,M,49.480,M,16.42,0195*43
$GPVTG,147.9216,T,147.9216,M,0.421,N,0.780,K,D*2E
$GPGGA,123349.40,4612.1521293,N,00607.5780171,E,2,06,1.4,368.701,M,49.480,M,0.05,0195*78
$GPVTG,144.2597,T,144.2597,M,0.462,N,0.857,K,D*2C
$RDENS,986,4522801,PC
$GPGGA,123349.60,4612.1521094,N,00607.5780396,E,2,06,1.4,368.698,M,49.480,M,0.25,0195*77
$GPVTG,138.6606,T,138.6606,M,0.497,N,0.922,K,D*25
$GPGGA,123350.00,4612.1520678,N,00607.5780857,E,2,06,1.4,368.738,M,49.480,M,0.65,0195*75
