$GPVTG,298.0901,T,298.0901,M,0.034,N,0.063,K,D*24
$GPGGA,124508.00,4612.0689939,N,00607.4250280,E,4,09,1.3,368.567,M,49.479,M,3.04,0195*7F
$GPVTG,276.7118,T,276.7118,M,0.066,N,0.123,K,D*26
$GPGGA,124508.40,4612.0689946,N,00607.4250170,E,4,09,1.3,368.569,M,49.479,M,3.44,0195*75
$GPVTG,248.9498,T,248.9498,M,0.112,N,0.208,K,D*2E
$GPGGA,124508.60,4612.0689926,N,00607.4250118,E,4,09,1.3,368.576,M,49.479,M,3.64,0195*73
$GPVTG,235.8288,T,235.8288,M,0.147,N,0.272,K,D*23
$GPGGA,124509.00,4612.0689885,N,00607.4249980,E,4,09,1.3,368.589,M,49.479,M,4.04,0195*7C
$GPVTG,247.5955,T,247.5955,M,0.115,N,0.213,K,D*23
$GPGGA,124509.20,4612.0689898,N,00607.4249875,E,4,09,1.3,368.569,M,49.479,M,4.24,0195*75
$GPVTG,286.0433,T,286.0433,M,0.079,N,0.147,K,D*2A
$GPVTG,237.1682,T,237.1682,M,0.039,N,0.072,K,D*29
$RDENS,1750,4590819,PC
$GPGGA,124509.80,4612.0689842,N,00607.4249711,E,4,09,1.3,368.578,M,49.479,M,4.84,0195*7F
$GPVTG,273.8415,T,273.8415,M,0.070,N,0.130,K,D*23
$GPGGA,124510.00,4612.0689832,N,00607.4249625,E,4,09,1.3,368.579,M,49.479,M,5.04,0195*76
$GPVTG,259.5904,T,259.5904,M,0.056,N,0.104,K,D*20
$GPGGA,124510.40,4612.0689821,N,00607.4249503,E,4,09,1.3,368.591,M,49.479,M,5.44,0195*75
$GPVTG,261.8011,T,261.8011,M,0.092,N,0.171,K,D*2A
$RDENS,1751,4590908,PC
$GPGGA,124510.60,4612.0689808,N,00607.4249446,E,4,09,1.3,368.597,M,49.479,M,5.64,0195*78
$GPVTG,294.5545,T,294.5545,M,0.096,N,0.179,K,D*26
$GPGGA,124511.00,4612.0689806,N,00607.4249266,E,4,09,1.3,368.592,M,49.479,M,6.04,0195*75
$GPVTG,249.5242,T,249.5242,M,0.158,N,0.293,K,D*22
$GPGGA,124511.20,4612.0689812,N,00607.4249135,E,4,09,1.3,368.581,M,49.479,M,6.24,0195*77
$GPVTG,270.6889,T,270.6889,M,0.158,N,0.292,K,D*23
$RDENS,1752,4590997,PC
$GPGGA,124511.60,4612.0689798,N,00607.4248875,E,4,09,1.3,368.557,M,49.479,M,6.64,0195*7D
$GPVTG,262.3241,T,262.3241,M,0.166,N,0.308,K,D*2C
$GPGGA,124511.80,4612.0689782,N,00607.4248743,E,4,09,1.3,368.548,M,49.479,M,6.84,0195*72
$GPVTG,252.7584,T,252.7584,M,0.144,N,0.266,K,D*25
$GPGGA,124512.20,4612.0689712,N,00607.4248519,E,4,09,1.3,368.548,M,49.479,M,7.24,0195*74
$GPVTG,236.3727,T,236.3727,M,0.165,N,0.305,K,D*22
$GPGGA,124512.40,4612.0689662,N,00607.4248391,E,4,09,1.3,368.564,M,49.479,M,7.44,0195*7A
$RDENS,1753,4591086,PC
$GPVTG,250.3867,T,250.3867,M,0.178,N,0.329,K,D*20
$GPGGA,124512.80,4612.0689614,N,00607.4248100,E,4,09,1.3,368.564,M,49.479,M,7.84,0195*71
$GPVTG,258.5365,T,258.5365,M,0.198,N,0.367,K,D*24
$GPGGA,124513.00,4612.0689596,N,00607.4247951,E,4,09,1.3,368.552,M,49.479,M,8.04,0195*70
$GPVTG,261.5681,T,261.5681,M,0.193,N,0.359,K,D*22
$RDENS,1754,4591175,PC
$GPGGA,124513.40,4612.0689577,N,00607.4247670,E,4,09,1.3,368.547,M,49.479,M,8.44,0195*77
$GPVTG,258.3683,T,258.3683,M,0.187,N,0.347,K,D*28
$GPGGA,124513.60,4612.0689542,N,00607.4247537,E,4,09,1.3,368.555,M,49.479,M,8.64,0195*72
$GPVTG,262.8353,T,262.8353,M,0.133,N,0.247,K,D*26
$GPGGA,124514.00,4612.0689527,N,00607.4247296,E,4,09,1.3,368.560,M,49.479,M,0.08,0195*78
$GPVTG,261.1171,T,261.1171,M,0.182,N,0.338,K,D*25
$GPGGA,124514.20,4612.0689477,N,00607.4247148,E,4,09,1.3,368.570,M,49.479,M,0.08,0195*7F
$RDENS,1755,4591264,PC
$GPVTG,251.7440,T,251.7440,M,0.197,N,0.365,K,D*29
$GPGGA,124514.60,4612.0689532,N,00607.4246864,E,4,09,1.3,368.563,M,49.479,M,0.02,0195*75
$GPVTG,280.6151,T,280.6151,M,0.173,N,0.321,K,D*23
$GPGGA,124514.80,4612.0689506,N,00607.4246693,E,4,09,1.3,368.555,M,49.479,M,0.09,0195*74
$GPVTG,259.7507,T,259.7507,M,0.170,N,0.315,K,D*27
$GPGGA,124515.00,4612.0689496,N,00607.4246562,E,4,09,1.3,368.563,M,49.479,M,0.11,0195*74
$RDENS,1756,4591353,PC
$GPVTG,256.0435,T,256.0435,M,0.151,N,0.281,K,D*28
$GPGGA,124515.40,4612.0689430,N,00607.4246267,E,4,09,1.3,368.576,M,49.479,M,0.51,0195*7E
$GPVTG,255.7030,T,255.7030,M,0.179,N,0.331,K,D*28
$GPGGA,124515.60,4612.0689398,N,00607.4246126,E,4,09,1.3,368.586,M,49.479,M,0.10,0195*75
$GPVTG,264.7242,T,264.7242,M,0.212,N,0.394,K,D*29
$GPGGA,124516.00,4612.0689458,N,00607.4245790,E,4,09,1.3,368.539,M,49.479,M,0.30,0195*75
$RDENS,1757,4591442,PC
$GPVTG,260.7226,T,260.7226,M,0.273,N,0.505,K,D*20
$GPGGA,124516.20,4612.0689425,N,00607.4245620,E,4,09,1.3,368.542,M,49.479,M,0.50,0195*7D
$GPVTG,244.3887,T,244.3887,M,0.223,N,0.412,K,D*22
$GPGGA,124516.60,4612.0689277,N,00607.4245298,E,4,09,1.3,368.573,M,49.479,M,0.90,0195*71
$GPVTG,243.2089,T,243.2089,M,0.202,N,0.374,K,D*26
$GPGGA,124516.80,4612.0689208,N,00607.4245149,E,4,09,1.3,368.589,M,49.479,M,1.10,0195*74
$RDENS,1758,4591531,PC
$GPVTG,259.5099,T,259.5099,M,0.322,N,0.596,K,D*2F
$GPGGA,124517.20,4612.0689194,N,00607.4244735,E,4,09,1.3,368.543,M,49.479,M,1.50,0195*77
$GPVTG,264.2943,T,264.2943,M,0.203,N,0.376,K,D*25
$GPGGA,124517.40,4612.0689134,N,00607.4244579,E,4,09,1.3,368.557,M,49.479,M,1.70,0195*76
$GPVTG,250.9583,T,250.9583,M,0.236,N,0.438,K,D*2E
$GPGGA,124517.80,4612.0689032,N,00607.4244235,E,4,09,1.3,368.582,M,49.479,M,2.10,0195*7F
$RDENS,1759,4591620,PC
$GPVTG,253.6656,T,253.6656,M,0.214,N,0.396,K,D*2D
$GPGGA,124518.00,4612.0689011,N,00607.4244038,E,4,09,1.3,368.575,M,49.479,M,2.30,0195*7C
$GPVTG,255.8217,T,255.8217,M,0.281,N,0.521,K,D*2B
$GPGGA,124518.40,4612.0688863,N,00607.4243708,E,4,09,1.3,368.589,M,49.479,M,2.70,0195*70
$GPVTG,216.1309,T,216.1309,M,0.211,N,0.392,K,D*2C
$GPGGA,124518.60,4612.0688743,N,00607.4243633,E,4,09,1.3,368.604,M,49.479,M,2.90,0195*7E
$RDENS,1760,4591709,PC
$GPVTG,189.5161,T,189.5161,M,0.268,N,0.497,K,D*20
$GPGGA,124519.00,4612.0688366,N,00607.4243585,E,4,09,1.3,368.625,M,49.479,M,3.30,0195*7C
$GPVTG,179.9839,T,179.9839,M,0.361,N,0.669,K,D*2B
$GPGGA,124519.20,4612.0688139,N,00607.4243560,E,4,09,1.3,368.644,M,49.479,M,3.50,0195*7C
$GPVTG,182.6720,T,182.6720,M,0.478,N,0.885,K,D*28
$GPGGA,124519.40,4612.0687928,N,00607.4243553,E,4,09,1.3,368.624,M,49.479,M,3.70,0195*79
$RDENS,1761,4591798,PC
$GPVTG,186.3389,T,186.3389,M,0.505,N,0.935,K,D*29
$GPGGA,124519.80,4612.0687444,N,00607.4243569,E,4,09,1.3,368.559,M,49.479,M,4.10,0195*73
$GPVTG,173.7248,T,173.7248,M,0.485,N,0.899,K,D*27
$GPGGA,124520.00,4612.0687028,N,00607.4243620,E,4,09,1.3,368.567,M,49.479,M,4.30,0195*7E
$GPVTG,158.4376,T,158.4376,M,0.628,N,1.165,K,D*29
$GPGGA,124520.40,4612.0686274,N,00607.4243978,E,4,09,1.3,368.565,M,49.479,M,4.70,0195*74
$RDENS,1762,4591887,PC
$GPVTG,163.0456,T,163.0456,M,0.800,N,1.482,K,D*21
$GPGGA,124520.60,4612.0685882,N,00607.4244138,E,4,09,1.3,368.538,M,49.479,M,4.90,0195*7B
$GPVTG,166.6199,T,166.6199,M,0.871,N,1.615,K,D*2B
$GPGGA,124521.00,4612.0684802,N,00607.4244477,E,4,09,1.3,368.563,M,49.479,M,5.30,0195*7E
$GPVTG,168.4676,T,168.4676,M,0.995,N,1.843,K,D*2D
$GPGGA,124521.20,4612.0684334,N,00607.4244622,E,4,09,1.3,368.540,M,49.479,M,5.50,0195*77
$RDENS,1763,4591976,PC
$GPVTG,170.6230,T,170.6230,M,1.079,N,2.000,K,D*2B
$GPGGA,124521.60,4612.0683071,N,00607.4245014,E,4,09,1.3,368.585,M,49.479,M,5.90,0195*71
$GPVTG,164.7788,T,164.7788,M,1.038,N,1.924,K,D*22
$GPGGA,124521.80,4612.0682481,N,00607.4245219,E,4,09,1.3,368.589,M,49.479,M,6.10,0195*7D
$GPVTG,170.9161,T,170.9161,M,1.201,N,2.225,K,D*23
$GPGGA,124522.20,4612.0681248,N,00607.4245609,E,4,09,1.3,368.558,M,49.479,M,6.50,0195*79
$RDENS,1764,4592065,PC
$GPVTG,166.6491,T,166.6491,M,1.182,N,2.190,K,D*26
$GPGGA,124522.40,4612.0680523,N,00607.4245719,E,4,09,1.3,368.558,M,49.479,M,6.70,0195*76
$GPVTG,170.1020,T,170.1020,M,1.210,N,2.242,K,D*22
$GPGGA,124522.80,4612.0679173,N,00607.4246075,E,4,09,1.3,368.579,M,49.479,M,7.10,0195*77
$GPVTG,169.8773,T,169.8773,M,1.217,N,2.256,K,D*20
$GPGGA,124523.00,4612.0678580,N,00607.4246097,E,4,09,1.3,368.540,M,49.479,M,7.30,0195*73
$GPVTG,172.6761,T,172.6761,M,1.173,N,2.173,K,D*25
$RDENS,1765,4592154,PC
$GPGGA,124523.40,4612.0677229,N,00607.4246336,E,4,09,1.3,368.565,M,49.479,M,7.70,0195*77
$GPVTG,173.0374,T,173.0374,M,1.153,N,2.137,K,D*27
$GPGGA,124523.60,4612.0676620,N,00607.4246387,E,4,09,1.3,368.567,M,49.479,M,7.90,0195*7F
$GPVTG,179.3188,T,179.3188,M,1.170,N,2.168,K,D*2C
$GPGGA,124523.80,4612.0675976,N,00607.4246417,E,4,09,1.3,368.565,M,49.479,M,8.10,0195*75
$GPVTG,183.2372,T,183.2372,M,1.244,N,2.305,K,D*21
$RDENS,1766,4592243,PC
$GPGGA,124524.20,4612.0674667,N,00607.4246379,E,4,09,1.3,368.574,M,49.479,M,8.50,0195*7D
$GPVTG,179.8076,T,179.8076,M,1.111,N,2.059,K,D*28
$GPGGA,124524.40,4612.0674091,N,00607.4246366,E,4,09,1.3,368.563,M,49.479,M,8.70,0195*7E
$GPVTG,182.7397,T,182.7397,M,1.127,N,2.089,K,D*20
$GPGGA,124524.80,4612.0672818,N,00607.4246225,E,4,09,1.3,368.586,M,49.479,M,9.10,0195*77
$GPVTG,187.2680,T,187.2680,M,1.134,N,2.101,K,D*23
$RDENS,1767,4592332,PC
$GPGGA,124525.00,4612.0672205,N,00607.4246130,E,4,09,1.3,368.584,M,49.479,M,9.30,0195*7F
$GPVTG,187.3056,T,187.3056,M,1.076,N,1.994,K,D*23
$GPGGA,124525.40,4612.0670997,N,00607.4245914,E,4,09,1.3,368.601,M,49.479,M,9.70,0195*7E
$GPVTG,187.2378,T,187.2378,M,1.025,N,1.899,K,D*29
$GPGGA,124525.60,4612.0670454,N,00607.4245789,E,4,09,1.3,368.585,M,49.479,M,9.90,0195*75
$GPVTG,189.4874,T,189.4874,M,1.032,N,1.912,K,D*2D
$RDENS,1768,4592429,PC
$GPGGA,124526.00,4612.0669321,N,00607.4245505,E,4,09,1.3,368.604,M,49.479,M,10.30,0195*43
$GPVTG,191.0760,T,191.0760,M,1.070,N,1.984,K,D*24
$GPGGA,124526.20,4612.0668794,N,00607.4245330,E,4,09,1.3,368.579,M,49.479,M,10.50,0195*45
$GPVTG,199.3967,T,199.3967,M,0.966,N,1.789,K,D*28
$GPGGA,124526.60,4612.0667675,N,00607.4244944,E,4,09,1.3,368.591,M,49.479,M,10.90,0195*42
$GPVTG,190.8843,T,190.8843,M,1.062,N,1.968,K,D*25
$GPGGA,124526.80,4612.0667111,N,00607.4244799,E,4,09,1.3,368.597,M,49.479,M,11.10,0195*48
$RDENS,1769,4592526,PC
$GPVTG,192.7830,T,192.7830,M,0.987,N,1.829,K,D*22
$GPGGA,124527.20,4612.0666149,N,00607.4244385,E,4,09,1.3,368.594,M,49.479,M,0.01,0195*75
$GPVTG,197.8550,T,197.8550,M,1.008,N,1.867,K,D*27
$GPGGA,124527.40,4612.0665641,N,00607.4244232,E,4,09,1.3,368.607,M,49.479,M,0.13,0195*78
$GPVTG,197.2858,T,197.2858,M,0.969,N,1.796,K,D*29
$GPGGA,124527.80,4612.0664665,N,00607.4243779,E,4,09,1.3,368.578,M,49.479,M,0.01,0195*76
$RDENS,1770,4592623,PC
$GPVTG,198.6401,T,198.6401,M,0.970,N,1.798,K,D*2F
$GPGGA,124528.00,4612.0664099,N,00607.4243543,E,4,09,1.3,368.590,M,49.479,M,0.21,0195*7B
$GPVTG,206.4510,T,206.4510,M,0.913,N,1.692,K,D*21
$GPGGA,124528.40,4612.0663158,N,00607.4243048,E,4,09,1.3,368.578,M,49.479,M,0.61,0195*78
$GPVTG,198.4246,T,198.4246,M,0.883,N,1.637,K,D*26
$GPGGA,124528.60,4612.0662630,N,00607.4242802,E,4,09,1.3,368.590,M,49.479,M,0.15,0195*70
$GPVTG,204.4905,T,204.4905,M,1.022,N,1.894,K,D*23
$RDENS,1771,4592720,PC
$GPGGA,124528.80,4612.0662153,N,00607.4242427,E,4,09,1.3,368.586,M,49.479,M,0.35,0195*72
$GPVTG,200.8151,T,200.8151,M,1.040,N,1.928,K,D*21
$GPGGA,124529.20,4612.0661063,N,00607.4241866,E,4,09,1.3,368.588,M,49.479,M,0.75,0195*78
$GPVTG,198.1791,T,198.1791,M,1.051,N,1.947,K,D*28
$GPGGA,124529.40,4612.0660476,N,00607.4241578,E,4,09,1.3,368.582,M,49.479,M,0.95,0195*79
$GPVTG,200.6529,T,200.6529,M,1.073,N,1.988,K,D*2B
$RDENS,1772,4592806,PC
$GPGGA,124529.80,4612.0659303,N,00607.4241079,E,4,09,1.3,368.572,M,49.479,M,1.35,0195*7A
$GPVTG,195.6395,T,195.6395,M,1.160,N,2.149,K,D*2E
$GPGGA,124530.00,4612.0658684,N,00607.4240801,E,4,09,1.3,368.549,M,49.479,M,0.09,0195*71
$GPVTG,191.4849,T,191.4849,M,1.313,N,2.433,K,D*20
$GPGGA,124530.40,4612.0657250,N,00607.4240323,E,4,09,1.3,368.551,M,49.479,M,0.49,0195*71
$GPVTG,194.8015,T,194.8015,M,1.321,N,2.448,K,D*2D
$RDENS,1773,4592892,PC
$GPGGA,124530.60,4612.0656534,N,00607.4240088,E,4,09,1.3,368.548,M,49.479,M,0.69,0195*7F
$GPVTG,194.4583,T,194.4583,M,1.397,N,2.589,K,D*2C
$GPGGA,124531.00,4612.0655059,N,00607.4239515,E,4,09,1.3,368.537,M,49.479,M,1.09,0195*75
$GPVTG,197.7400,T,197.7400,M,1.425,N,2.642,K,D*26
$GPGGA,124531.20,4612.0654331,N,00607.4239261,E,4,09,1.3,368.545,M,49.479,M,1.29,0195*78
$GPVTG,196.5931,T,196.5931,M,1.352,N,2.507,K,D*23
$RDENS,1774,4592978,PC
$GPGGA,124531.60,4612.0652880,N,00607.4238580,E,4,09,1.3,368.563,M,49.479,M,0.05,0195*79
$GPVTG,199.2717,T,199.2717,M,1.363,N,2.526,K,D*22
$GPVTG,201.1763,T,201.1763,M,1.323,N,2.451,K,D*27
$GPGGA,124532.00,4612.0651502,N,00607.4237823,E,4,09,1.3,368.554,M,49.479,M,0.35,0195*74
$GPVTG,199.7449,T,199.7449,M,1.266,N,2.345,K,D*25
$RDENS,1775,4593064,PC
$GPGGA,124532.20,4612.0650818,N,00607.4237475,E,4,09,1.3,368.568,M,49.479,M,0.55,0195*77
$GPVTG,200.8807,T,200.8807,M,1.354,N,2.510,K,D*23
$GPGGA,124532.60,4612.0649482,N,00607.4236650,E,4,09,1.3,368.574,M,49.479,M,0.11,0195*7D
$GPVTG,203.7338,T,203.7338,M,1.312,N,2.432,K,D*20
$GPGGA,124532.80,4612.0648825,N,00607.4236218,E,4,09,1.3,368.567,M,49.479,M,0.31,0195*7B
$GPVTG,207.1304,T,207.1304,M,1.279,N,2.371,K,D*2C
$RDENS,1776,4593150,PC
$GPGGA,124533.20,4612.0647596,N,00607.4235322,E,4,09,1.3,368.565,M,49.479,M,0.15,0195*75
$GPVTG,206.5698,T,206.5698,M,1.253,N,2.323,K,D*23
$GPGGA,124533.40,4612.0646987,N,00607.4234841,E,4,09,1.3,368.550,M,49.479,M,0.08,0195*7B
$GPVTG,208.7897,T,208.7897,M,1.289,N,2.389,K,D*24
$GPGGA,124533.80,4612.0645783,N,00607.4233788,E,4,09,1.3,368.546,M,49.479,M,0.32,0195*7D
$GPVTG,211.9765,T,211.9765,M,1.232,N,2.284,K,D*28
$RDENS,1777,4593236,PC
$GPGGA,124534.00,4612.0645191,N,00607.4233292,E,4,09,1.3,368.554,M,49.479,M,0.52,0195*7C
$GPVTG,213.3914,T,213.3914,M,1.253,N,2.322,K,D*22
$GPGGA,124534.40,4612.0644037,N,00607.4232256,E,4,09,1.3,368.554,M,49.479,M,0.92,0195*71
$GPVTG,209.0019,T,209.0019,M,1.198,N,2.221,K,D*24
$GPGGA,124534.60,4612.0643479,N,00607.4231703,E,4,09,1.3,368.564,M,49.479,M,0.06,0195*72
$GPVTG,213.4961,T,213.4961,M,1.230,N,2.280,K,D*2E
$RDENS,1778,4593322,PC
$GPGGA,124535.00,4612.0642332,N,00607.4230720,E,4,11,0.8,368.577,M,49.479,M,0.34,0195*7C
$GPVTG,208.4150,T,208.4150,M,1.302,N,2.413,K,D*22
$GPGGA,124535.20,4612.0641820,N,00607.4230080,E,4,10,0.9,368.533,M,49.479,M,0.54,0195*7E
$GPVTG,212.8719,T,212.8719,M,1.282,N,2.375,K,D*2C
$GPGGA,124535.60,4612.0640575,N,00607.4228921,E,4,10,0.9,368.511,M,49.479,M,0.94,0195*71
$GPVTG,212.5647,T,212.5647,M,1.370,N,2.539,K,D*2E
$RDENS,1779,4593408,PC
$GPGGA,124535.80,4612.0639950,N,00607.4228359,E,4,10,0.9,368.513,M,49.479,M,1.14,0195*74
$GPVTG,212.3140,T,212.3140,M,1.380,N,2.557,K,D*29
$GPGGA,124536.20,4612.0638640,N,00607.4227151,E,4,10,0.9,368.510,M,49.479,M,1.54,0195*70
$GPVTG,212.8122,T,212.8122,M,1.406,N,2.606,K,D*27
$GPGGA,124536.40,4612.0637994,N,00607.4226523,E,4,10,0.9,368.531,M,49.479,M,1.74,0195*7E
$GPVTG,215.3046,T,215.3046,M,1.369,N,2.537,K,D*28
$RDENS,1780,4593494,PC
$GPGGA,124536.60,4612.0637386,N,00607.4225880,E,4,10,0.9,368.530,M,49.479,M,0.06,0195*77
$GPVTG,218.1333,T,218.1333,M,1.352,N,2.505,K,D*21
$GPGGA,124537.00,4612.0636137,N,00607.4224610,E,4,10,0.9,368.528,M,49.479,M,0.01,0195*71
$GPVTG,214.8183,T,214.8183,M,1.376,N,2.550,K,D*27
$GPGGA,124537.20,4612.0635508,N,00607.4224043,E,4,10,0.9,368.547,M,49.479,M,0.21,0195*73
$RDENS,1781,4593580,PC
$GPVTG,219.8602,T,219.8602,M,1.389,N,2.573,K,D*26
$GPGGA,124537.60,4612.0634244,N,00607.4222725,E,4,10,0.9,368.548,M,49.479,M,0.61,0195*73
$GPVTG,214.7046,T,214.7046,M,1.391,N,2.578,K,D*24
$GPGGA,124537.80,4612.0633668,N,00607.4222097,E,4,10,0.9,368.536,M,49.479,M,0.81,0195*79
$GPVTG,220.3817,T,220.3817,M,1.376,N,2.551,K,D*26
$GPGGA,124538.20,4612.0632455,N,00607.4220769,E,4,10,0.9,368.549,M,49.479,M,1.21,0195*76
$RDENS,1782,4593666,PC
$GPVTG,215.1537,T,215.1537,M,1.357,N,2.515,K,D*25
$GPGGA,124538.40,4612.0631897,N,00607.4220085,E,4,10,0.9,368.545,M,49.479,M,1.41,0195*7E
$GPVTG,221.0123,T,221.0123,M,1.291,N,2.393,K,D*26
$GPGGA,124538.80,4612.0630787,N,00607.4218761,E,4,10,0.9,368.557,M,49.479,M,0.00,0195*7C
$GPVTG,218.2099,T,218.2099,M,1.306,N,2.420,K,D*26
$GPGGA,124539.00,4612.0630234,N,00607.4218078,E,4,10,0.9,368.548,M,49.479,M,0.20,0195*7B
$RDENS,1783,4593752,PC
$GPVTG,222.2257,T,222.2257,M,1.248,N,2.312,K,D*2B
$GPGGA,124539.40,4612.0629120,N,00607.4216731,E,4,10,0.9,368.545,M,49.479,M,0.05,0195*7F
$GPVTG,219.2470,T,219.2470,M,1.367,N,2.533,K,D*22
$GPGGA,124539.60,4612.0628574,N,00607.4216089,E,4,10,0.9,368.530,M,49.479,M,0.15,0195*7E
$GPVTG,214.5611,T,214.5611,M,1.357,N,2.515,K,D*25
$GPGGA,124540.00,4612.0627328,N,00607.4214810,E,4,10,0.9,368.538,M,49.479,M,0.55,0195*70
$RDENS,1784,4593838,PC
$GPVTG,215.3398,T,215.3398,M,1.401,N,2.596,K,D*2A
$GPGGA,124540.20,4612.0626660,N,00607.4214154,E,4,10,0.9,368.537,M,49.479,M,0.75,0195*7E
$GPVTG,212.4939,T,212.4939,M,1.435,N,2.660,K,D*27
$GPGGA,124540.60,4612.0625310,N,00607.4212914,E,4,10,0.9,368.539,M,49.479,M,1.15,0195*78
$GPVTG,213.5385,T,213.5385,M,1.423,N,2.638,K,D*2D
$GPGGA,124540.80,4612.0624599,N,00607.4212278,E,4,10,0.9,368.539,M,49.479,M,1.35,0195*73
$RDENS,1785,4593924,PC
$GPVTG,209.1801,T,209.1801,M,1.494,N,2.769,K,D*24
$GPGGA,124541.20,4612.0623110,N,00607.4211051,E,4,10,0.9,368.548,M,49.479,M,0.26,0195*75
$GPVTG,210.3884,T,210.3884,M,1.572,N,2.914,K,D*29
$GPGGA,124541.40,4612.0622354,N,00607.4210482,E,4,10,0.9,368.538,M,49.479,M,0.05,0195*7D
$GPVTG,207.8536,T,207.8536,M,1.561,N,2.893,K,D*25
$RDENS,1786,4594010,PC
$GPGGA,124541.60,4612.0621576,N,00607.4209899,E,4,10,0.9,368.538,M,49.479,M,0.01,0195*70
$GPVTG,205.8558,T,205.8558,M,1.595,N,2.957,K,D*27
$GPGGA,124542.00,4612.0619987,N,00607.4208805,E,4,10,0.9,368.532,M,49.479,M,0.39,0195*79
$GPVTG,204.4665,T,204.4665,M,1.605,N,2.974,K,D*2C
$GPGGA,124542.20,4612.0619129,N,00607.4208251,E,4,10,0.9,368.541,M,49.479,M,0.59,0195*7E
$GPVTG,203.7585,T,203.7585,M,1.662,N,3.079,K,D*28
$RDENS,1787,4594096,PC
$GPGGA,124542.60,4612.0617463,N,00607.4207185,E,4,10,0.9,368.543,M,49.479,M,0.05,0195*71
$GPVTG,204.2234,T,204.2234,M,1.659,N,3.075,K,D*2C
$GPGGA,124542.80,4612.0616631,N,00607.4206661,E,4,10,0.9,368.542,M,49.479,M,0.25,0195*74
$GPVTG,202.4541,T,202.4541,M,1.729,N,3.204,K,D*2E
$GPGGA,124543.20,4612.0614854,N,00607.4205644,E,4,10,0.9,368.549,M,49.479,M,0.65,0195*7B
$GPVTG,202.1728,T,202.1728,M,1.683,N,3.118,K,D*21
$RDENS,1788,4594182,PC
$GPGGA,124543.40,4612.0613958,N,00607.4205125,E,4,10,0.9,368.556,M,49.479,M,0.85,0195*77
$GPVTG,199.5907,T,199.5907,M,1.741,N,3.226,K,D*20
$GPGGA,124543.80,4612.0612144,N,00607.4204207,E,4,10,0.9,368.555,M,49.479,M,0.08,0195*7B
$GPVTG,198.9596,T,198.9596,M,1.713,N,3.175,K,D*22
$GPGGA,124544.00,4612.0611238,N,00607.4203765,E,4,10,0.9,368.561,M,49.479,M,0.28,0195*7C
$GPVTG,199.0785,T,199.0785,M,1.713,N,3.174,K,D*23
$RDENS,1789,4594268,PC
$GPGGA,124544.40,4612.0609417,N,00607.4202920,E,4,10,0.9,368.565,M,49.479,M,0.68,0195*74
$GPVTG,197.3113,T,197.3113,M,1.735,N,3.215,K,D*23
$GPGGA,124544.60,4612.0608490,N,00607.4202445,E,4,10,0.9,368.563,M,49.479,M,0.03,0195*7D
$GPVTG,194.6913,T,194.6913,M,1.698,N,3.147,K,D*21
$GPGGA,124545.00,4612.0606685,N,00607.4201645,E,4,11,0.8,368.562,M,49.479,M,0.43,0195*76
$GPVTG,197.6960,T,197.6960,M,1.753,N,3.248,K,D*2B
$RDENS,1790,4594354,PC
$GPGGA,124545.20,4612.0605729,N,00607.4201304,E,4,11,0.8,368.569,M,49.479,M,0.63,0195*79
$GPVTG,194.7697,T,194.7697,M,1.752,N,3.246,K,D*24
$GPGGA,124545.60,4612.0603814,N,00607.4200603,E,4,11,0.8,368.556,M,49.479,M,0.12,0195*73
$GPVTG,193.7195,T,193.7195,M,1.789,N,3.316,K,D*26
$GPGGA,124545.80,4612.0602866,N,00607.4200294,E,4,11,0.8,368.554,M,49.479,M,0.32,0195*73
$GPVTG,191.1992,T,191.1992,M,1.784,N,3.306,K,D*2A
$RDENS,1791,4594440,PC
$GPGGA,124546.00,4612.0601899,N,00607.4200013,E,4,11,0.8,368.561,M,49.479,M,0.52,0195*76
$GPVTG,189.0769,T,189.0769,M,1.708,N,3.166,K,D*2A
$GPGGA,124546.40,4612.0599990,N,00607.4199555,E,4,11,0.8,368.569,M,49.479,M,0.08,0195*7B
$GPVTG,189.3900,T,189.3900,M,1.800,N,3.337,K,D*2B
$GPGGA,124546.60,4612.0598986,N,00607.4199368,E,4,11,0.8,368.565,M,49.479,M,0.12,0195*70
$GPVTG,187.9942,T,187.9942,M,1.745,N,3.235,K,D*26
$RDENS,1792,4594526,PC
$GPGGA,124547.00,4612.0597031,N,00607.4199047,E,4,11,0.8,368.579,M,49.479,M,0.52,0195*7A
$GPVTG,185.1133,T,185.1133,M,1.811,N,3.356,K,D*2C
$GPGGA,124547.20,4612.0596051,N,00607.4198923,E,4,11,0.8,368.587,M,49.479,M,0.72,0195*76
$GPVTG,184.2972,T,184.2972,M,1.806,N,3.348,K,D*25
$GPGGA,124547.60,4612.0594050,N,00607.4198752,E,4,11,0.8,368.574,M,49.479,M,1.12,0195*72
$GPVTG,182.4001,T,182.4001,M,1.814,N,3.361,K,D*2D
$RDENS,1793,4594612,PC
$GPGGA,124547.80,4612.0593029,N,00607.4198687,E,4,11,0.8,368.569,M,49.479,M,0.03,0195*71
$GPVTG,181.5645,T,181.5645,M,1.820,N,3.373,K,D*29
$GPGGA,124548.20,4612.0591002,N,00607.4198637,E,4,11,0.8,368.573,M,49.479,M,0.43,0195*7B
$GPVTG,179.7504,T,179.7504,M,1.851,N,3.430,K,D*2F
$GPGGA,124548.40,4612.0589989,N,00607.4198642,E,4,11,0.8,368.569,M,49.479,M,0.05,0195*75
$GPVTG,179.9979,T,179.9979,M,1.826,N,3.383,K,D*20
$RDENS,1794,4594698,PC
$GPGGA,124548.80,4612.0587971,N,00607.4198672,E,4,11,0.8,368.570,M,49.479,M,0.35,0195*78
$GPVTG,178.8214,T,178.8214,M,1.796,N,3.328,K,D*25
$GPGGA,124549.00,4612.0586994,N,00607.4198664,E,4,11,0.8,368.568,M,49.479,M,0.55,0195*73
$GPVTG,181.0460,T,181.0460,M,1.680,N,3.114,K,D*2E
$GPGGA,124549.40,4612.0585145,N,00607.4198640,E,4,11,0.8,368.566,M,49.479,M,0.95,0195*74
$RDENS,1795,4594784,PC
$GPVTG,179.7867,T,179.7867,M,1.662,N,3.081,K,D*2F
$GPGGA,124549.60,4612.0584208,N,00607.4198571,E,4,11,0.8,368.557,M,49.479,M,1.15,0195*77
$GPVTG,180.4363,T,180.4363,M,1.564,N,2.899,K,D*2A
$GPGGA,124550.00,4612.0582483,N,00607.4198522,E,4,11,0.8,368.560,M,49.479,M,0.15,0195*79
$GPVTG,181.5630,T,181.5630,M,1.540,N,2.854,K,D*2D
$GPGGA,124550.20,4612.0581617,N,00607.4198445,E,4,11,0.8,368.568,M,49.479,M,0.35,0195*7D
$RDENS,1796,4594870,PC
$GPVTG,182.7940,T,182.7940,M,1.514,N,2.806,K,D*2B
$GPGGA,124550.60,4612.0579953,N,00607.4198320,E,4,11,0.8,368.582,M,49.479,M,0.75,0195*75
$GPVTG,182.6298,T,182.6298,M,1.490,N,2.762,K,D*2B
$GPGGA,124550.80,4612.0579166,N,00607.4198235,E,4,11,0.8,368.577,M,49.479,M,0.95,0195*74
$GPVTG,182.9396,T,182.9396,M,1.385,N,2.567,K,D*2F
$GPGGA,124551.00,4612.0578392,N,00607.4198170,E,4,11,0.8,368.576,M,49.479,M,1.15,0195*7F
$RDENS,1797,4594956,PC
$GPVTG,185.6782,T,185.6782,M,1.380,N,2.558,K,D*26
$GPGGA,124551.40,4612.0576885,N,00607.4198001,E,4,11,0.8,368.579,M,49.479,M,1.55,0195*74
$GPVTG,182.3994,T,182.3994,M,1.347,N,2.496,K,D*2E
$GPGGA,124551.60,4612.0576127,N,00607.4197890,E,4,11,0.8,368.573,M,49.479,M,1.75,0195*70
$GPVTG,185.4861,T,185.4861,M,1.285,N,2.381,K,D*20
$GPGGA,124552.00,4612.0574677,N,00607.4197661,E,4,11,0.8,368.564,M,49.479,M,0.06,0195*76
$RDENS,1798,4595042,PC
$GPVTG,186.3049,T,186.3049,M,1.338,N,2.479,K,D*27
$GPGGA,124552.20,4612.0573976,N,00607.4197541,E,4,11,0.8,368.570,M,49.479,M,0.14,0195*7A
$GPVTG,187.6937,T,187.6937,M,1.245,N,2.308,K,D*2D
$GPGGA,124552.60,4612.0572602,N,00607.4197257,E,4,11,0.8,368.568,M,49.479,M,0.54,0195*7E
$GPVTG,188.6798,T,188.6798,M,1.249,N,2.314,K,D*2C
$GPGGA,124552.80,4612.0571938,N,00607.4197119,E,4,11,0.8,368.567,M,49.479,M,0.74,0195*71
$RDENS,1799,4595127,PC
$GPVTG,188.3966,T,188.3966,M,1.222,N,2.264,K,D*27
$GPGGA,124553.20,4612.0570607,N,00607.4196842,E,4,11,0.8,368.578,M,49.479,M,1.14,0195*77
$GPVTG,188.4572,T,188.4572,M,1.190,N,2.205,K,D*2A
$GPGGA,124553.40,4612.0569956,N,00607.4196718,E,4,11,0.8,368.576,M,49.479,M,1.34,0195*7E
$GPVTG,189.0310,T,189.0310,M,1.186,N,2.197,K,D*25
$RDENS,1800,4595213,PC
$GPGGA,124553.80,4612.0568678,N,00607.4196388,E,4,11,0.8,368.573,M,49.479,M,0.05,0195*7B
$GPVTG,190.8229,T,190.8229,M,1.146,N,2.123,K,D*26
$GPVTG,190.7464,T,190.7464,M,1.124,N,2.084,K,D*2E
$GPGGA,124554.20,4612.0567436,N,00607.4196093,E,4,11,0.8,368.579,M,49.479,M,0.35,0195*71
$GPVTG,191.1619,T,191.1619,M,1.072,N,1.986,K,D*24
$GPGGA,124554.40,4612.0566852,N,00607.4195927,E,4,11,0.8,368.580,M,49.479,M,0.06,0195*7B
$RDENS,1801,4595299,PC
$GPVTG,190.6772,T,190.6772,M,1.141,N,2.115,K,D*24
$GPGGA,124554.80,4612.0565600,N,00607.4195608,E,4,11,0.8,368.581,M,49.479,M,0.19,0195*70
$GPVTG,189.7814,T,189.7814,M,1.147,N,2.126,K,D*22
$GPGGA,124555.00,4612.0564970,N,00607.4195479,E,4,11,0.8,368.575,M,49.479,M,0.39,0195*7D
$GPVTG,186.5711,T,186.5711,M,1.165,N,2.158,K,D*2B
$GPGGA,124555.40,4612.0563654,N,00607.4195268,E,4,11,0.8,368.577,M,49.479,M,0.06,0195*7F
$RDENS,1802,4595385,PC
$GPVTG,186.3503,T,186.3503,M,1.228,N,2.277,K,D*2F
$GPGGA,124555.60,4612.0562924,N,00607.4195184,E,4,11,0.8,368.582,M,49.479,M,0.14,0195*7C
$GPVTG,182.5317,T,182.5317,M,1.282,N,2.377,K,D*2E
$GPGGA,124556.00,4612.0561469,N,00607.4195073,E,4,11,0.8,368.577,M,49.479,M,0.54,0195*79
$GPVTG,183.2372,T,183.2372,M,1.338,N,2.480,K,D*21
$GPGGA,124556.20,4612.0560715,N,00607.4195076,E,4,11,0.8,368.568,M,49.479,M,0.74,0195*7B
$RDENS,1803,4595472,PC
$GPVTG,179.1068,T,179.1068,M,1.378,N,2.555,K,D*2C
$GPGGA,124556.60,4612.0559177,N,00607.4195067,E,4,11,0.8,368.567,M,49.479,M,1.14,0195*7F
$GPVTG,180.7548,T,180.7548,M,1.372,N,2.542,K,D*20
$GPGGA,124556.80,4612.0558358,N,00607.4195064,E,4,11,0.8,368.556,M,49.479,M,0.13,0195*78
$GPVTG,181.3974,T,181.3974,M,1.455,N,2.697,K,D*29
$GPGGA,124557.20,4612.0556739,N,00607.4194991,E,4,11,0.8,368.561,M,49.479,M,0.53,0195*7C
$RDENS,1804,4595558,PC
$GPVTG,182.0406,T,182.0406,M,1.467,N,2.719,K,D*2F
$GPGGA,124557.40,4612.0555891,N,00607.4194974,E,4,11,0.8,368.564,M,49.479,M,0.73,0195*78
$GPVTG,180.1935,T,180.1935,M,1.521,N,2.818,K,D*22
$GPGGA,124557.80,4612.0554166,N,00607.4194981,E,4,11,0.8,368.560,M,49.479,M,1.13,0195*7D
$GPVTG,179.3654,T,179.3654,M,1.581,N,2.930,K,D*23
$GPGGA,124558.00,4612.0553282,N,00607.4194954,E,4,11,0.8,368.565,M,49.479,M,1.33,0195*7B
$RDENS,1805,4595644,PC
$GPVTG,180.2243,T,180.2243,M,1.571,N,2.911,K,D*2F
$GPGGA,124558.40,4612.0551484,N,00607.4194955,E,4,11,0.8,368.568,M,49.479,M,1.73,0195*75
$GPVTG,179.6003,T,179.6003,M,1.654,N,3.065,K,D*20
$GPGGA,124558.60,4612.0550574,N,00607.4194967,E,4,11,0.8,368.590,M,49.479,M,1.93,0195*70
$GPVTG,181.9444,T,181.9444,M,1.657,N,3.071,K,D*26
$RDENS,1806,4595730,PC
$GPGGA,124558.80,4612.0549664,N,00607.4194923,E,4,11,0.8,368.581,M,49.479,M,2.13,0195*7F
$GPVTG,182.8413,T,182.8413,M,1.669,N,3.094,K,D*20
$GPGGA,124559.20,4612.0547809,N,00607.4194803,E,4,11,0.8,368.581,M,49.479,M,2.53,0195*78
$GPVTG,182.0056,T,182.0056,M,1.671,N,3.096,K,D*2B
$GPGGA,124559.40,4612.0546864,N,00607.4194735,E,4,11,0.8,368.582,M,49.479,M,2.73,0195*7F
$GPVTG,183.2842,T,183.2842,M,1.703,N,3.156,K,D*22
$RDENS,1807,4595816,PC
$GPGGA,124559.80,4612.0545006,N,00607.4194581,E,4,11,0.8,368.563,M,49.479,M,3.13,0195*79
$GPVTG,182.8573,T,182.8573,M,1.656,N,3.069,K,D*2E
$GPGGA,124600.00,4612.0544025,N,00607.4194520,E,4,11,0.8,368.576,M,49.479,M,3.33,0195*73
$GPVTG,182.9516,T,182.9516,M,1.703,N,3.156,K,D*22
$GPGGA,124600.40,4612.0542100,N,00607.4194364,E,4,11,0.8,368.571,M,49.479,M,3.73,0195*72
$GPVTG,183.2321,T,183.2321,M,1.767,N,3.275,K,D*22
$RDENS,1808,4595902,PC
$GPGGA,124600.60,4612.0541139,N,00607.4194306,E,4,11,0.8,368.569,M,49.479,M,3.93,0195*7A
$GPVTG,181.5003,T,181.5003,M,1.785,N,3.308,K,D*25
$GPGGA,124601.00,4612.0539179,N,00607.4194194,E,4,11,0.8,368.584,M,49.479,M,4.33,0195*71
$GPVTG,182.9588,T,182.9588,M,1.743,N,3.230,K,D*25
$GPGGA,124601.20,4612.0538190,N,00607.4194133,E,4,11,0.8,368.580,M,49.479,M,4.53,0195*7A
$GPVTG,180.9510,T,180.9510,M,1.821,N,3.374,K,D*2F
$RDENS,1809,4595988,PC
$GPGGA,124601.60,4612.0536164,N,00607.4194105,E,4,11,0.8,368.581,M,49.479,M,0.01,0195*7C
$GPVTG,180.6638,T,180.6638,M,1.807,N,3.350,K,D*2D
$GPGGA,124601.80,4612.0535144,N,00607.4194112,E,4,11,0.8,368.588,M,49.479,M,0.19,0195*75
$GPVTG,180.0247,T,180.0247,M,1.835,N,3.402,K,D*2C
$GPGGA,124602.20,4612.0533114,N,00607.4194145,E,4,11,0.8,368.584,M,49.479,M,0.14,0195*7C
$GPVTG,179.1430,T,179.1430,M,1.847,N,3.423,K,D*2A
$RDENS,1810,4596074,PC
$GPGGA,124602.40,4612.0532052,N,00607.4194152,E,4,11,0.8,368.575,M,49.479,M,0.34,0195*72
$GPVTG,177.8593,T,177.8593,M,1.833,N,3.398,K,D*2E
$GPGGA,124602.80,4612.0529992,N,00607.4194263,E,4,11,0.8,368.579,M,49.479,M,0.15,0195*7F
$GPVTG,178.2735,T,178.2735,M,1.858,N,3.444,K,D*25
$GPGGA,124603.00,4612.0528925,N,00607.4194322,E,4,11,0.8,368.576,M,49.479,M,0.35,0195*72
$GPVTG,177.5043,T,177.5043,M,1.946,N,3.606,K,D*2F
$RDENS,1811,4596160,PC
$GPGGA,124603.20,4612.0527854,N,00607.4194386,E,4,11,0.8,368.577,M,49.479,M,0.55,0195*71
$GPVTG,173.9884,T,173.9884,M,1.930,N,3.576,K,D*2A
$GPGGA,124603.60,4612.0525691,N,00607.4194623,E,4,11,0.8,368.591,M,49.479,M,0.95,0195*7E
$GPVTG,177.3332,T,177.3332,M,1.975,N,3.661,K,D*2E
$GPGGA,124603.80,4612.0524592,N,00607.4194703,E,4,11,0.8,368.592,M,49.479,M,1.15,0195*78
$GPVTG,175.6904,T,175.6904,M,1.874,N,3.473,K,D*2F
$RDENS,1812,4596246,PC
$GPGGA,124604.20,4612.0522479,N,00607.4194853,E,4,11,0.8,368.597,M,49.479,M,1.55,0195*7C
$GPVTG,178.5841,T,178.5841,M,1.926,N,3.569,K,D*23
$GPGGA,124604.40,4612.0521433,N,00607.4194898,E,4,11,0.8,368.592,M,49.479,M,1.75,0195*77
$GPVTG,178.3364,T,178.3364,M,1.860,N,3.446,K,D*2C
$GPGGA,124604.80,4612.0519376,N,00607.4194982,E,4,11,0.8,368.583,M,49.479,M,0.04,0195*7B
$GPVTG,178.6770,T,178.6770,M,1.841,N,3.412,K,D*2E
$RDENS,1813,4596343,PC
$GPGGA,124605.00,4612.0518360,N,00607.4194999,E,4,11,0.8,368.584,M,49.479,M,0.24,0195*7B
$GPVTG,179.1986,T,179.1986,M,1.723,N,3.193,K,D*29
$GPGGA,124605.40,4612.0516410,N,00607.4194953,E,4,11,0.8,368.589,M,49.479,M,0.64,0195*7E
$GPVTG,182.8111,T,182.8111,M,1.792,N,3.320,K,D*29
$GPGGA,124605.60,4612.0515471,N,00607.4194939,E,4,11,0.8,368.600,M,49.479,M,0.84,0195*78
$GPVTG,182.5179,T,182.5179,M,1.711,N,3.171,K,D*24
$GPGGA,124606.00,4612.0513600,N,00607.4194824,E,4,11,0.8,368.604,M,49.479,M,1.24,0195*7D
$RDENS,1814,4596440,PC
$GPVTG,182.3226,T,182.3226,M,1.658,N,3.072,K,D*2A
$GPGGA,124606.20,4612.0512692,N,00607.4194752,E,4,11,0.8,368.598,M,49.479,M,1.44,0195*7B
$GPVTG,182.9054,T,182.9054,M,1.598,N,2.961,K,D*2F
$GPGGA,124606.60,4612.0510911,N,00607.4194590,E,4,11,0.8,368.605,M,49.479,M,1.84,0195*7E
$GPVTG,184.3710,T,184.3710,M,1.604,N,2.974,K,D*2D
$GPGGA,124606.80,4612.0510031,N,00607.4194492,E,4,11,0.8,368.597,M,49.479,M,0.05,0195*78
$GPVTG,185.0511,T,185.0511,M,1.550,N,2.872,K,D*28
$RDENS,1815,4596537,PC
$GPGGA,124607.20,4612.0508307,N,00607.4194327,E,4,11,0.8,368.593,M,49.479,M,0.35,0195*72
$GPVTG,182.9132,T,182.9132,M,1.559,N,2.889,K,D*25
$GPGGA,124607.40,4612.0507440,N,00607.4194164,E,4,11,0.8,368.574,M,49.479,M,0.07,0195*72
$GPVTG,186.3501,T,186.3501,M,1.485,N,2.751,K,D*2F
$GPGGA,124607.80,4612.0505794,N,00607.4193865,E,4,11,0.8,368.577,M,49.479,M,0.21,0195*7E
$GPVTG,188.0578,T,188.0578,M,1.491,N,2.763,K,D*2B
$RDENS,1816,4596627,PC
$GPGGA,124608.00,4612.0504998,N,00607.4193739,E,4,11,0.8,368.577,M,49.479,M,0.41,0195*7A
$GPVTG,187.8353,T,187.8353,M,1.445,N,2.677,K,D*26
$GPGGA,124608.20,4612.0504206,N,00607.4193576,E,4,11,0.8,368.573,M,49.479,M,0.61,0195*7B
$GPVTG,190.0592,T,190.0592,M,1.447,N,2.681,K,D*2D
$GPGGA,124608.60,4612.0502618,N,00607.4193182,E,4,11,0.8,368.581,M,49.479,M,1.01,0195*77
$GPVTG,189.6301,T,189.6301,M,1.453,N,2.692,K,D*2A
$RDENS,1817,4596716,PC
$GPGGA,124608.80,4612.0501840,N,00607.4192994,E,4,11,0.8,368.576,M,49.479,M,1.21,0195*7D
$GPVTG,190.2850,T,190.2850,M,1.421,N,2.633,K,D*24
$GPGGA,124609.20,4612.0500290,N,00607.4192594,E,4,11,0.8,368.580,M,49.479,M,1.61,0195*71
$GPVTG,189.8094,T,189.8094,M,1.427,N,2.644,K,D*22
$GPGGA,124609.40,4612.0499544,N,00607.4192400,E,4,11,0.8,368.575,M,49.479,M,1.81,0195*70
$GPVTG,192.6294,T,192.6294,M,1.408,N,2.610,K,D*2E
$RDENS,1818,4596805,PC
$GPGGA,124609.80,4612.0498049,N,00607.4191902,E,4,11,0.8,368.566,M,49.479,M,0.15,0195*77
$GPVTG,193.3511,T,193.3511,M,1.371,N,2.541,K,D*20
$GPGGA,124610.00,4612.0497303,N,00607.4191665,E,4,11,0.8,368.564,M,49.479,M,0.35,0195*7B
$GPVTG,194.8276,T,194.8276,M,1.342,N,2.488,K,D*24
$GPGGA,124610.40,4612.0495862,N,00607.4191155,E,4,11,0.8,368.569,M,49.479,M,0.15,0195*7A
$GPVTG,192.7650,T,192.7650,M,1.363,N,2.527,K,D*23
$RDENS,1819,4596894,PC
$GPGGA,124610.60,4612.0495095,N,00607.4190889,E,4,11,0.8,368.572,M,49.479,M,0.00,0195*7F
$GPVTG,192.6330,T,192.6330,M,1.480,N,2.742,K,D*28
$GPGGA,124611.00,4612.0493488,N,00607.4190383,E,4,11,0.8,368.567,M,49.479,M,0.40,0195*77
$GPVTG,192.4227,T,192.4227,M,1.491,N,2.764,K,D*2C
$GPGGA,124611.20,4612.0492661,N,00607.4190124,E,4,11,0.8,368.567,M,49.479,M,0.60,0195*7C
$GPVTG,192.4507,T,192.4507,M,1.532,N,2.839,K,D*23
$RDENS,1820,4596983,PC
$GPGGA,124611.60,4612.0490985,N,00607.4189625,E,4,11,0.8,368.566,M,49.479,M,1.00,0195*77
$GPVTG,191.4817,T,191.4817,M,1.556,N,2.884,K,D*27
$GPGGA,124611.80,4612.0490108,N,00607.4189374,E,4,11,0.8,368.559,M,49.479,M,0.14,0195*7D
$GPVTG,192.4174,T,192.4174,M,1.588,N,2.943,K,D*2E
$GPGGA,124612.20,4612.0488368,N,00607.4188842,E,4,11,0.8,368.551,M,49.479,M,0.54,0195*7A
$GPVTG,192.0937,T,192.0937,M,1.605,N,2.975,K,D*2D
$RDENS,1821,4597072,PC
$GPGGA,124612.40,4612.0487486,N,00607.4188548,E,4,11,0.8,368.548,M,49.479,M,0.74,0195*79
$GPVTG,190.5211,T,190.5211,M,1.587,N,2.942,K,D*20
$GPGGA,124612.60,4612.0486602,N,00607.4188318,E,4,11,0.8,368.561,M,49.479,M,0.94,0195*72
$GPVTG,191.4186,T,191.4186,M,1.728,N,3.203,K,D*28
$GPGGA,124613.00,4612.0484763,N,00607.4187798,E,4,11,0.8,368.569,M,49.479,M,1.34,0195*71
$GPVTG,190.8879,T,190.8879,M,1.649,N,3.056,K,D*2C
$RDENS,1822,4597161,PC
$GPGGA,124613.20,4612.0483890,N,00607.4187495,E,4,11,0.8,368.575,M,49.479,M,1.54,0195*72
$GPVTG,192.8651,T,192.8651,M,1.553,N,2.879,K,D*20
$GPGGA,124613.60,4612.0482198,N,00607.4186924,E,4,11,0.8,368.589,M,49.479,M,1.94,0195*7F
$GPVTG,194.0753,T,194.0753,M,1.565,N,2.901,K,D*2B
$GPGGA,124613.80,4612.0481309,N,00607.4186598,E,4,11,0.8,368.587,M,49.479,M,0.07,0195*76
$GPVTG,192.4303,T,192.4303,M,1.570,N,2.909,K,D*27
$RDENS,1823,4597250,PC
$GPGGA,124614.20,4612.0479642,N,00607.4186040,E,4,11,0.8,368.583,M,49.479,M,0.18,0195*7C
$GPVTG,193.8420,T,193.8420,M,1.494,N,2.769,K,D*24
$GPGGA,124614.40,4612.0478839,N,00607.4185736,E,4,11,0.8,368.580,M,49.479,M,0.38,0195*7D
$GPVTG,193.7726,T,193.7726,M,1.558,N,2.887,K,D*2A
$GPGGA,124614.80,4612.0477254,N,00607.4185114,E,4,11,0.8,368.591,M,49.479,M,0.78,0195*7D
$GPVTG,196.5544,T,196.5544,M,1.422,N,2.635,K,D*21
$RDENS,1824,4597339,PC
$GPGGA,124615.00,4612.0476505,N,00607.4184828,E,4,11,0.8,368.599,M,49.479,M,0.98,0195*77
$GPVTG,195.7308,T,195.7308,M,1.396,N,2.588,K,D*2C
$GPGGA,124615.40,4612.0475002,N,00607.4184216,E,4,11,0.8,368.601,M,49.479,M,1.38,0195*7C
$GPVTG,195.7858,T,195.7858,M,1.429,N,2.649,K,D*21
$GPGGA,124615.60,4612.0474237,N,00607.4183912,E,4,11,0.8,368.609,M,49.479,M,0.10,0195*70
$GPVTG,194.8459,T,194.8459,M,1.398,N,2.590,K,D*2B
$RDENS,1825,4597428,PC
$GPGGA,124616.00,4612.0472800,N,00607.4183312,E,4,11,0.8,368.588,M,49.479,M,0.30,0195*7F
$GPVTG,197.6009,T,197.6009,M,1.297,N,2.404,K,D*29
$GPVTG,197.3506,T,197.3506,M,1.297,N,2.404,K,D*29
$GPGGA,124616.40,4612.0471382,N,00607.4182678,E,4,11,0.8,368.599,M,49.479,M,0.70,0195*75
$GPVTG,197.4970,T,197.4970,M,1.288,N,2.387,K,D*2B
$GPGGA,124616.60,4612.0470702,N,00607.4182370,E,4,11,0.8,368.592,M,49.479,M,0.90,0195*72
$RDENS,1826,4597518,PC
$GPVTG,197.6944,T,197.6944,M,1.320,N,2.447,K,D*23
$GPGGA,124617.00,4612.0469321,N,00607.4181753,E,4,11,0.8,368.602,M,49.479,M,1.30,0195*7F
$GPVTG,196.8952,T,196.8952,M,1.315,N,2.438,K,D*2D
$GPGGA,124617.20,4612.0468684,N,00607.4181389,E,4,11,0.8,368.594,M,49.479,M,0.05,0195*7E
$GPVTG,194.9494,T,194.9494,M,1.206,N,2.235,K,D*25
$GPGGA,124617.60,4612.0467362,N,00607.4180775,E,4,11,0.8,368.590,M,49.479,M,0.05,0195*7A
$RDENS,1827,4597607,PC
$GPVTG,199.7728,T,199.7728,M,1.246,N,2.309,K,D*2F
$GPGGA,124617.80,4612.0466729,N,00607.4180493,E,4,11,0.8,368.588,M,49.479,M,0.15,0195*7D
$GPVTG,200.4817,T,200.4817,M,1.231,N,2.281,K,D*2E
$GPGGA,124618.20,4612.0465466,N,00607.4179840,E,4,11,0.8,368.589,M,49.479,M,0.25,0195*75
$GPVTG,198.9519,T,198.9519,M,1.152,N,2.134,K,D*25
$GPGGA,124618.40,4612.0464837,N,00607.4179514,E,4,11,0.8,368.588,M,49.479,M,0.45,0195*71
$RDENS,1828,4597696,PC
$GPVTG,198.7066,T,198.7066,M,1.220,N,2.260,K,D*21
$GPGGA,124618.80,4612.0463620,N,00607.4178875,E,4,11,0.8,368.593,M,49.479,M,0.85,0195*7F
$GPVTG,201.2546,T,201.2546,M,1.149,N,2.130,K,D*2B
$GPGGA,124619.00,4612.0463006,N,00607.4178626,E,4,11,0.8,368.586,M,49.479,M,1.05,0195*71
$GPVTG,199.7680,T,199.7680,M,1.174,N,2.175,K,D*24
$GPGGA,124619.40,4612.0461815,N,00607.4177977,E,4,11,0.8,368.564,M,49.479,M,1.45,0195*71
$RDENS,1829,4597785,PC
$GPVTG,201.3992,T,201.3992,M,1.124,N,2.082,K,D*28
$GPGGA,124619.60,4612.0461250,N,00607.4177680,E,4,11,0.8,368.565,M,49.479,M,0.12,0195*7D
$GPVTG,198.3718,T,198.3718,M,1.070,N,1.982,K,D*22
$GPGGA,124620.00,4612.0460112,N,00607.4177015,E,4,11,0.8,368.560,M,49.479,M,0.00,0195*79
$GPVTG,204.5027,T,204.5027,M,1.129,N,2.092,K,D*24
$GPGGA,124620.20,4612.0459555,N,00607.4176705,E,4,11,0.8,368.566,M,49.479,M,0.20,0195*75
$GPVTG,202.7788,T,202.7788,M,1.069,N,1.982,K,D*2A
$RDENS,1830,4597874,PC
$GPGGA,124620.60,4612.0458453,N,00607.4176099,E,4,10,0.9,368.552,M,49.479,M,0.60,0195*76
$GPVTG,201.7568,T,201.7568,M,0.996,N,1.847,K,D*2A
$GPGGA,124620.80,4612.0457900,N,00607.4175835,E,4,10,0.9,368.558,M,49.479,M,0.80,0195*75
$GPVTG,203.2498,T,203.2498,M,1.054,N,1.953,K,D*28
$GPGGA,124621.00,4612.0457362,N,00607.4175507,E,4,10,0.9,368.551,M,49.479,M,1.00,0195*7E
$GPVTG,201.8081,T,201.8081,M,1.043,N,1.934,K,D*2F
$RDENS,1831,4597963,PC
$GPGGA,124621.40,4612.0456290,N,00607.4174880,E,4,10,0.9,368.563,M,49.479,M,1.40,0195*71
$GPVTG,203.4284,T,203.4284,M,1.041,N,1.930,K,D*29
$GPGGA,124621.60,4612.0455757,N,00607.4174572,E,4,10,0.9,368.570,M,49.479,M,0.05,0195*7C
$GPVTG,202.1407,T,202.1407,M,1.058,N,1.960,K,D*24
$GPGGA,124622.00,4612.0454725,N,00607.4173924,E,4,10,0.9,368.555,M,49.479,M,0.07,0195*70
$GPVTG,205.1738,T,205.1738,M,0.989,N,1.833,K,D*27
$RDENS,1832,4598052,PC
$GPGGA,124622.20,4612.0454195,N,00607.4173627,E,4,10,0.9,368.554,M,49.479,M,0.13,0195*77
$GPVTG,203.6224,T,203.6224,M,1.051,N,1.947,K,D*28
$GPGGA,124622.60,4612.0453074,N,00607.4173089,E,4,10,0.9,368.560,M,49.479,M,0.53,0195*7B
$GPVTG,194.0200,T,194.0200,M,1.073,N,1.989,K,D*2A
$GPGGA,124622.80,4612.0452479,N,00607.4172839,E,4,10,0.9,368.564,M,49.479,M,0.73,0195*79
$GPVTG,193.3936,T,193.3936,M,1.210,N,2.243,K,D*23
$RDENS,1833,4598141,PC
$GPGGA,124623.20,4612.0451191,N,00607.4172420,E,4,10,0.9,368.551,M,49.479,M,1.13,0195*77
$GPVTG,192.1739,T,192.1739,M,1.195,N,2.215,K,D*2E
$GPGGA,124623.40,4612.0450486,N,00607.4172290,E,4,10,0.9,368.541,M,49.479,M,1.33,0195*7D
$GPVTG,188.2571,T,188.2571,M,1.282,N,2.377,K,D*2E
$GPGGA,124623.80,4612.0449064,N,00607.4172063,E,4,10,0.9,368.549,M,49.479,M,0.07,0195*71
$GPVTG,184.1250,T,184.1250,M,1.303,N,2.414,K,D*24
$RDENS,1834,4598230,PC
$GPGGA,124624.00,4612.0448310,N,00607.4171961,E,4,10,0.9,368.548,M,49.479,M,0.27,0195*74
$GPVTG,186.0484,T,186.0484,M,1.433,N,2.656,K,D*24
$GPGGA,124624.40,4612.0446714,N,00607.4171711,E,4,10,0.9,368.544,M,49.479,M,0.22,0195*7E
$GPVTG,185.1854,T,185.1854,M,1.464,N,2.713,K,D*26
$GPGGA,124624.60,4612.0445863,N,00607.4171627,E,4,10,0.9,368.540,M,49.479,M,0.42,0195*76
$GPVTG,187.5884,T,187.5884,M,1.457,N,2.701,K,D*25
$RDENS,1835,4598319,PC
$GPGGA,124625.00,4612.0444286,N,00607.4171349,E,4,10,0.9,368.549,M,49.479,M,0.82,0195*79
$GPVTG,186.8379,T,186.8379,M,1.404,N,2.603,K,D*20
$GPGGA,124625.20,4612.0443512,N,00607.4171126,E,4,10,0.9,368.549,M,49.479,M,1.02,0195*74
$GPVTG,189.3087,T,189.3087,M,1.378,N,2.554,K,D*2D
$GPGGA,124625.40,4612.0442752,N,00607.4170957,E,4,10,0.9,368.544,M,49.479,M,0.21,0195*77
$GPVTG,190.8074,T,190.8074,M,1.385,N,2.567,K,D*2F
$RDENS,1836,4598409,PC
$GPGGA,124625.80,4612.0441236,N,00607.4170590,E,4,10,0.9,368.533,M,49.479,M,0.19,0195*73
$GPVTG,188.1639,T,188.1639,M,1.393,N,2.581,K,D*20
$GPGGA,124626.00,4612.0440489,N,00607.4170355,E,4,10,0.9,368.543,M,49.479,M,0.01,0195*7A
$GPVTG,192.3800,T,192.3800,M,1.376,N,2.550,K,D*27
$GPGGA,124626.40,4612.0439076,N,00607.4169880,E,4,11,0.8,368.544,M,49.479,M,0.00,0195*79
$GPVTG,192.5057,T,192.5057,M,1.312,N,2.431,K,D*23
$RDENS,1837,4598499,PC
$GPGGA,124626.60,4612.0438369,N,00607.4169642,E,4,11,0.8,368.558,M,49.479,M,0.20,0195*78
$GPVTG,195.6769,T,195.6769,M,1.319,N,2.444,K,D*2A
$GPGGA,124627.00,4612.0436962,N,00607.4169128,E,4,11,0.8,368.549,M,49.479,M,0.60,0195*7F
$GPVTG,193.4512,T,193.4512,M,1.294,N,2.398,K,D*28
$GPGGA,124627.20,4612.0436290,N,00607.4168861,E,4,11,0.8,368.551,M,49.479,M,0.80,0195*79
$GPVTG,197.6944,T,197.6944,M,1.258,N,2.332,K,D*28
$RDENS,1838,4598588,PC
$GPGGA,124627.60,4612.0434946,N,00607.4168303,E,4,11,0.8,368.530,M,49.479,M,0.08,0195*77
$GPVTG,193.6611,T,193.6611,M,1.253,N,2.322,K,D*22
$GPGGA,124627.80,4612.0434291,N,00607.4167984,E,4,11,0.8,368.537,M,49.479,M,0.28,0195*77
$GPVTG,200.5435,T,200.5435,M,1.236,N,2.290,K,D*29
$GPGGA,124628.20,4612.0432989,N,00607.4167312,E,4,11,0.8,368.531,M,49.479,M,0.68,0195*71
$GPVTG,199.9279,T,199.9279,M,1.252,N,2.319,K,D*2B
$RDENS,1839,4598678,PC
$GPGGA,124628.40,4612.0432325,N,00607.4166984,E,4,11,0.8,368.527,M,49.479,M,0.12,0195*75
$GPVTG,201.0362,T,201.0362,M,1.154,N,2.138,K,D*2F
$GPGGA,124628.80,4612.0431081,N,00607.4166310,E,4,11,0.8,368.525,M,49.479,M,0.28,0195*7B
$GPVTG,200.4385,T,200.4385,M,1.212,N,2.246,K,D*24
$GPGGA,124629.00,4612.0430490,N,00607.4165949,E,4,11,0.8,368.529,M,49.479,M,0.48,0195*78
$GPVTG,203.4399,T,203.4399,M,1.189,N,2.203,K,D*24
$RDENS,1840,4598767,PC
$GPGGA,124629.40,4612.0429283,N,00607.4165188,E,4,11,0.8,368.528,M,49.479,M,0.88,0195*78
$GPVTG,204.0672,T,204.0672,M,1.170,N,2.168,K,D*2C
$GPGGA,124629.60,4612.0428716,N,00607.4164800,E,4,11,0.8,368.530,M,49.479,M,1.08,0195*7A
$GPVTG,202.8465,T,202.8465,M,1.152,N,2.135,K,D*24
$GPGGA,124630.00,4612.0427604,N,00607.4164005,E,4,11,0.8,368.534,M,49.479,M,1.48,0195*74
$GPVTG,209.1517,T,209.1517,M,1.118,N,2.073,K,D*29
$RDENS,1841,4598855,PC
$GPGGA,124630.20,4612.0427001,N,00607.4163658,E,4,11,0.8,368.519,M,49.479,M,0.09,0195*77
$GPVTG,207.5062,T,207.5062,M,1.118,N,2.073,K,D*29
$GPGGA,124630.40,4612.0426453,N,00607.4163231,E,4,11,0.8,368.542,M,49.479,M,0.02,0195*7D
$GPVTG,207.4632,T,207.4632,M,1.181,N,2.189,K,D*2D
$GPGGA,124630.80,4612.0425370,N,00607.4162352,E,4,11,0.8,368.551,M,49.479,M,0.42,0195*77
$GPVTG,211.6078,T,211.6078,M,1.089,N,2.018,K,D*2D
$RDENS,1842,4598944,PC
$GPGGA,124631.00,4612.0424822,N,00607.4161945,E,4,11,0.8,368.541,M,49.479,M,0.62,0195*7F
$GPVTG,207.0253,T,207.0253,M,1.127,N,2.088,K,D*21
$GPGGA,124631.40,4612.0423760,N,00607.4161104,E,4,11,0.8,368.530,M,49.479,M,1.02,0195*79
$GPVTG,210.8749,T,210.8749,M,1.073,N,1.988,K,D*2B
$GPGGA,124631.60,4612.0423227,N,00607.4160704,E,4,11,0.8,368.548,M,49.479,M,0.16,0195*71
$GPVTG,213.5496,T,213.5496,M,1.060,N,1.964,K,D*2B
$RDENS,1843,4599033,PC
$GPGGA,124632.00,4612.0422215,N,00607.4159796,E,4,11,0.8,368.538,M,49.479,M,0.24,0195*73
$GPVTG,209.6143,T,209.6143,M,1.092,N,2.023,K,D*2F
$GPGGA,124632.20,4612.0421720,N,00607.4159310,E,4,11,0.8,368.535,M,49.479,M,0.44,0195*70
$GPVTG,207.1121,T,207.1121,M,1.120,N,2.076,K,D*27
$GPGGA,124632.60,4612.0420649,N,00607.4158480,E,4,11,0.8,368.520,M,49.479,M,0.01,0195*71
$GPVTG,209.7421,T,209.7421,M,1.075,N,1.992,K,D*26
$RDENS,1844,4599123,PC
$GPGGA,124632.80,4612.0420070,N,00607.4158102,E,4,11,0.8,368.531,M,49.479,M,0.19,0195*75
$GPVTG,203.3400,T,203.3400,M,1.180,N,2.187,K,D*22
$GPGGA,124633.20,4612.0418852,N,00607.4157314,E,4,11,0.8,368.532,M,49.479,M,0.59,0195*70
$GPVTG,205.9057,T,205.9057,M,1.195,N,2.214,K,D*2F
$GPGGA,124633.40,4612.0418245,N,00607.4156965,E,4,11,0.8,368.516,M,49.479,M,0.79,0195*73
$GPVTG,203.9796,T,203.9796,M,1.206,N,2.234,K,D*24
$RDENS,1845,4599212,PC
$GPGGA,124633.80,4612.0417065,N,00607.4156170,E,4,11,0.8,368.523,M,49.479,M,1.19,0195*7D
$GPVTG,206.2772,T,206.2772,M,1.146,N,2.124,K,D*21
$GPGGA,124634.00,4612.0416459,N,00607.4155788,E,4,11,0.8,368.531,M,49.479,M,1.39,0195*7B
$GPVTG,208.1275,T,208.1275,M,1.074,N,1.991,K,D*24
$GPGGA,124634.40,4612.0415356,N,00607.4155010,E,4,11,0.8,368.545,M,49.479,M,1.79,0195*75
$GPVTG,205.8879,T,205.8879,M,1.085,N,2.011,K,D*28
$RDENS,1846,4599301,PC
$GPGGA,124634.60,4612.0414790,N,00607.4154629,E,4,11,0.8,368.534,M,49.479,M,1.99,0195*7D
$GPVTG,205.3940,T,205.3940,M,1.203,N,2.230,K,D*25
$GPGGA,124634.80,4612.0414204,N,00607.4154196,E,4,10,0.9,368.529,M,49.479,M,2.19,0195*7F
$GPVTG,208.5227,T,208.5227,M,1.044,N,1.934,K,D*28
$GPGGA,124635.20,4612.0413129,N,00607.4153427,E,4,10,0.9,368.525,M,49.479,M,0.09,0195*78
$GPVTG,205.2854,T,205.2854,M,1.093,N,2.026,K,D*2B
$RDENS,1847,4599390,PC
$GPGGA,124635.40,4612.0412594,N,00607.4153042,E,4,10,0.9,368.540,M,49.479,M,0.29,0195*7B
$GPVTG,206.9510,T,206.9510,M,1.042,N,1.930,K,D*2A
$GPGGA,124635.80,4612.0411555,N,00607.4152337,E,4,10,0.9,368.537,M,49.479,M,0.69,0195*7D
$GPVTG,204.8654,T,204.8654,M,0.999,N,1.851,K,D*22
$GPGGA,124636.00,4612.0411219,N,00607.4152106,E,4,09,1.0,368.571,M,49.479,M,0.89,0195*75
$GPVTG,207.2742,T,207.2742,M,1.071,N,1.984,K,D*25
$RDENS,1848,4599479,PC
$GPGGA,124636.40,4612.0410025,N,00607.4151188,E,4,08,1.3,368.529,M,49.479,M,1.29,0195*7C
$GPVTG,205.6392,T,205.6392,M,1.040,N,1.928,K,D*21
$GPGGA,124636.60,4612.0409584,N,00607.4150844,E,4,08,1.3,368.541,M,49.479,M,1.49,0195*78
$GPVTG,203.6445,T,203.6445,M,0.946,N,1.753,K,D*2D
$GPGGA,124637.00,4612.0408605,N,00607.4150158,E,4,08,1.3,368.529,M,49.479,M,1.89,0195*72
$GPVTG,207.0092,T,207.0092,M,0.997,N,1.848,K,D*24
$GPGGA,124637.20,4612.0408116,N,00607.4149851,E,4,08,1.3,368.531,M,49.479,M,0.14,0195*71
$RDENS,1849,4599568,PC
$GPVTG,206.8016,T,206.8016,M,0.872,N,1.615,K,D*28
$GPGGA,124637.60,4612.0407194,N,00607.4149148,E,4,08,1.3,368.533,M,49.479,M,0.26,0195*72
$GPVTG,208.6391,T,208.6391,M,0.960,N,1.780,K,D*27
$GPGGA,124637.80,4612.0406748,N,00607.4148848,E,4,08,1.3,368.530,M,49.479,M,0.46,0195*77
$GPVTG,206.8863,T,206.8863,M,0.931,N,1.725,K,D*2C
$GPGGA,124638.20,4612.0405848,N,00607.4148169,E,4,08,1.3,368.539,M,49.479,M,0.86,0195*71
$RDENS,1850,4599657,PC
$GPVTG,205.7418,T,205.7418,M,1.005,N,1.862,K,D*2F
$GPVTG,205.9061,T,205.9061,M,0.868,N,1.609,K,D*2E
$GPGGA,124638.60,4612.0405025,N,00607.4147544,E,4,08,1.3,368.540,M,49.479,M,1.26,0195*77
$GPVTG,206.0868,T,206.0868,M,0.914,N,1.693,K,D*27
$GPGGA,124638.80,4612.0404560,N,00607.4147288,E,4,08,1.3,368.565,M,49.479,M,0.00,0195*79
$GPVTG,195.9986,T,195.9986,M,0.802,N,1.487,K,D*26
$RDENS,1851,4599746,PC
$GPGGA,124639.20,4612.0403580,N,00607.4146864,E,4,08,1.3,368.574,M,49.479,M,0.04,0195*76
$GPVTG,197.5561,T,197.5561,M,1.066,N,1.976,K,D*2E
$GPGGA,124639.40,4612.0403058,N,00607.4146669,E,4,08,1.2,368.536,M,49.479,M,0.16,0195*77
$GPVTG,195.4770,T,195.4770,M,0.860,N,1.593,K,D*26
$GPGGA,124639.80,4612.0402041,N,00607.4146258,E,4,08,1.2,368.545,M,49.479,M,0.19,0195*7F
$GPVTG,195.9417,T,195.9417,M,1.069,N,1.981,K,D*29
$RDENS,1852,4599835,PC
$GPGGA,124640.00,4612.0401493,N,00607.4146152,E,4,08,1.2,368.527,M,49.479,M,0.39,0195*7E
$GPVTG,186.5745,T,186.5745,M,1.007,N,1.867,K,D*28
$GPGGA,124640.40,4612.0400342,N,00607.4145960,E,4,08,1.2,368.524,M,49.479,M,0.79,0195*7D
$GPVTG,185.8023,T,185.8023,M,1.090,N,2.020,K,D*2E
$GPGGA,124640.60,4612.0399752,N,00607.4145832,E,4,08,1.2,368.556,M,49.479,M,0.14,0195*75
$GPVTG,180.6932,T,180.6932,M,1.095,N,2.029,K,D*22
$RDENS,1853,4599924,PC
$GPGGA,124641.00,4612.0398491,N,00607.4145848,E,4,08,1.2,368.565,M,49.479,M,0.26,0195*73
$GPVTG,180.0341,T,180.0341,M,1.174,N,2.176,K,D*27
$GPGGA,124641.20,4612.0397767,N,00607.4145754,E,4,08,1.2,368.551,M,49.479,M,0.46,0195*77
$GPVTG,176.4767,T,176.4767,M,1.153,N,2.138,K,D*28
$GPGGA,124641.60,4612.0396465,N,00607.4145823,E,4,08,1.2,368.549,M,49.479,M,0.19,0195*7F
$GPVTG,179.3819,T,179.3819,M,1.255,N,2.325,K,D*23
$RDENS,1854,4600013,PC
$GPGGA,124641.80,4612.0395794,N,00607.4145802,E,4,08,1.2,368.548,M,49.479,M,0.39,0195*7F
$GPVTG,179.7509,T,179.7509,M,1.152,N,2.134,K,D*25
$GPGGA,124642.20,4612.0394553,N,00607.4145725,E,4,08,1.2,368.526,M,49.479,M,0.79,0195*78
$GPVTG,182.1447,T,182.1447,M,1.071,N,1.985,K,D*24
$GPGGA,124642.40,4612.0393786,N,00607.4145723,E,4,08,1.2,368.536,M,49.479,M,0.99,0195*7A
$GPVTG,183.8551,T,183.8551,M,1.174,N,2.175,K,D*24
$RDENS,1855,4600102,PC
$GPGGA,124642.80,4612.0392348,N,00607.4145460,E,4,08,1.2,368.516,M,49.479,M,0.22,0195*77
$GPVTG,183.6486,T,183.6486,M,1.165,N,2.159,K,D*2A
$GPGGA,124643.00,4612.0391756,N,00607.4145519,E,4,08,1.2,368.518,M,49.479,M,0.42,0195*71
$GPVTG,186.9525,T,186.9525,M,1.088,N,2.016,K,D*22
$GPGGA,124643.20,4612.0391175,N,00607.4145455,E,4,08,1.2,368.527,M,49.479,M,0.62,0195*73
$GPVTG,186.9437,T,186.9437,M,1.133,N,2.100,K,D*25
$RDENS,1856,4600191,PC
$GPGGA,124643.60,4612.0389976,N,00607.4145255,E,4,08,1.2,368.537,M,49.479,M,1.02,0195*75
$GPVTG,186.5055,T,186.5055,M,1.035,N,1.917,K,D*2F
$GPGGA,124643.80,4612.0389448,N,00607.4145230,E,4,08,1.2,368.542,M,49.479,M,0.05,0195*7C
$GPVTG,187.7748,T,187.7748,M,1.150,N,2.131,K,D*22
$GPGGA,124644.20,4612.0388244,N,00607.4144881,E,4,08,1.2,368.548,M,49.479,M,0.45,0195*75
$GPVTG,192.5028,T,192.5028,M,1.119,N,2.074,K,D*2F
$RDENS,1857,4600280,PC
$GPGGA,124644.40,4612.0387738,N,00607.4144944,E,4,08,1.2,368.543,M,49.479,M,0.65,0195*73
$GPVTG,194.4947,T,194.4947,M,1.085,N,2.011,K,D*28
$GPGGA,124644.80,4612.0386534,N,00607.4144631,E,4,08,1.2,368.547,M,49.479,M,1.05,0195*7E
$GPVTG,187.9237,T,187.9237,M,1.082,N,2.004,K,D*2B
$GPGGA,124645.00,4612.0385924,N,00607.4144413,E,4,08,1.2,368.547,M,49.479,M,1.25,0195*79
$GPVTG,185.9901,T,185.9901,M,0.900,N,1.668,K,D*26
$RDENS,1858,4600369,PC
$GPGGA,124645.40,4612.0384853,N,00607.4144154,E,4,08,1.2,368.548,M,49.479,M,1.65,0195*70
$GPVTG,191.8227,T,191.8227,M,1.089,N,2.018,K,D*2D
$GPGGA,124645.60,4612.0384397,N,00607.4144137,E,4,08,1.2,368.564,M,49.479,M,0.02,0195*7A
$GPVTG,199.8993,T,199.8993,M,1.046,N,1.938,K,D*26
$GPGGA,124646.00,4612.0383239,N,00607.4143711,E,4,08,1.2,368.567,M,49.479,M,0.03,0195*7A
$GPVTG,191.2199,T,191.2199,M,0.990,N,1.834,K,D*28
$RDENS,1859,4600458,PC
$GPGGA,124646.20,4612.0382788,N,00607.4143507,E,4,11,0.8,368.575,M,49.479,M,0.23,0195*71
$GPVTG,189.3153,T,189.3153,M,1.045,N,1.936,K,D*2B
$GPGGA,124646.60,4612.0381678,N,00607.4143122,E,4,11,0.8,368.559,M,49.479,M,0.12,0195*77
$GPVTG,194.9626,T,194.9626,M,1.027,N,1.903,K,D*29
$GPGGA,124646.80,4612.0381146,N,00607.4142950,E,4,11,0.8,368.568,M,49.479,M,0.32,0195*7F
$GPVTG,192.8465,T,192.8465,M,1.036,N,1.919,K,D*22
$RDENS,1860,4600547,PC
$GPGGA,124647.20,4612.0380098,N,00607.4142527,E,4,11,0.8,368.557,M,49.479,M,0.72,0195*73
$GPVTG,197.0007,T,197.0007,M,0.952,N,1.763,K,D*2B
$GPGGA,124647.40,4612.0379554,N,00607.4142331,E,4,11,0.8,368.564,M,49.479,M,0.05,0195*77
$GPVTG,191.4486,T,191.4486,M,1.004,N,1.861,K,D*2D
$GPGGA,124647.60,4612.0379016,N,00607.4142162,E,4,11,0.8,368.552,M,49.479,M,0.15,0195*76
$GPVTG,197.8799,T,197.8799,M,0.930,N,1.724,K,D*2C
$RDENS,1861,4600636,PC
$GPGGA,124648.00,4612.0378018,N,00607.4141701,E,4,11,0.8,368.557,M,49.479,M,0.55,0195*71
$GPVTG,198.0562,T,198.0562,M,0.968,N,1.794,K,D*2A
$GPGGA,124648.20,4612.0377606,N,00607.4141571,E,4,11,0.8,368.556,M,49.479,M,0.75,0195*73
$GPVTG,202.2715,T,202.2715,M,0.986,N,1.828,K,D*22
$GPGGA,124648.60,4612.0376612,N,00607.4141069,E,4,11,0.8,368.549,M,49.479,M,0.14,0195*76
$GPVTG,196.2824,T,196.2824,M,0.893,N,1.655,K,D*23
$RDENS,1862,4600725,PC
$GPGGA,124648.80,4612.0376053,N,00607.4140812,E,4,11,0.8,368.556,M,49.479,M,0.34,0195*72
$GPVTG,196.0140,T,196.0140,M,0.885,N,1.640,K,D*20
$GPGGA,124649.20,4612.0375110,N,00607.4140388,E,4,11,0.8,368.545,M,49.479,M,0.74,0195*72
$GPVTG,199.3810,T,199.3810,M,0.843,N,1.562,K,D*29
$GPGGA,124649.40,4612.0374605,N,00607.4140108,E,4,11,0.8,368.565,M,49.479,M,0.15,0195*79
$GPVTG,199.1394,T,199.1394,M,0.936,N,1.734,K,D*2B
$RDENS,1863,4600814,PC
$GPGGA,124649.80,4612.0373606,N,00607.4139616,E,4,11,0.8,368.566,M,49.479,M,0.25,0195*77
$GPVTG,197.9229,T,197.9229,M,0.937,N,1.736,K,D*28
$GPGGA,124650.00,4612.0373256,N,00607.4139426,E,4,11,0.8,368.541,M,49.479,M,0.45,0195*74
$GPVTG,207.3307,T,207.3307,M,0.804,N,1.491,K,D*27
$GPGGA,124650.40,4612.0372405,N,00607.4138855,E,4,11,0.8,368.546,M,49.479,M,0.85,0195*73
$GPVTG,203.9603,T,203.9603,M,0.892,N,1.653,K,D*24
$RDENS,1864,4600903,PC
$GPGGA,124650.60,4612.0371897,N,00607.4138552,E,4,11,0.8,368.556,M,49.479,M,0.10,0195*72
$GPVTG,196.3852,T,196.3852,M,0.843,N,1.561,K,D*2A
$GPGGA,124651.00,4612.0370988,N,00607.4138110,E,4,11,0.8,368.580,M,49.479,M,0.50,0195*76
$GPVTG,201.0591,T,201.0591,M,0.854,N,1.582,K,D*21
$GPGGA,124651.20,4612.0370468,N,00607.4137800,E,4,11,0.8,368.569,M,49.479,M,0.70,0195*75
$GPVTG,205.5678,T,205.5678,M,0.858,N,1.590,K,D*2E
$RDENS,1865,4600992,PC
$GPGGA,124651.60,4612.0369638,N,00607.4137250,E,4,11,0.8,368.541,M,49.479,M,1.10,0195*7C
$GPVTG,203.0608,T,203.0608,M,0.820,N,1.520,K,D*2A
$GPGGA,124651.80,4612.0369131,N,00607.4137040,E,4,11,0.8,368.568,M,49.479,M,0.05,0195*71
$GPVTG,206.3899,T,206.3899,M,0.849,N,1.573,K,D*23
$GPGGA,124652.00,4612.0368717,N,00607.4136748,E,4,11,0.8,368.555,M,49.479,M,0.15,0195*78
$GPVTG,211.8239,T,211.8239,M,0.875,N,1.622,K,D*2B
$RDENS,1866,4601081,PC
$GPGGA,124652.40,4612.0367854,N,00607.4136080,E,4,11,0.8,368.544,M,49.479,M,0.55,0195*7C
$GPVTG,204.3106,T,204.3106,M,0.900,N,1.667,K,D*29
$GPGGA,124652.60,4612.0367386,N,00607.4135806,E,4,11,0.8,368.531,M,49.479,M,0.00,0195*7D
$GPVTG,208.7197,T,208.7197,M,0.803,N,1.489,K,D*29
$GPGGA,124653.00,4612.0366557,N,00607.4135223,E,4,11,0.8,368.534,M,49.479,M,0.40,0195*7D
$GPVTG,204.0887,T,204.0887,M,0.849,N,1.574,K,D*24
$GPGGA,124653.20,4612.0366159,N,00607.4134979,E,4,11,0.8,368.529,M,49.479,M,0.60,0195*7E
$RDENS,1867,4601170,PC
$GPVTG,204.8711,T,204.8711,M,0.898,N,1.665,K,D*2B
$GPGGA,124653.60,4612.0365343,N,00607.4134481,E,4,11,0.8,368.520,M,49.479,M,0.05,0195*70
$GPVTG,200.3519,T,200.3519,M,0.711,N,1.318,K,D*2A
$GPGGA,124653.80,4612.0364850,N,00607.4134201,E,4,11,0.8,368.518,M,49.479,M,0.25,0195*71
$GPVTG,197.2563,T,197.2563,M,0.871,N,1.613,K,D*2D
$GPGGA,124654.20,4612.0363813,N,00607.4133688,E,4,11,0.8,368.502,M,49.479,M,0.65,0195*71
$RDENS,1868,4601259,PC
$GPVTG,198.2167,T,198.2167,M,1.130,N,2.094,K,D*2A
$GPGGA,124654.40,4612.0363289,N,00607.4133415,E,4,11,0.8,368.493,M,49.479,M,0.85,0195*7F
$GPVTG,189.5662,T,189.5662,M,0.948,N,1.756,K,D*26
$GPGGA,124654.80,4612.0362368,N,00607.4133051,E,4,10,0.9,368.536,M,49.479,M,0.19,0195*73
$GPVTG,198.0193,T,198.0193,M,0.833,N,1.545,K,D*2B
$GPGGA,124655.00,4612.0361841,N,00607.4132661,E,4,10,0.9,368.557,M,49.479,M,0.39,0195*78
$RDENS,1869,4601348,PC
$GPVTG,196.8379,T,196.8379,M,0.824,N,1.527,K,D*29
$GPGGA,124655.40,4612.0360909,N,00607.4132172,E,4,10,0.9,368.542,M,49.479,M,0.79,0195*75
$GPVTG,203.0324,T,203.0324,M,0.933,N,1.729,K,D*22
$GPGGA,124655.60,4612.0360347,N,00607.4131973,E,4,10,0.9,368.550,M,49.479,M,0.14,0195*75
$GPVTG,200.8859,T,200.8859,M,0.850,N,1.576,K,D*2E
$GPGGA,124656.00,4612.0359406,N,00607.4131387,E,4,09,0.9,368.505,M,49.479,M,0.54,0195*75
$RDENS,1870,4601437,PC
$GPVTG,200.9861,T,200.9861,M,0.885,N,1.640,K,D*20
$GPGGA,124656.20,4612.0358968,N,00607.4131161,E,4,09,0.9,368.521,M,49.479,M,0.74,0195*7D
$GPVTG,206.0090,T,206.0090,M,0.826,N,1.531,K,D*2C
$GPGGA,124656.60,4612.0358117,N,00607.4130602,E,4,09,0.9,368.518,M,49.479,M,1.14,0195*77
$GPVTG,202.6554,T,202.6554,M,0.810,N,1.500,K,D*2B
$GPGGA,124656.80,4612.0357751,N,00607.4130386,E,4,09,0.9,368.544,M,49.479,M,1.34,0195*70
$RDENS,1871,4601526,PC
$GPVTG,202.7776,T,202.7776,M,0.766,N,1.420,K,D*26
$GPGGA,124657.00,4612.0357366,N,00607.4130161,E,4,09,0.9,368.549,M,49.479,M,1.54,0195*79
$GPVTG,200.5612,T,200.5612,M,0.800,N,1.483,K,D*20
$GPGGA,124657.40,4612.0356579,N,00607.4129647,E,4,09,0.9,368.509,M,49.479,M,0.13,0195*79
$GPVTG,208.1541,T,208.1541,M,0.763,N,1.415,K,D*25
$GPGGA,124657.60,4612.0356240,N,00607.4129451,E,4,09,0.9,368.511,M,49.479,M,0.14,0195*7D
$RDENS,1872,4601615,PC
$GPVTG,194.3196,T,194.3196,M,0.658,N,1.219,K,D*26
$GPGGA,124658.00,4612.0355526,N,00607.4129055,E,4,09,0.9,368.537,M,49.479,M,0.26,0195*75
$GPVTG,208.5971,T,208.5971,M,0.688,N,1.275,K,D*21
$GPGGA,124658.20,4612.0355153,N,00607.4128844,E,4,09,0.9,368.526,M,49.479,M,0.46,0195*7E
$GPVTG,199.8938,T,199.8938,M,0.699,N,1.295,K,D*2F
$GPGGA,124658.60,4612.0354366,N,00607.4128486,E,4,08,1.2,368.544,M,49.479,M,0.09,0195*79
$RDENS,1873,4601704,PC
$GPVTG,200.5404,T,200.5404,M,0.645,N,1.194,K,D*2C
$GPGGA,124658.80,4612.0354054,N,00607.4128131,E,4,08,1.2,368.546,M,49.479,M,0.29,0195*7C
$GPVTG,205.7370,T,205.7370,M,0.784,N,1.452,K,D*2F
$GPGGA,124659.20,4612.0353334,N,00607.4127702,E,4,08,1.2,368.551,M,49.479,M,0.69,0195*7E
$GPVTG,198.9083,T,198.9083,M,0.652,N,1.209,K,D*2D
$GPGGA,124659.40,4612.0352914,N,00607.4127551,E,4,08,1.2,368.521,M,49.479,M,0.89,0195*7C
$RDENS,1874,4601793,PC
$GPVTG,199.4686,T,199.4686,M,0.653,N,1.210,K,D*24
$GPGGA,124659.80,4612.0352229,N,00607.4127099,E,4,08,1.2,368.530,M,49.479,M,1.29,0195*7F
$GPVTG,209.1985,T,209.1985,M,0.727,N,1.347,K,D*25
$GPGGA,124700.00,4612.0351988,N,00607.4126941,E,4,08,1.2,368.533,M,49.479,M,1.49,0195*71
$GPVTG,203.6330,T,203.6330,M,0.575,N,1.066,K,D*20
$GPGGA,124700.40,4612.0351501,N,00607.4126635,E,4,08,1.2,368.541,M,49.479,M,0.14,0195*78
$RDENS,1875,4601882,PC
$GPVTG,202.8389,T,202.8389,M,0.415,N,0.769,K,D*2E
$GPVTG,199.2134,T,199.2134,M,0.463,N,0.859,K,D*23
$GPGGA,124700.80,4612.0350913,N,00607.4126310,E,4,08,1.2,368.542,M,49.479,M,0.54,0195*7F
$GPVTG,201.7603,T,201.7603,M,0.582,N,1.079,K,D*26
$GPGGA,124701.00,4612.0350581,N,00607.4126113,E,4,08,1.2,368.533,M,49.479,M,0.74,0195*74
$GPVTG,197.8932,T,197.8932,M,0.625,N,1.158,K,D*2A
$RDENS,1876,4601971,PC
$GPGGA,124701.40,4612.0349950,N,00607.4125774,E,4,08,1.2,368.545,M,49.479,M,1.14,0195*7A
$GPVTG,203.0089,T,203.0089,M,0.490,N,0.908,K,D*2A
$GPGGA,124701.60,4612.0349698,N,00607.4125544,E,4,08,1.2,368.531,M,49.479,M,0.01,0195*74
$GPVTG,210.9486,T,210.9486,M,0.540,N,1.000,K,D*26
$GPGGA,124702.00,4612.0349223,N,00607.4125195,E,4,08,1.2,368.520,M,49.479,M,0.41,0195*79
$GPVTG,204.2014,T,204.2014,M,0.434,N,0.805,K,D*28
$RDENS,1877,4602060,PC
$GPGGA,124702.20,4612.0348960,N,00607.4124997,E,4,08,1.2,368.533,M,49.479,M,0.61,0195*7D
$GPVTG,203.1299,T,203.1299,M,0.539,N,0.999,K,D*20
$GPGGA,124702.60,4612.0348399,N,00607.4124646,E,4,08,1.2,368.526,M,49.479,M,0.19,0195*7D
$GPVTG,200.6071,T,200.6071,M,0.496,N,0.920,K,D*26
$GPGGA,124702.80,4612.0348145,N,00607.4124505,E,4,08,1.2,368.513,M,49.479,M,0.39,0195*70
