$GPVTG,348.2726,T,348.2726,M,0.335,N,0.620,K,D*27
$GPGGA,135346.40,4612.0867553,N,00607.0235543,E,2,06,2.0,368.418,M,49.483,M,20.62,0195*42
$GPVTG,345.7678,T,345.7678,M,0.343,N,0.635,K,D*22
$GPGGA,135346.80,4612.0867933,N,00607.0235391,E,2,06,2.0,368.409,M,49.483,M,21.02,0195*4A
$GPVTG,342.7219,T,342.7219,M,0.392,N,0.727,K,D*2C
$GPGGA,135347.00,4612.0868113,N,00607.0235274,E,2,06,2.0,368.413,M,49.483,M,21.22,0195*45
$GPVTG,339.6557,T,339.6557,M,0.333,N,0.617,K,D*25
$GPGGA,135347.40,4612.0868454,N,00607.0235112,E,2,06,2.0,368.419,M,49.483,M,21.62,0195*4A
$GPVTG,336.8611,T,336.8611,M,0.362,N,0.670,K,D*20
$GPGGA,135347.60,4612.0868641,N,00607.0235049,E,2,06,2.0,368.426,M,49.483,M,21.82,0195*43
$GPVTG,0.2150,T,0.2150,M,0.383,N,0.710,K,D*28
$GPGGA,135347.80,4612.0868830,N,00607.0235085,E,2,06,2.0,368.433,M,49.483,M,22.02,0195*4A
$GPVTG,11.1526,T,11.1526,M,0.423,N,0.785,K,D*29
$GPGGA,135348.20,4612.0869267,N,00607.0235246,E,2,06,2.0,368.432,M,49.483,M,22.42,0195*4E
$GPVTG,30.1463,T,30.1463,M,0.518,N,0.959,K,D*2F
$RDENS,1454,5002689,PC
$GPGGA,135348.60,4612.0869809,N,00607.0235671,E,2,06,2.0,368.440,M,49.483,M,22.82,0195*41
$GPVTG,37.5134,T,37.5134,M,0.546,N,1.011,K,D*20
$GPGGA,135348.80,4612.0870048,N,00607.0235952,E,2,06,2.0,368.433,M,49.483,M,23.02,0195*49
$GPVTG,38.7453,T,38.7453,M,0.654,N,1.212,K,D*21
$GPGGA,135349.20,4612.0870587,N,00607.0236595,E,2,06,2.0,368.424,M,49.483,M,23.42,0195*42
$GPVTG,39.5060,T,39.5060,M,0.596,N,1.105,K,D*29
$RDENS,1455,5002777,PC
$GPGGA,135349.40,4612.0870854,N,00607.0236947,E,2,06,2.0,368.407,M,49.483,M,23.62,0195*47
$GPVTG,48.5700,T,48.5700,M,0.572,N,1.060,K,D*21
$GPGGA,135349.60,4612.0871126,N,00607.0237251,E,2,06,2.0,368.400,M,49.483,M,23.82,0195*4C
$GPVTG,46.0084,T,46.0084,M,0.625,N,1.158,K,D*2A
$GPGGA,135350.00,4612.0871479,N,00607.0238038,E,2,06,2.0,368.352,M,49.483,M,24.22,0195*42
$GPVTG,46.1898,T,46.1898,M,0.532,N,0.986,K,D*25
$RDENS,1456,5002865,PC
$GPGGA,135350.20,4612.0871634,N,00607.0238358,E,2,06,2.0,368.341,M,49.483,M,24.42,0195*4A
$GPVTG,45.8581,T,45.8581,M,0.470,N,0.870,K,D*2A
$GPGGA,135350.60,4612.0872013,N,00607.0238839,E,2,06,2.0,368.370,M,49.483,M,24.82,0195*4C
$GPVTG,49.7266,T,49.7266,M,0.441,N,0.817,K,D*29
$GPGGA,135350.80,4612.0872203,N,00607.0239045,E,2,06,2.0,368.374,M,49.483,M,25.02,0195*4E
$GPVTG,41.1766,T,41.1766,M,0.486,N,0.901,K,D*24
$RDENS,1457,5002953,PC
$GPGGA,135351.20,4612.0872516,N,00607.0239563,E,2,06,2.0,368.380,M,49.483,M,25.42,0195*48
$GPVTG,51.8599,T,51.8599,M,0.383,N,0.709,K,D*20
$GPGGA,135351.40,4612.0872573,N,00607.0239860,E,2,06,2.0,368.349,M,49.483,M,25.62,0195*44
$GPVTG,42.2916,T,42.2916,M,0.433,N,0.803,K,D*29
$GPGGA,135351.80,4612.0872882,N,00607.0240283,E,2,06,2.0,368.330,M,49.483,M,26.02,0195*49
$GPVTG,48.0818,T,48.0818,M,0.350,N,0.649,K,D*2B
$RDENS,1458,5003040,PC
$GPGGA,135352.00,4612.0873012,N,00607.0240461,E,2,06,2.0,368.332,M,49.483,M,26.22,0195*48
$GPVTG,43.9708,T,43.9708,M,0.341,N,0.631,K,D*24
$GPGGA,135352.40,4612.0873263,N,00607.0240783,E,2,06,2.0,368.343,M,49.483,M,26.62,0195*45
$GPVTG,45.7448,T,45.7448,M,0.299,N,0.554,K,D*20
$GPGGA,135352.60,4612.0873379,N,00607.0240937,E,2,06,2.0,368.357,M,49.483,M,26.82,0195*47
$GPVTG,59.3255,T,59.3255,M,0.264,N,0.489,K,D*23
$RDENS,1459,5003128,PC
$GPGGA,135353.00,4612.0873474,N,00607.0241329,E,2,06,2.0,368.360,M,49.483,M,27.22,0195*41
$GPVTG,47.5729,T,47.5729,M,0.267,N,0.495,K,D*2D
$GPGGA,135353.20,4612.0873590,N,00607.0241462,E,2,06,2.0,368.360,M,49.483,M,0.10,0195*74
$GPVTG,45.2125,T,45.2125,M,0.220,N,0.407,K,D*25
$GPGGA,135353.40,4612.0873722,N,00607.0241569,E,2,06,2.0,368.361,M,49.483,M,0.16,0195*74
$GPVTG,48.5549,T,48.5549,M,0.191,N,0.353,K,D*2A
$RDENS,1460,5003217,PC
$GPGGA,135353.80,4612.0873941,N,00607.0241774,E,2,06,2.0,368.376,M,49.483,M,0.24,0195*7A
$GPVTG,58.5831,T,58.5831,M,0.179,N,0.331,K,D*28
$GPGGA,135354.00,4612.0874009,N,00607.0241886,E,2,06,2.0,368.385,M,49.483,M,0.44,0195*7F
$GPVTG,58.7699,T,58.7699,M,0.171,N,0.317,K,D*24
$GPGGA,135354.40,4612.0874095,N,00607.0242071,E,2,06,2.0,368.405,M,49.483,M,0.84,0195*7E
$GPVTG,65.0428,T,65.0428,M,0.119,N,0.220,K,D*2F
$RDENS,1461,5003304,PC
$GPGGA,135354.60,4612.0874128,N,00607.0242176,E,2,06,2.0,368.397,M,49.483,M,1.04,0195*78
$GPVTG,44.2546,T,44.2546,M,0.146,N,0.270,K,D*20
$GPGGA,135355.00,4612.0874276,N,00607.0242304,E,2,06,2.0,368.405,M,49.483,M,1.44,0195*78
$GPVTG,60.2701,T,60.2701,M,0.115,N,0.213,K,D*23
$GPGGA,135355.20,4612.0874297,N,00607.0242413,E,2,06,2.0,368.404,M,49.483,M,1.64,0195*77
$GPVTG,76.0570,T,76.0570,M,0.128,N,0.237,K,D*2B
$RDENS,1462,5003392,PC
$GPGGA,135355.60,4612.0874324,N,00607.0242565,E,2,06,2.0,368.414,M,49.483,M,2.04,0195*7E
$GPVTG,97.8309,T,97.8309,M,0.089,N,0.165,K,D*25
$GPGGA,135355.80,4612.0874322,N,00607.0242645,E,2,06,2.0,368.423,M,49.483,M,2.24,0195*71
$GPVTG,107.1913,T,107.1913,M,0.100,N,0.185,K,D*2B
$GPGGA,135356.00,4612.0874307,N,00607.0242718,E,2,06,2.0,368.425,M,49.483,M,2.44,0195*74
$GPVTG,87.2161,T,87.2161,M,0.046,N,0.086,K,D*2A
$RDENS,1463,5003480,PC
$GPGGA,135356.40,4612.0874283,N,00607.0242841,E,2,06,2.0,368.409,M,49.483,M,0.04,0195*76
$GPVTG,109.1901,T,109.1901,M,0.064,N,0.119,K,D*2D
$GPGGA,135356.60,4612.0874211,N,00607.0242894,E,2,06,2.0,368.397,M,49.483,M,0.24,0195*75
$GPVTG,131.4757,T,131.4757,M,0.055,N,0.102,K,D*25
$GPGGA,135357.00,4612.0874143,N,00607.0242916,E,2,06,2.0,368.365,M,49.483,M,0.64,0195*74
$GPVTG,187.1080,T,187.1080,M,0.020,N,0.038,K,D*2F
$RDENS,1464,5003569,PC
$GPGGA,135357.20,4612.0874081,N,00607.0242906,E,2,06,2.0,368.343,M,49.483,M,0.84,0195*72
$GPVTG,201.8758,T,201.8758,M,0.129,N,0.240,K,D*2A
$GPGGA,135357.60,4612.0874026,N,00607.0242825,E,2,06,2.0,368.341,M,49.483,M,1.24,0195*72
$GPVTG,204.4012,T,204.4012,M,0.038,N,0.071,K,D*2B
$GPGGA,135357.80,4612.0874070,N,00607.0242762,E,2,06,2.0,368.348,M,49.483,M,1.44,0195*7C
$GPVTG,200.7003,T,200.7003,M,0.042,N,0.078,K,D*2F
$RDENS,1465,5003656,PC
$GPGGA,135358.20,4612.0874005,N,00607.0242733,E,2,06,2.0,368.365,M,49.483,M,1.84,0195*7C
$GPVTG,185.3769,T,185.3769,M,0.099,N,0.183,K,D*2C
$GPGGA,135358.40,4612.0873952,N,00607.0242713,E,2,06,2.0,368.366,M,49.483,M,2.04,0195*7C
$GPVTG,185.7786,T,185.7786,M,0.095,N,0.176,K,D*2A
$GPGGA,135358.80,4612.0873889,N,00607.0242670,E,2,06,2.0,368.361,M,49.483,M,2.44,0195*70
$GPVTG,256.4899,T,256.4899,M,0.060,N,0.112,K,D*22
$RDENS,1466,5003743,PC
$GPGGA,135359.00,4612.0873851,N,00607.0242654,E,2,06,2.0,368.344,M,49.483,M,2.64,0195*7F
$GPVTG,229.0570,T,229.0570,M,0.082,N,0.151,K,D*29
$GPGGA,135359.40,4612.0873704,N,00607.0242592,E,2,06,2.0,368.292,M,49.483,M,3.04,0195*70
$GPVTG,214.2175,T,214.2175,M,0.127,N,0.236,K,D*25
$GPGGA,135359.60,4612.0873640,N,00607.0242558,E,2,06,2.0,368.283,M,49.483,M,3.24,0195*77
$GPVTG,218.1151,T,218.1151,M,0.112,N,0.207,K,D*21
$RDENS,1467,5003830,PC
$GPGGA,135400.00,4612.0873466,N,00607.0242489,E,2,06,2.0,368.299,M,49.483,M,3.64,0195*7E
$GPVTG,216.6891,T,216.6891,M,0.139,N,0.258,K,D*22
$GPGGA,135400.20,4612.0873401,N,00607.0242416,E,2,06,2.0,368.316,M,49.483,M,3.84,0195*73
$GPVTG,224.6072,T,224.6072,M,0.199,N,0.369,K,D*2B
$GPGGA,135400.60,4612.0873219,N,00607.0242219,E,2,06,2.0,368.324,M,49.483,M,4.24,0195*7D
$GPVTG,236.6967,T,236.6967,M,0.169,N,0.313,K,D*29
$RDENS,1468,5003917,PC
$GPGGA,135400.80,4612.0873147,N,00607.0242116,E,2,06,2.0,368.338,M,49.483,M,4.44,0195*7C
$GPVTG,223.8319,T,223.8319,M,0.158,N,0.292,K,D*23
$GPGGA,135401.00,4612.0873075,N,00607.0242047,E,2,06,2.0,368.344,M,49.483,M,4.64,0195*79
$GPVTG,265.1770,T,265.1770,M,0.117,N,0.217,K,D*25
$GPGGA,135401.40,4612.0872933,N,00607.0241923,E,2,06,2.0,368.299,M,49.483,M,5.04,0195*79
$GPVTG,204.1001,T,204.1001,M,0.174,N,0.322,K,D*27
$RDENS,1469,5004004,PC
$GPGGA,135401.60,4612.0872796,N,00607.0241964,E,2,06,2.0,368.282,M,49.483,M,5.24,0195*71
$GPVTG,160.4883,T,160.4883,M,0.219,N,0.406,K,D*2E
$GPGGA,135402.00,4612.0872613,N,00607.0242078,E,2,06,2.0,368.301,M,49.483,M,5.64,0195*71
$GPVTG,157.6341,T,157.6341,M,0.285,N,0.529,K,D*27
$GPGGA,135402.20,4612.0872422,N,00607.0242215,E,2,06,2.0,368.305,M,49.483,M,5.84,0195*70
$GPVTG,145.4271,T,145.4271,M,0.444,N,0.824,K,D*2C
$RDENS,1470,5004091,PC
$GPGGA,135402.60,4612.0871984,N,00607.0242687,E,2,06,2.0,368.322,M,49.483,M,6.24,0195*75
$GPVTG,142.8056,T,142.8056,M,0.556,N,1.030,K,D*22
$GPGGA,135402.80,4612.0871781,N,00607.0242885,E,2,06,2.0,368.351,M,49.483,M,6.44,0195*7E
$GPVTG,142.0483,T,142.0483,M,0.572,N,1.061,K,D*20
$GPGGA,135403.20,4612.0871276,N,00607.0243431,E,2,06,2.0,368.360,M,49.483,M,6.84,0195*74
$GPVTG,142.1086,T,142.1086,M,0.690,N,1.278,K,D*25
$RDENS,1471,5004180,PC
$GPGGA,135403.40,4612.0870973,N,00607.0243842,E,2,06,2.0,368.338,M,49.483,M,7.04,0195*71
$GPVTG,135.9399,T,135.9399,M,0.807,N,1.495,K,D*20
$GPGGA,135403.80,4612.0870297,N,00607.0244815,E,2,06,2.0,368.306,M,49.483,M,7.44,0195*70
$GPVTG,136.0782,T,136.0782,M,0.818,N,1.516,K,D*24
$GPGGA,135404.00,4612.0869944,N,00607.0245355,E,2,06,2.0,368.334,M,49.483,M,0.13,0195*78
$GPVTG,137.0253,T,137.0253,M,0.982,N,1.821,K,D*2F
$RDENS,1472,5004267,PC
$GPGGA,135404.40,4612.0869107,N,00607.0246331,E,2,06,2.0,368.331,M,49.483,M,0.02,0195*77
$GPVTG,143.2593,T,143.2593,M,1.028,N,1.905,K,D*20
$GPGGA,135404.60,4612.0868630,N,00607.0247003,E,2,06,2.0,368.324,M,49.483,M,0.22,0195*72
$GPVTG,144.1520,T,144.1520,M,1.172,N,2.172,K,D*25
$GPGGA,135405.00,4612.0867708,N,00607.0248029,E,2,06,2.0,368.370,M,49.483,M,0.62,0195*72
$GPVTG,139.1894,T,139.1894,M,1.182,N,2.190,K,D*26
$RDENS,1473,5004354,PC
$GPGGA,135405.20,4612.0867118,N,00607.0248791,E,2,06,2.0,368.351,M,49.483,M,0.82,0195*7E
$GPVTG,138.6696,T,138.6696,M,1.268,N,2.349,K,D*27
$GPGGA,135405.40,4612.0866555,N,00607.0249530,E,2,06,2.0,368.326,M,49.483,M,1.02,0195*75
$GPVTG,144.3642,T,144.3642,M,1.435,N,2.659,K,D*2D
$GPGGA,135405.80,4612.0865377,N,00607.0250730,E,2,06,2.0,368.353,M,49.483,M,1.42,0195*70
$GPVTG,143.3048,T,143.3048,M,1.315,N,2.437,K,D*22
$RDENS,1474,5004442,PC
$GPGGA,135406.00,4612.0864708,N,00607.0251457,E,2,06,2.0,368.349,M,49.483,M,1.62,0195*7C
$GPVTG,141.5754,T,141.5754,M,1.436,N,2.662,K,D*26
$GPGGA,135406.40,4612.0863339,N,00607.0252984,E,2,06,2.0,368.304,M,49.483,M,2.02,0195*75
$GPVTG,142.5685,T,142.5685,M,1.491,N,2.762,K,D*2A
$GPGGA,135406.60,4612.0862558,N,00607.0253644,E,2,06,2.0,368.283,M,49.483,M,2.22,0195*79
$GPVTG,145.2712,T,145.2712,M,1.627,N,3.015,K,D*23
$RDENS,1475,5004531,PC
$GPVTG,152.0283,T,152.0283,M,1.583,N,2.933,K,D*22
$GPGGA,135407.20,4612.0860332,N,00607.0255600,E,2,06,2.0,368.307,M,49.483,M,2.82,0195*75
$GPVTG,149.2973,T,149.2973,M,1.721,N,3.190,K,D*28
$GPGGA,135407.40,4612.0859604,N,00607.0256276,E,2,06,2.0,368.337,M,49.483,M,3.02,0195*75
$GPVTG,149.5645,T,149.5645,M,1.601,N,2.967,K,D*2A
$RDENS,1476,5004620,PC
$GPGGA,135407.80,4612.0857995,N,00607.0257585,E,2,06,2.0,368.333,M,49.483,M,3.42,0195*7A
$GPVTG,151.9123,T,151.9123,M,1.650,N,3.059,K,D*2B
$GPGGA,135408.00,4612.0857126,N,00607.0258172,E,2,06,2.0,368.340,M,49.483,M,3.62,0195*78
$GPVTG,155.4719,T,155.4719,M,1.717,N,3.182,K,D*2E
$GPGGA,135408.40,4612.0855358,N,00607.0259484,E,2,05,2.3,368.334,M,49.483,M,4.02,0195*7A
$GPVTG,153.8230,T,153.8230,M,1.848,N,3.425,K,D*23
$GPGGA,135408.60,4612.0854515,N,00607.0260121,E,2,05,2.3,368.337,M,49.483,M,4.22,0195*77
$RDENS,1477,5004710,PC
$GPVTG,156.4300,T,156.4300,M,1.826,N,3.385,K,D*26
$GPGGA,135409.00,4612.0852568,N,00607.0261225,E,2,05,2.3,368.316,M,49.483,M,4.62,0195*7D
$GPVTG,159.0692,T,159.0692,M,1.867,N,3.461,K,D*2E
$GPGGA,135409.20,4612.0851657,N,00607.0261654,E,2,05,2.3,368.341,M,49.483,M,4.82,0195*7D
$GPVTG,156.6996,T,156.6996,M,1.772,N,3.283,K,D*2F
$GPGGA,135409.60,4612.0849588,N,00607.0262745,E,2,05,2.3,368.310,M,49.483,M,5.22,0195*7C
$RDENS,1478,5004801,PC
$GPVTG,163.7803,T,163.7803,M,1.982,N,3.673,K,D*25
$GPGGA,135409.80,4612.0848565,N,00607.0263244,E,2,05,2.3,368.306,M,49.483,M,5.42,0195*74
$GPVTG,167.4674,T,167.4674,M,2.034,N,3.769,K,D*28
$GPGGA,135410.20,4612.0846530,N,00607.0263931,E,2,05,2.3,368.352,M,49.483,M,5.82,0195*7C
$GPVTG,165.0121,T,165.0121,M,1.892,N,3.506,K,D*24
$GPGGA,135410.40,4612.0845462,N,00607.0264258,E,2,05,2.3,368.356,M,49.483,M,6.02,0195*73
$RDENS,1479,5004892,PC
$GPVTG,165.9477,T,165.9477,M,2.013,N,3.731,K,D*20
$GPGGA,135410.80,4612.0843192,N,00607.0265081,E,2,05,2.3,368.310,M,49.483,M,6.42,0195*72
$GPVTG,168.3124,T,168.3124,M,1.994,N,3.695,K,D*2A
$GPGGA,135411.00,4612.0842126,N,00607.0265220,E,2,05,2.3,368.350,M,49.483,M,6.62,0195*7A
$GPVTG,173.0806,T,173.0806,M,2.180,N,4.040,K,D*2D
$GPGGA,135411.40,4612.0839782,N,00607.0265669,E,2,05,2.3,368.364,M,49.483,M,7.02,0195*73
$RDENS,1480,5004982,PC
$GPVTG,171.6957,T,171.6957,M,2.128,N,3.944,K,D*25
$GPGGA,135411.60,4612.0838555,N,00607.0265894,E,2,05,2.3,368.338,M,49.483,M,7.22,0195*7F
$GPVTG,176.1884,T,176.1884,M,2.198,N,4.074,K,D*23
$GPGGA,135411.80,4612.0837350,N,00607.0265950,E,2,05,2.3,368.341,M,49.483,M,7.42,0195*7C
$GPVTG,177.0793,T,177.0793,M,2.133,N,3.952,K,D*28
$GPGGA,135412.20,4612.0834943,N,00607.0266193,E,2,05,2.3,368.333,M,49.483,M,7.82,0195*73
$RDENS,1481,5005071,PC
$GPVTG,176.6091,T,176.6091,M,2.192,N,4.063,K,D*2F
$GPGGA,135412.40,4612.0833729,N,00607.0266146,E,2,05,2.3,368.341,M,49.483,M,8.02,0195*7A
$GPVTG,180.7457,T,180.7457,M,2.226,N,4.126,K,D*23
$GPGGA,135412.80,4612.0831188,N,00607.0265990,E,2,05,2.3,368.355,M,49.483,M,8.42,0195*78
$GPVTG,183.8317,T,183.8317,M,2.294,N,4.252,K,D*2A
$GPGGA,135413.00,4612.0829978,N,00607.0265924,E,2,05,2.3,368.354,M,49.483,M,8.62,0195*73
$RDENS,1482,5005161,PC
$GPVTG,186.3133,T,186.3133,M,2.306,N,4.274,K,D*24
$GPGGA,135413.40,4612.0827417,N,00607.0265521,E,2,05,2.3,368.358,M,49.483,M,9.02,0195*7F
$GPVTG,186.9689,T,186.9689,M,2.248,N,4.167,K,D*2E
$GPGGA,135413.60,4612.0826103,N,00607.0265261,E,2,05,2.3,368.345,M,49.483,M,9.22,0195*71
$GPVTG,189.0149,T,189.0149,M,2.204,N,4.085,K,D*2B
$GPGGA,135414.00,4612.0823651,N,00607.0264649,E,2,05,2.3,368.337,M,49.483,M,9.62,0195*7B
$GPVTG,191.9946,T,191.9946,M,2.279,N,4.224,K,D*28
$RDENS,1483,5005253,PC
$GPGGA,135414.20,4612.0822387,N,00607.0264312,E,2,05,2.3,368.333,M,49.483,M,9.82,0195*77
$GPVTG,195.2455,T,195.2455,M,2.288,N,4.240,K,D*24
$GPGGA,135414.60,4612.0819857,N,00607.0263375,E,2,05,2.3,368.324,M,49.483,M,10.22,0195*4F
$GPVTG,194.0746,T,194.0746,M,2.346,N,4.347,K,D*21
$GPGGA,135414.80,4612.0818612,N,00607.0262882,E,2,05,2.3,368.312,M,49.483,M,10.42,0195*4E
$GPVTG,196.3029,T,196.3029,M,2.384,N,4.418,K,D*22
$RDENS,1484,5005345,PC
$GPGGA,135415.20,4612.0816102,N,00607.0261754,E,2,05,2.3,368.327,M,49.483,M,10.82,0195*40
$GPVTG,196.8091,T,196.8091,M,2.403,N,4.454,K,D*22
$GPGGA,135415.40,4612.0814870,N,00607.0261119,E,2,05,2.3,368.330,M,49.483,M,11.02,0195*48
$GPVTG,198.9106,T,198.9106,M,2.434,N,4.511,K,D*26
$GPGGA,135415.80,4612.0812224,N,00607.0259883,E,2,05,2.3,368.329,M,49.483,M,11.42,0195*44
$GPVTG,199.5382,T,199.5382,M,2.459,N,4.558,K,D*20
$RDENS,1485,5005442,PC
$GPGGA,135416.00,4612.0810968,N,00607.0259182,E,2,05,2.3,368.326,M,49.483,M,11.62,0195*4B
$GPVTG,202.0266,T,202.0266,M,2.473,N,4.582,K,D*2F
$GPGGA,135416.40,4612.0808358,N,00607.0257643,E,2,05,2.3,368.314,M,49.483,M,12.02,0195*4F
$GPVTG,202.2151,T,202.2151,M,2.549,N,4.724,K,D*29
$GPGGA,135416.60,4612.0807081,N,00607.0256825,E,2,05,2.3,368.311,M,49.483,M,12.22,0195*4D
$GPVTG,206.2430,T,206.2430,M,2.564,N,4.752,K,D*27
$RDENS,1486,5005528,PC
$GPGGA,135417.00,4612.0804520,N,00607.0255034,E,2,05,2.3,368.318,M,49.483,M,12.62,0195*41
$GPVTG,206.5874,T,206.5874,M,2.548,N,4.723,K,D*2F
$GPGGA,135417.20,4612.0803150,N,00607.0254081,E,2,05,2.3,368.310,M,49.483,M,12.82,0195*4E
$GPVTG,208.1508,T,208.1508,M,2.592,N,4.804,K,D*22
$GPGGA,135417.40,4612.0801907,N,00607.0253114,E,2,05,2.3,368.312,M,49.483,M,13.02,0195*41
$GPVTG,209.8029,T,209.8029,M,2.662,N,4.934,K,D*2C
$RDENS,1487,5005614,PC
$GPGGA,135417.80,4612.0799335,N,00607.0250950,E,2,05,2.3,368.314,M,49.483,M,13.42,0195*41
$GPVTG,209.7614,T,209.7614,M,2.698,N,5.000,K,D*26
$GPGGA,135418.00,4612.0798017,N,00607.0249834,E,2,05,2.3,368.326,M,49.483,M,13.62,0195*4C
$GPVTG,211.5908,T,211.5908,M,2.859,N,5.298,K,D*26
$GPGGA,135418.40,4612.0795374,N,00607.0247471,E,2,05,2.3,368.338,M,49.483,M,14.02,0195*4E
$GPVTG,212.3519,T,212.3519,M,2.820,N,5.227,K,D*2C
$RDENS,1488,5005700,PC
$GPGGA,135418.60,4612.0794008,N,00607.0246199,E,2,05,2.3,368.334,M,49.483,M,14.22,0195*49
$GPVTG,214.9610,T,214.9610,M,2.922,N,5.415,K,D*28
$GPGGA,135419.00,4612.0791433,N,00607.0243521,E,2,05,2.3,368.350,M,49.483,M,14.62,0195*43
$GPVTG,214.9736,T,214.9736,M,2.854,N,5.289,K,D*2B
$GPGGA,135419.20,4612.0790094,N,00607.0242133,E,2,05,2.3,368.327,M,49.483,M,14.82,0195*41
$GPVTG,218.2744,T,218.2744,M,2.923,N,5.418,K,D*24
$RDENS,1489,5005786,PC
$GPGGA,135419.60,4612.0787489,N,00607.0239191,E,2,05,2.3,368.321,M,49.483,M,15.22,0195*42
$GPVTG,217.6998,T,217.6998,M,2.940,N,5.449,K,D*25
$GPGGA,135419.80,4612.0786253,N,00607.0237738,E,2,05,2.3,368.315,M,49.483,M,15.42,0195*46
$GPVTG,222.1756,T,222.1756,M,2.899,N,5.373,K,D*2E
$GPGGA,135420.20,4612.0783950,N,00607.0234520,E,2,05,2.3,368.336,M,49.483,M,15.82,0195*4E
$GPVTG,222.2645,T,222.2645,M,2.917,N,5.406,K,D*2C
$RDENS,1490,5005872,PC
$GPGGA,135420.40,4612.0782746,N,00607.0232974,E,2,05,2.3,368.327,M,49.483,M,16.02,0195*40
$GPVTG,223.4618,T,223.4618,M,2.896,N,5.368,K,D*2B
$GPGGA,135420.80,4612.0780524,N,00607.0229898,E,2,05,2.3,368.331,M,49.483,M,16.42,0195*42
$GPVTG,225.3558,T,225.3558,M,2.780,N,5.153,K,D*29
$GPGGA,135421.00,4612.0779381,N,00607.0228331,E,2,05,2.3,368.303,M,49.483,M,16.62,0195*4E
$RDENS,1491,5005958,PC
$GPVTG,226.1393,T,226.1393,M,2.746,N,5.088,K,D*24
$GPGGA,135421.40,4612.0777186,N,00607.0225129,E,2,05,2.3,368.304,M,49.483,M,17.02,0195*47
$GPVTG,226.5662,T,226.5662,M,2.746,N,5.089,K,D*25
$GPGGA,135421.60,4612.0776261,N,00607.0223570,E,2,05,2.3,368.314,M,49.483,M,17.22,0195*43
$GPVTG,228.5281,T,228.5281,M,2.615,N,4.846,K,D*28
$GPGGA,135422.00,4612.0774296,N,00607.0220433,E,2,05,2.3,368.309,M,49.483,M,17.62,0195*41
$RDENS,1492,5006043,PC
$GPVTG,226.8858,T,226.8858,M,2.661,N,4.932,K,D*29
$GPGGA,135422.20,4612.0773361,N,00607.0218875,E,2,05,2.3,368.315,M,49.483,M,17.82,0195*4B
$GPVTG,227.7660,T,227.7660,M,2.479,N,4.594,K,D*22
$GPGGA,135422.60,4612.0771533,N,00607.0215908,E,2,05,2.3,368.313,M,49.483,M,18.22,0195*49
$GPVTG,228.0345,T,228.0345,M,2.428,N,4.500,K,D*2B
$GPGGA,135422.80,4612.0770644,N,00607.0214551,E,2,05,2.3,368.298,M,49.483,M,18.42,0195*40
$RDENS,1493,5006129,PC
$GPVTG,227.3379,T,227.3379,M,2.368,N,4.389,K,D*2F
$GPGGA,135423.20,4612.0768753,N,00607.0211824,E,2,05,2.3,368.296,M,49.483,M,18.82,0195*4D
$GPVTG,225.4569,T,225.4569,M,2.334,N,4.325,K,D*20
$GPGGA,135423.40,4612.0767787,N,00607.0210584,E,2,05,2.3,368.290,M,49.483,M,19.02,0195*44
$GPVTG,223.8611,T,223.8611,M,2.221,N,4.117,K,D*26
$GPGGA,135423.80,4612.0765993,N,00607.0208233,E,2,05,2.3,368.287,M,49.483,M,19.42,0195*41
$RDENS,1494,5006216,PC
$GPVTG,223.1637,T,223.1637,M,2.197,N,4.071,K,D*29
$GPGGA,135424.00,4612.0765149,N,00607.0207035,E,2,05,2.3,368.305,M,49.483,M,19.62,0195*43
$GPVTG,221.2906,T,221.2906,M,1.966,N,3.644,K,D*2B
$GPGGA,135424.20,4612.0764300,N,00607.0205998,E,2,05,2.3,368.311,M,49.483,M,19.82,0195*48
$GPVTG,219.1424,T,219.1424,M,2.096,N,3.884,K,D*2C
$GPGGA,135424.60,4612.0762578,N,00607.0204056,E,2,05,2.3,368.315,M,49.483,M,20.22,0195*4D
$RDENS,1495,5006301,PC
$GPVTG,216.7678,T,216.7678,M,1.787,N,3.312,K,D*2C
$GPGGA,135424.80,4612.0761741,N,00607.0203220,E,2,05,2.3,368.309,M,49.483,M,20.42,0195*47
$GPVTG,217.6940,T,217.6940,M,1.775,N,3.290,K,D*2A
$GPGGA,135425.20,4612.0760157,N,00607.0201659,E,2,05,2.3,368.301,M,49.483,M,20.82,0195*40
$GPVTG,214.4263,T,214.4263,M,1.624,N,3.011,K,D*24
$RDENS,1496,5006388,PC
$GPGGA,135425.40,4612.0759414,N,00607.0200898,E,2,05,2.3,368.308,M,49.483,M,21.02,0195*4C
$GPVTG,211.4106,T,211.4106,M,1.597,N,2.959,K,D*2B
$GPGGA,135425.80,4612.0757916,N,00607.0199624,E,2,05,2.3,368.314,M,49.483,M,21.42,0195*42
$GPVTG,211.1515,T,211.1515,M,1.554,N,2.879,K,D*27
$GPGGA,135426.00,4612.0757218,N,00607.0198967,E,2,05,2.3,368.342,M,49.483,M,21.62,0195*44
$GPVTG,207.4242,T,207.4242,M,1.465,N,2.714,K,D*20
$RDENS,1497,5006473,PC
$GPGGA,135426.40,4612.0755778,N,00607.0197956,E,2,05,2.3,368.332,M,49.483,M,22.02,0195*4E
$GPVTG,204.5327,T,204.5327,M,1.406,N,2.605,K,D*24
$GPGGA,135426.60,4612.0755021,N,00607.0197547,E,2,05,2.3,368.331,M,49.483,M,22.22,0195*4A
$GPVTG,201.4355,T,201.4355,M,1.344,N,2.491,K,D*2A
$GPGGA,135427.00,4612.0753675,N,00607.0196778,E,2,05,2.3,368.326,M,49.483,M,22.62,0195*41
$GPVTG,200.4137,T,200.4137,M,1.346,N,2.494,K,D*2D
$RDENS,1498,5006559,PC
$GPGGA,135427.20,4612.0752934,N,00607.0196410,E,2,05,2.3,368.325,M,49.483,M,22.82,0195*48
$GPVTG,197.3135,T,197.3135,M,1.365,N,2.529,K,D*2B
$GPGGA,135427.60,4612.0751506,N,00607.0195769,E,2,05,2.3,368.335,M,49.483,M,23.22,0195*46
$GPVTG,198.3452,T,198.3452,M,1.328,N,2.461,K,D*2F
$GPGGA,135427.80,4612.0750782,N,00607.0195446,E,2,05,2.3,368.331,M,49.483,M,23.42,0195*4B
$GPVTG,198.0576,T,198.0576,M,1.346,N,2.495,K,D*2C
$RDENS,1499,5006645,PC
$GPGGA,135428.20,4612.0749397,N,00607.0194819,E,2,05,2.3,368.340,M,49.483,M,23.82,0195*4B
$GPVTG,194.8299,T,194.8299,M,1.321,N,2.449,K,D*2C
$GPGGA,135428.40,4612.0748690,N,00607.0194513,E,2,05,2.3,368.325,M,49.483,M,24.02,0195*45
$GPVTG,197.4059,T,197.4059,M,1.329,N,2.464,K,D*2B
$GPGGA,135428.80,4612.0747262,N,00607.0193904,E,2,05,2.3,368.317,M,49.483,M,24.42,0195*47
$GPVTG,196.3495,T,196.3495,M,1.299,N,2.407,K,D*24
$RDENS,1500,5006731,PC
$GPVTG,197.4722,T,197.4722,M,1.325,N,2.455,K,D*25
$GPGGA,135429.20,4612.0745854,N,00607.0193339,E,2,05,2.3,368.312,M,49.483,M,24.82,0195*4C
$GPVTG,197.0031,T,197.0031,M,1.250,N,2.317,K,D*27
$GPGGA,135429.40,4612.0745170,N,00607.0193029,E,2,05,2.3,368.318,M,49.483,M,25.02,0195*44
$GPVTG,195.3027,T,195.3027,M,1.241,N,2.299,K,D*20
$RDENS,1501,5006817,PC
$GPGGA,135429.80,4612.0743814,N,00607.0192526,E,2,05,2.3,368.317,M,49.483,M,25.42,0195*45
$GPVTG,195.4854,T,195.4854,M,1.261,N,2.337,K,D*27
$GPGGA,135430.00,4612.0743071,N,00607.0192299,E,2,05,2.3,368.295,M,49.483,M,25.62,0195*44
$GPVTG,194.1445,T,194.1445,M,1.242,N,2.301,K,D*23
$GPGGA,135430.40,4612.0741866,N,00607.0191720,E,2,05,2.3,368.323,M,49.483,M,26.02,0195*41
$GPVTG,196.9441,T,196.9441,M,1.154,N,2.139,K,D*2E
$RDENS,1502,5006903,PC
$GPGGA,135430.60,4612.0741233,N,00607.0191500,E,2,05,2.3,368.316,M,49.483,M,26.22,0195*4D
$GPVTG,192.1199,T,192.1199,M,1.171,N,2.169,K,D*2C
$GPGGA,135431.00,4612.0740008,N,00607.0191130,E,2,05,2.3,368.327,M,49.483,M,26.62,0195*40
$GPVTG,191.5303,T,191.5303,M,1.100,N,2.038,K,D*2F
$GPGGA,135431.20,4612.0739403,N,00607.0190954,E,2,05,2.3,368.334,M,49.483,M,26.82,0195*44
$GPVTG,190.9938,T,190.9938,M,1.057,N,1.959,K,D*21
$RDENS,1503,5006990,PC
$GPGGA,135431.60,4612.0738152,N,00607.0190778,E,2,05,2.3,368.330,M,49.483,M,27.22,0195*4F
$GPVTG,184.0204,T,184.0204,M,1.119,N,2.075,K,D*2E
$GPGGA,135431.80,4612.0737565,N,00607.0190715,E,2,05,2.3,368.325,M,49.483,M,27.42,0195*47
$GPVTG,186.2030,T,186.2030,M,1.048,N,1.942,K,D*25
$GPGGA,135432.20,4612.0736443,N,00607.0190560,E,2,05,2.3,368.348,M,49.483,M,27.82,0195*4D
$GPVTG,181.2344,T,181.2344,M,1.118,N,2.071,K,D*2B
$RDENS,1504,5007077,PC
$GPGGA,135432.40,4612.0735814,N,00607.0190577,E,2,05,2.3,368.340,M,49.483,M,28.02,0195*4F
$GPVTG,182.5909,T,182.5909,M,0.977,N,1.810,K,D*27
$GPGGA,135432.80,4612.0734646,N,00607.0190585,E,2,05,2.3,368.333,M,49.483,M,28.42,0195*46
$GPVTG,179.2608,T,179.2608,M,1.084,N,2.009,K,D*20
$GPGGA,135433.00,4612.0734033,N,00607.0190620,E,2,05,2.3,368.332,M,49.483,M,28.62,0195*44
$GPVTG,178.0062,T,178.0062,M,1.155,N,2.140,K,D*21
$RDENS,1505,5007164,PC
$GPGGA,135433.40,4612.0732848,N,00607.0190663,E,2,05,2.3,368.341,M,49.483,M,29.02,0195*46
$GPVTG,178.4573,T,178.4573,M,1.171,N,2.171,K,D*25
$GPGGA,135433.60,4612.0732277,N,00607.0190642,E,2,05,2.3,368.352,M,49.483,M,0.11,0195*7A
$GPVTG,178.6557,T,178.6557,M,1.167,N,2.163,K,D*21
$GPGGA,135434.00,4612.0730963,N,00607.0190629,E,2,05,2.3,368.349,M,49.483,M,0.51,0195*74
$GPVTG,179.4585,T,179.4585,M,1.260,N,2.336,K,D*27
$RDENS,1506,5007251,PC
$GPGGA,135434.20,4612.0730209,N,00607.0190603,E,2,05,2.3,368.325,M,49.483,M,0.71,0195*71
$GPVTG,184.0676,T,184.0676,M,1.340,N,2.483,K,D*2D
$GPGGA,135434.60,4612.0728751,N,00607.0190385,E,2,05,2.3,368.320,M,49.483,M,1.11,0195*7D
$GPVTG,184.9470,T,184.9470,M,1.370,N,2.539,K,D*2E
$GPGGA,135434.80,4612.0727962,N,00607.0190284,E,2,05,2.3,368.321,M,49.483,M,1.31,0195*71
$GPVTG,188.0620,T,188.0620,M,1.408,N,2.609,K,D*26
$RDENS,1507,5007338,PC
$GPGGA,135435.00,4612.0727176,N,00607.0190143,E,2,05,2.3,368.313,M,49.483,M,1.51,0195*7A
$GPVTG,190.3183,T,190.3183,M,1.540,N,2.853,K,D*2A
$GPGGA,135435.40,4612.0725506,N,00607.0189671,E,2,05,2.3,368.331,M,49.483,M,1.91,0195*7D
$GPVTG,191.0599,T,191.0599,M,1.559,N,2.889,K,D*25
$GPGGA,135435.60,4612.0724672,N,00607.0189387,E,2,05,2.3,368.334,M,49.483,M,2.11,0195*7C
$GPVTG,192.7142,T,192.7142,M,1.566,N,2.902,K,D*2B
$RDENS,1508,5007424,PC
$GPGGA,135436.00,4612.0722995,N,00607.0188745,E,2,05,2.3,368.328,M,49.483,M,2.51,0195*7B
$GPVTG,196.0572,T,196.0572,M,1.583,N,2.934,K,D*25
$GPGGA,135436.20,4612.0722118,N,00607.0188342,E,2,05,2.3,368.330,M,49.483,M,2.71,0195*7C
$GPVTG,197.3121,T,197.3121,M,1.603,N,2.971,K,D*2F
$GPGGA,135436.60,4612.0720390,N,00607.0187587,E,2,05,2.3,368.317,M,49.483,M,3.11,0195*7A
$GPVTG,197.1077,T,197.1077,M,1.625,N,3.011,K,D*25
$RDENS,1509,5007512,PC
$GPGGA,135436.80,4612.0719607,N,00607.0187117,E,2,05,2.3,368.326,M,49.483,M,3.31,0195*78
$GPVTG,199.9652,T,199.9652,M,1.605,N,2.974,K,D*2C
$GPGGA,135437.20,4612.0717931,N,00607.0186187,E,2,05,2.3,368.344,M,49.483,M,3.71,0195*7F
$GPVTG,200.4391,T,200.4391,M,1.608,N,2.981,K,D*2B
$GPGGA,135437.40,4612.0717095,N,00607.0185759,E,2,05,2.3,368.338,M,49.483,M,3.91,0195*7D
$RDENS,1510,5007599,PC
$GPVTG,201.0159,T,201.0159,M,1.510,N,2.798,K,D*27
$GPGGA,135437.80,4612.0715463,N,00607.0184871,E,2,05,2.3,368.330,M,49.483,M,4.31,0195*7F
$GPVTG,201.3981,T,201.3981,M,1.566,N,2.903,K,D*2A
$GPGGA,135438.00,4612.0714668,N,00607.0184360,E,2,05,2.3,368.342,M,49.483,M,4.51,0195*78
$GPVTG,201.2629,T,201.2629,M,1.478,N,2.739,K,D*23
$GPGGA,135438.40,4612.0713183,N,00607.0183501,E,2,05,2.3,368.343,M,49.483,M,4.91,0195*72
$RDENS,1511,5007686,PC
$GPVTG,200.9887,T,200.9887,M,1.454,N,2.695,K,D*2A
$GPGGA,135438.60,4612.0712390,N,00607.0183080,E,2,05,2.3,368.337,M,49.483,M,5.11,0195*77
$GPVTG,202.1267,T,202.1267,M,1.506,N,2.791,K,D*29
$GPGGA,135439.00,4612.0710859,N,00607.0182189,E,2,05,2.3,368.343,M,49.483,M,5.51,0195*72
$GPVTG,202.2744,T,202.2744,M,1.446,N,2.679,K,D*2B
$GPGGA,135439.20,4612.0710128,N,00607.0181794,E,2,05,2.3,368.345,M,49.483,M,5.71,0195*72
$RDENS,1512,5007773,PC
$GPVTG,200.1045,T,200.1045,M,1.398,N,2.592,K,D*29
$GPGGA,135439.60,4612.0708661,N,00607.0180981,E,2,05,2.3,368.337,M,49.483,M,6.11,0195*7E
$GPVTG,201.8246,T,201.8246,M,1.387,N,2.570,K,D*2B
$GPGGA,135439.80,4612.0707932,N,00607.0180566,E,2,05,2.3,368.335,M,49.483,M,6.31,0195*73
$GPVTG,202.9031,T,202.9031,M,1.350,N,2.502,K,D*24
$GPGGA,135440.00,4612.0707240,N,00607.0180137,E,2,05,2.3,368.341,M,49.483,M,6.51,0195*7E
$RDENS,1513,5007860,PC
$GPVTG,202.6787,T,202.6787,M,1.397,N,2.588,K,D*2D
$GPGGA,135440.40,4612.0705840,N,00607.0179308,E,2,05,2.3,368.328,M,49.483,M,6.91,0195*79
$GPVTG,201.7065,T,201.7065,M,1.351,N,2.504,K,D*23
$GPGGA,135440.60,4612.0705181,N,00607.0178873,E,2,05,2.3,368.334,M,49.483,M,7.11,0195*7D
$GPVTG,201.8389,T,201.8389,M,1.358,N,2.517,K,D*28
$GPGGA,135441.00,4612.0703864,N,00607.0178028,E,2,05,2.3,368.343,M,49.483,M,7.51,0195*7C
$RDENS,1514,5007947,PC
$GPVTG,203.5630,T,203.5630,M,1.307,N,2.423,K,D*24
$GPGGA,135441.20,4612.0703165,N,00607.0177680,E,2,05,2.3,368.339,M,49.483,M,7.71,0195*72
$GPVTG,201.5306,T,201.5306,M,1.259,N,2.333,K,D*28
$GPGGA,135441.60,4612.0701848,N,00607.0176960,E,2,05,2.3,368.340,M,49.483,M,8.11,0195*75
$GPVTG,200.1075,T,200.1075,M,1.314,N,2.435,K,D*21
$GPGGA,135441.80,4612.0701159,N,00607.0176655,E,2,05,2.3,368.343,M,49.483,M,8.31,0195*7A
$RDENS,1515,5008034,PC
$GPVTG,199.5430,T,199.5430,M,1.259,N,2.333,K,D*28
$GPGGA,135442.20,4612.0699783,N,00607.0176021,E,2,05,2.3,368.338,M,49.483,M,8.71,0195*7F
$GPVTG,197.0625,T,197.0625,M,1.327,N,2.459,K,D*2B
$GPGGA,135442.40,4612.0699030,N,00607.0175670,E,2,05,2.3,368.337,M,49.483,M,8.91,0195*76
$GPVTG,196.8927,T,196.8927,M,1.455,N,2.696,K,D*28
$GPGGA,135442.80,4612.0697474,N,00607.0175019,E,2,05,2.3,368.326,M,49.483,M,9.31,0195*72
$RDENS,1516,5008121,PC
$GPVTG,198.1812,T,198.1812,M,1.410,N,2.613,K,D*24
$GPGGA,135443.00,4612.0696703,N,00607.0174623,E,2,05,2.3,368.335,M,49.483,M,9.51,0195*73
$GPVTG,199.7631,T,199.7631,M,1.564,N,2.899,K,D*2A
$GPGGA,135443.40,4612.0695021,N,00607.0173795,E,2,05,2.3,368.351,M,49.483,M,9.91,0195*76
$GPVTG,198.2769,T,198.2769,M,1.613,N,2.989,K,D*29
$GPGGA,135443.60,4612.0694130,N,00607.0173340,E,2,05,2.3,368.360,M,49.483,M,10.11,0195*4A
$RDENS,1517,5008208,PC
$GPVTG,201.7678,T,201.7678,M,1.823,N,3.379,K,D*20
$GPGGA,135444.00,4612.0692234,N,00607.0172240,E,2,05,2.3,368.352,M,49.483,M,10.51,0195*4F
$GPVTG,201.0250,T,201.0250,M,1.926,N,3.570,K,D*2B
$GPGGA,135444.20,4612.0691289,N,00607.0171639,E,2,05,2.3,368.342,M,49.483,M,10.71,0195*42
$GPVTG,205.3979,T,205.3979,M,1.968,N,3.646,K,D*27
$GPGGA,135444.60,4612.0689292,N,00607.0170177,E,2,05,2.3,368.342,M,49.483,M,11.11,0195*4E
$RDENS,1518,5008295,PC
$GPVTG,205.5168,T,205.5168,M,2.103,N,3.897,K,D*23
$GPGGA,135444.80,4612.0688222,N,00607.0169338,E,2,05,2.3,368.335,M,49.483,M,11.31,0195*49
$GPVTG,209.1041,T,209.1041,M,2.165,N,4.013,K,D*20
$GPGGA,135445.00,4612.0687156,N,00607.0168479,E,2,05,2.3,368.344,M,49.483,M,11.51,0195*4C
$GPVTG,211.7079,T,211.7079,M,2.295,N,4.254,K,D*2D
$RDENS,1519,5008382,PC
$GPGGA,135445.40,4612.0685058,N,00607.0166463,E,2,05,2.3,368.345,M,49.483,M,11.91,0195*4D
$GPVTG,214.2962,T,214.2962,M,2.287,N,4.239,K,D*25
$GPGGA,135445.60,4612.0683904,N,00607.0165442,E,2,05,2.3,368.343,M,49.483,M,12.11,0195*44
$GPVTG,214.4121,T,214.4121,M,2.420,N,4.485,K,D*2F
$GPGGA,135446.00,4612.0681722,N,00607.0163200,E,2,05,2.3,368.344,M,49.483,M,12.51,0195*4C
$GPVTG,216.9872,T,216.9872,M,2.473,N,4.583,K,D*2E
$RDENS,1520,5008470,PC
$GPGGA,135446.20,4612.0680672,N,00607.0161993,E,2,05,2.3,368.361,M,49.483,M,12.71,0195*4D
$GPVTG,218.1316,T,218.1316,M,2.501,N,4.635,K,D*24
$GPGGA,135446.60,4612.0678490,N,00607.0159546,E,2,05,2.3,368.366,M,49.483,M,13.11,0195*4F
$GPVTG,218.1149,T,218.1149,M,2.429,N,4.501,K,D*2B
$GPGGA,135446.80,4612.0677369,N,00607.0158317,E,2,05,2.3,368.363,M,49.483,M,13.31,0195*4B
$GPVTG,218.9259,T,218.9259,M,2.456,N,4.552,K,A*20
$GPVTG,218.8504,T,218.8504,M,2.504,N,4.641,K,A*27
$RDENS,1521,5008558,PC
$GPVTG,218.2058,T,218.2058,M,2.480,N,4.596,K,A*23
$GPVTG,218.2857,T,218.2857,M,2.447,N,4.535,K,A*21
$GPVTG,217.5116,T,217.5116,M,2.488,N,4.611,K,A*27
$GPVTG,216.9503,T,216.9503,M,2.424,N,4.493,K,A*29
$GPVTG,216.9957,T,216.9957,M,2.421,N,4.487,K,A*29
$RDENS,1522,5008646,PC
$GPVTG,215.5014,T,215.5014,M,2.466,N,4.570,K,A*23
$GPVTG,214.0125,T,214.0125,M,2.376,N,4.403,K,A*20
$GPVTG,214.0603,T,214.0603,M,2.422,N,4.489,K,A*24
$GPVTG,212.3204,T,212.3204,M,2.471,N,4.580,K,A*2A
$RDENS,1523,5008734,PC
$GPVTG,212.0604,T,212.0604,M,2.337,N,4.331,K,A*23
$GPVTG,212.3708,T,212.3708,M,2.385,N,4.421,K,A*2C
$GPVTG,209.9738,T,209.9738,M,2.335,N,4.328,K,A*29
$GPVTG,209.0563,T,209.0563,M,2.405,N,4.458,K,A*2D
$RDENS,1524,5008822,PC
$GPVTG,210.3555,T,210.3555,M,2.242,N,4.155,K,A*20
$GPVTG,208.5753,T,208.5753,M,2.323,N,4.305,K,A*21
$GPVTG,210.0750,T,210.0750,M,2.305,N,4.272,K,A*24
$GPVTG,208.3429,T,208.3429,M,2.247,N,4.163,K,A*20
$GPVTG,208.5109,T,208.5109,M,2.208,N,4.092,K,A*24
$RDENS,1525,5008910,PC
$GPVTG,207.4529,T,207.4529,M,2.194,N,4.066,K,A*29
$GPVTG,207.3135,T,207.3135,M,2.171,N,4.023,K,A*23
$GPVTG,205.4839,T,205.4839,M,2.107,N,3.904,K,A*29
$GPVTG,202.7215,T,202.7215,M,2.153,N,3.989,K,A*2D
$RDENS,1526,5008998,PC
$GPVTG,204.7962,T,204.7962,M,2.142,N,3.970,K,A*2B
$GPVTG,202.9717,T,202.9717,M,2.125,N,3.938,K,A*26
$GPVTG,199.9412,T,199.9412,M,2.147,N,3.979,K,A*27
$GPVTG,201.7516,T,201.7516,M,2.074,N,3.845,K,A*28
$GPVTG,201.7204,T,201.7204,M,2.151,N,3.986,K,A*20
$RDENS,1527,5009086,PC
$GPVTG,199.9673,T,199.9673,M,2.205,N,4.086,K,A*2C
$GPVTG,200.5681,T,200.5681,M,2.203,N,4.082,K,A*2E
$GPVTG,201.8111,T,201.8111,M,2.224,N,4.121,K,A*23
$GPVTG,201.6179,T,201.6179,M,2.307,N,4.276,K,A*22
$RDENS,1528,5009174,PC
$GPVTG,203.4100,T,203.4100,M,2.322,N,4.302,K,A*27
$GPVTG,204.4841,T,204.4841,M,2.398,N,4.444,K,A*23
$GPVTG,204.0621,T,204.0621,M,2.473,N,4.582,K,A*2A
$GPVTG,205.5694,T,205.5694,M,2.487,N,4.609,K,A*21
$RDENS,1529,5009262,PC
$GPVTG,205.5104,T,205.5104,M,2.553,N,4.731,K,A*23
$GPVTG,207.0307,T,207.0307,M,2.527,N,4.683,K,A*28
$GPVTG,208.3742,T,208.3742,M,2.578,N,4.778,K,A*27
$GPVTG,208.5641,T,208.5641,M,2.605,N,4.828,K,A*24
$GPVTG,209.5178,T,209.5178,M,2.591,N,4.803,K,A*23
$RDENS,1530,5009350,PC
$GPVTG,210.7559,T,210.7559,M,2.627,N,4.868,K,A*20
$GPVTG,208.8450,T,208.8450,M,2.578,N,4.778,K,A*27
$GPVTG,210.6819,T,210.6819,M,2.489,N,4.613,K,A*24
$GPVTG,210.0270,T,210.0270,M,2.774,N,5.141,K,A*24
$RDENS,1531,5009438,PC
$GPVTG,210.2640,T,210.2640,M,2.499,N,4.631,K,A*25
$GPVTG,209.7471,T,209.7471,M,2.576,N,4.774,K,A*25
$GPVTG,209.8954,T,209.8954,M,2.588,N,4.796,K,A*28
$GPVTG,210.7389,T,210.7389,M,2.426,N,4.497,K,A*2F
$GPVTG,209.6249,T,209.6249,M,2.560,N,4.744,K,A*21
$RDENS,1532,5009526,PC
$GPVTG,210.7584,T,210.7584,M,2.369,N,4.391,K,A*22
$GPVTG,211.3987,T,211.3987,M,2.281,N,4.227,K,A*29
$GPVTG,209.2465,T,209.2465,M,2.357,N,4.367,K,A*26
$GPVTG,207.9595,T,207.9595,M,2.286,N,4.237,K,A*2F
$RDENS,1533,5009614,PC
$GPVTG,207.3494,T,207.3494,M,2.210,N,4.095,K,A*2A
$GPVTG,204.9794,T,204.9794,M,2.246,N,4.162,K,A*20
$GPVTG,205.4155,T,205.4155,M,2.161,N,4.005,K,A*26
$GPVTG,204.6490,T,204.6490,M,2.113,N,3.917,K,A*2E
$RDENS,1534,5009702,PC
$GPVTG,201.8800,T,201.8800,M,2.071,N,3.838,K,A*27
$GPVTG,200.0331,T,200.0331,M,2.043,N,3.786,K,A*2C
$GPVTG,200.4138,T,200.4138,M,2.119,N,3.927,K,A*27
$GPVTG,196.7822,T,196.7822,M,2.013,N,3.730,K,A*24
$GPVTG,196.9147,T,196.9147,M,2.007,N,3.720,K,A*20
$RDENS,1535,5009790,PC
$GPVTG,195.5737,T,195.5737,M,1.923,N,3.564,K,A*2E
$GPVTG,195.5449,T,195.5449,M,2.134,N,3.955,K,A*2D
$GPVTG,195.6422,T,195.6422,M,1.992,N,3.692,K,A*2E
$GPVTG,195.9529,T,195.9529,M,2.119,N,3.928,K,A*28
$RDENS,1536,5009878,PC
$GPVTG,194.0310,T,194.0310,M,2.100,N,3.892,K,A*20
$GPVTG,194.9720,T,194.9720,M,2.125,N,3.939,K,A*27
$GPVTG,194.0665,T,194.0665,M,1.980,N,3.670,K,A*21
$GPVTG,194.4405,T,194.4405,M,2.167,N,4.017,K,A*23
$GPVTG,194.1749,T,194.1749,M,2.016,N,3.736,K,A*27
$RDENS,1537,5009966,PC
$GPVTG,195.1112,T,195.1112,M,2.073,N,3.841,K,A*2B
$GPVTG,193.5817,T,193.5817,M,2.090,N,3.874,K,A*20
$GPVTG,194.2170,T,194.2170,M,2.063,N,3.823,K,A*2E
$GPVTG,193.9196,T,193.9196,M,2.099,N,3.890,K,A*23
$RDENS,1538,5010054,PC
$GPVTG,194.6195,T,194.6195,M,2.091,N,3.876,K,A*23
$GPVTG,193.8694,T,193.8694,M,2.117,N,3.923,K,A*2D
$GPVTG,193.3453,T,193.3453,M,2.169,N,4.020,K,A*29
$GPVTG,195.5653,T,195.5653,M,2.064,N,3.825,K,A*2F
$GPVTG,196.2201,T,196.2201,M,1.998,N,3.703,K,A*2D
$RDENS,1539,5010142,PC
$GPVTG,197.3740,T,197.3740,M,1.989,N,3.686,K,A*21
$GPVTG,198.5789,T,198.5789,M,2.024,N,3.751,K,A*27
$GPVTG,200.3129,T,200.3129,M,1.876,N,3.476,K,A*2D
$GPVTG,201.6054,T,201.6054,M,1.946,N,3.606,K,A*2A
$RDENS,1540,5010230,PC
$GPVTG,204.5452,T,204.5452,M,1.846,N,3.421,K,A*2C
$GPVTG,205.8712,T,205.8712,M,1.826,N,3.385,K,A*23
$GPVTG,204.0243,T,204.0243,M,1.765,N,3.271,K,A*21
$GPVTG,206.3900,T,206.3900,M,1.794,N,3.325,K,A*2F
$RDENS,1541,5010318,PC
$GPVTG,205.9236,T,205.9236,M,1.769,N,3.278,K,A*24
$GPVTG,207.6312,T,207.6312,M,1.720,N,3.188,K,A*25
$GPVTG,209.3794,T,209.3794,M,1.718,N,3.184,K,A*22
$GPVTG,208.5061,T,208.5061,M,1.660,N,3.076,K,A*20
$GPVTG,209.0387,T,209.0387,M,1.680,N,3.114,K,A*2B
$RDENS,1542,5010406,PC
$GPVTG,208.4753,T,208.4753,M,1.744,N,3.232,K,A*25
$GPVTG,211.3574,T,211.3574,M,1.696,N,3.143,K,A*2E
$GPVTG,212.7838,T,212.7838,M,1.599,N,2.963,K,A*29
$GPVTG,209.7517,T,209.7517,M,1.742,N,3.228,K,A*28
$RDENS,1543,5010494,PC
$GPVTG,213.9238,T,213.9238,M,1.554,N,2.880,K,A*24
$GPVTG,212.2584,T,212.2584,M,1.685,N,3.123,K,A*2A
$GPVTG,212.1294,T,212.1294,M,1.613,N,2.989,K,A*2C
$GPVTG,215.2702,T,215.2702,M,1.636,N,3.031,K,A*20
$RDENS,1544,5010582,PC
$GPVTG,216.0859,T,216.0859,M,1.725,N,3.196,K,A*2F
$GPVTG,217.6638,T,217.6638,M,1.679,N,3.111,K,A*28
$GPVTG,213.8623,T,213.8623,M,1.737,N,3.220,K,A*22
$GPVTG,217.1962,T,217.1962,M,1.824,N,3.381,K,A*25
$GPVTG,217.8013,T,217.8013,M,1.785,N,3.308,K,A*20
$RDENS,1545,5010670,PC
$GPVTG,215.3942,T,215.3942,M,1.911,N,3.541,K,A*28
$GPVTG,219.2675,T,219.2675,M,1.806,N,3.347,K,A*2F
$GPVTG,216.5621,T,216.5621,M,1.864,N,3.454,K,A*2E
$GPVTG,214.5279,T,214.5279,M,2.002,N,3.709,K,A*2E
$RDENS,1546,5010758,PC
$GPVTG,217.6788,T,217.6788,M,1.862,N,3.450,K,A*2C
$GPVTG,217.4243,T,217.4243,M,2.033,N,3.767,K,A*24
$GPVTG,219.6534,T,219.6534,M,1.963,N,3.638,K,A*20
$GPVTG,218.0385,T,218.0385,M,1.990,N,3.688,K,A*27
$GPVTG,218.8330,T,218.8330,M,1.892,N,3.507,K,A*20
$RDENS,1547,5010846,PC
$GPVTG,217.3423,T,217.3423,M,1.986,N,3.680,K,A*28
$GPVTG,219.3146,T,219.3146,M,2.008,N,3.721,K,A*2E
$GPVTG,220.1806,T,220.1806,M,1.931,N,3.578,K,A*20
$GPVTG,220.4027,T,220.4027,M,1.826,N,3.384,K,A*22
$RDENS,1548,5010934,PC
$GPVTG,219.8808,T,219.8808,M,1.853,N,3.434,K,A*2C
$GPVTG,221.9709,T,221.9709,M,1.841,N,3.413,K,A*2A
$GPVTG,221.0437,T,221.0437,M,1.753,N,3.249,K,A*2F
$GPVTG,219.8522,T,219.8522,M,1.716,N,3.181,K,A*29
$RDENS,1549,5011022,PC
$GPVTG,219.4205,T,219.4205,M,1.876,N,3.477,K,A*2C
$GPVTG,218.1492,T,218.1492,M,1.605,N,2.975,K,A*28
$GPVTG,222.2322,T,222.2322,M,1.635,N,3.031,K,A*23
$GPVTG,214.9670,T,214.9670,M,1.731,N,3.208,K,A*2E
$GPVTG,219.1735,T,219.1735,M,1.669,N,3.094,K,A*25
$RDENS,1550,5011110,PC
$GPVTG,215.2375,T,215.2375,M,1.626,N,3.013,K,A*21
$GPVTG,210.0208,T,210.0208,M,1.699,N,3.149,K,A*2B
$GPVTG,216.0743,T,216.0743,M,1.682,N,3.118,K,A*25
$GPVTG,210.0463,T,210.0463,M,1.531,N,2.837,K,A*2B
$RDENS,1551,5011198,PC
$GPVTG,208.6521,T,208.6521,M,1.572,N,2.913,K,A*2B
$GPVTG,208.3424,T,208.3424,M,1.389,N,2.573,K,A*23
$GPVTG,202.2015,T,202.2015,M,1.653,N,3.063,K,A*24
$GPVTG,206.1559,T,206.1559,M,1.396,N,2.587,K,A*26
$GPVTG,203.0362,T,203.0362,M,1.349,N,2.500,K,A*2B
$RDENS,1552,5011286,PC
$GPVTG,201.7447,T,201.7447,M,1.344,N,2.491,K,A*2F
$GPVTG,199.5225,T,199.5225,M,1.534,N,2.843,K,A*2D
$GPVTG,203.5826,T,203.5826,M,1.367,N,2.533,K,A*27
$GPVTG,196.7898,T,196.7898,M,1.484,N,2.751,K,A*2B
$RDENS,1553,5011374,PC
$GPVTG,196.1686,T,196.1686,M,1.281,N,2.374,K,A*2B
$GPVTG,195.8424,T,195.8424,M,1.372,N,2.543,K,A*24
$GPVTG,194.8511,T,194.8511,M,1.468,N,2.721,K,A*2E
$GPVTG,196.0316,T,196.0316,M,1.293,N,2.396,K,A*24
$RDENS,1554,5011462,PC
$GPVTG,193.3472,T,193.3472,M,1.217,N,2.255,K,A*26
$GPVTG,195.9953,T,195.9953,M,1.382,N,2.561,K,A*2B
$GPVTG,190.1315,T,190.1315,M,1.388,N,2.572,K,A*23
$GPVTG,189.9848,T,189.9848,M,1.157,N,2.143,K,A*25
$GPVTG,191.3563,T,191.3563,M,1.352,N,2.506,K,A*27
$RDENS,1555,5011548,PC
$GPVTG,190.2300,T,190.2300,M,1.236,N,2.291,K,A*2D
$GPVTG,190.1355,T,190.1355,M,1.227,N,2.274,K,A*26
$GPVTG,189.4039,T,189.4039,M,1.243,N,2.304,K,A*22
$GPVTG,191.1239,T,191.1239,M,1.189,N,2.203,K,A*21
$RDENS,1556,5011635,PC
$GPVTG,189.1678,T,189.1678,M,1.199,N,2.223,K,A*22
$GPVTG,192.7585,T,192.7585,M,1.110,N,2.057,K,A*22
$GPVTG,192.6961,T,192.6961,M,1.229,N,2.277,K,A*2B
$GPVTG,194.7610,T,194.7610,M,0.915,N,1.696,K,A*26
$RDENS,1557,5011721,PC
$GPVTG,188.7944,T,188.7944,M,0.965,N,1.788,K,A*2F
$GPVTG,192.6293,T,192.6293,M,0.941,N,1.744,K,A*29
$GPVTG,204.5198,T,204.5198,M,0.737,N,1.365,K,A*21
$GPVTG,201.1010,T,201.1010,M,0.906,N,1.679,K,A*25
$GPVTG,206.8945,T,206.8945,M,0.874,N,1.619,K,A*27
$RDENS,1558,5011807,PC
$GPVTG,209.2782,T,209.2782,M,0.662,N,1.227,K,A*27
$GPVTG,202.0120,T,202.0120,M,0.871,N,1.615,K,A*2E
$GPVTG,217.3399,T,217.3399,M,0.743,N,1.377,K,A*21
$GPVTG,225.6368,T,225.6368,M,0.623,N,1.155,K,A*24
$RDENS,1559,5011894,PC
$GPVTG,208.0859,T,208.0859,M,0.812,N,1.505,K,A*29
$GPVTG,221.5335,T,221.5335,M,0.796,N,1.475,K,A*2C
$GPVTG,254.9739,T,254.9739,M,0.489,N,0.905,K,A*2A
$GPVTG,219.6149,T,219.6149,M,0.675,N,1.251,K,A*20
$RDENS,1560,5011980,PC
$GPVTG,241.7391,T,241.7391,M,0.429,N,0.795,K,A*27
$GPVTG,220.3189,T,220.3189,M,0.701,N,1.298,K,A*27
$GPVTG,239.9494,T,239.9494,M,0.539,N,0.998,K,A*24
$GPVTG,237.1421,T,237.1421,M,0.584,N,1.082,K,A*21
$GPVTG,235.1877,T,235.1877,M,0.617,N,1.143,K,A*24
$RDENS,1561,5012066,PC
$GPVTG,243.9963,T,243.9963,M,0.574,N,1.064,K,A*26
$GPVTG,256.6818,T,256.6818,M,0.462,N,0.857,K,A*29
$GPVTG,223.1559,T,223.1559,M,0.524,N,0.972,K,A*2C
$GPVTG,237.3958,T,237.3958,M,0.298,N,0.552,K,A*22
$GPVTG,226.1423,T,226.1423,M,0.356,N,0.660,K,A*23
$RDENS,1562,5012162,PC
$GPVTG,217.6770,T,217.6770,M,0.349,N,0.647,K,A*28
$RDENS,1563,5012259,PC
$RDENS,1564,5012357,PC
$RDENS,1565,5012442,PC
$RDENS,1566,5012531,PC
$RDENS,1567,5012620,PC
$RDENS,1568,5012709,PC
$RDENS,1569,5012798,PC
$GPVTG,245.0216,T,245.0216,M,0.719,N,1.332,K,A*2F
$GPVTG,230.8032,T,230.8032,M,0.826,N,1.531,K,A*29
$GPVTG,234.4495,T,234.4495,M,0.655,N,1.213,K,A*24
$GPVTG,217.2310,T,217.2310,M,1.046,N,1.938,K,A*23
$GPVTG,286.2092,T,286.2092,M,0.891,N,1.651,K,A*20
$RDENS,1570,5012887,PC
$GPVTG,210.0457,T,210.0457,M,1.215,N,2.251,K,A*20
$GPVTG,288.1519,T,288.1519,M,0.764,N,1.417,K,A*25
$GPVTG,219.7480,T,219.7480,M,1.014,N,1.880,K,A*26
$GPVTG,268.0327,T,268.0327,M,0.812,N,1.504,K,A*28
$RDENS,1571,5012976,PC
$GPVTG,229.0011,T,229.0011,M,0.762,N,1.412,K,A*26
