$GPGGA,131306.60,4612.1065492,N,00607.2902429,E,4,04,4.5,368.687,M,49.481,M,1.52,0083*70
$GPVTG,26.4352,T,26.4352,M,0.456,N,0.844,K,D*29
$GPGGA,131306.80,4612.1065650,N,00607.2902631,E,4,04,4.5,368.667,M,49.481,M,1.72,0083*75
$GPVTG,31.2100,T,31.2100,M,0.312,N,0.579,K,D*2D
$GPGGA,131307.20,4612.1065940,N,00607.2902922,E,4,04,4.5,368.635,M,49.481,M,2.12,0083*7F
$GPVTG,56.1532,T,56.1532,M,0.281,N,0.520,K,D*2A
$GPGGA,131307.40,4612.1065975,N,00607.2903141,E,4,04,4.5,368.654,M,49.481,M,2.32,0083*76
$GPVTG,58.2615,T,58.2615,M,0.273,N,0.506,K,D*23
$GPGGA,131307.80,4612.1066065,N,00607.2903503,E,4,04,4.5,368.658,M,49.481,M,2.72,0083*7B
$GPVTG,71.9561,T,71.9561,M,0.211,N,0.392,K,D*2C
$GPGGA,131308.00,4612.1066110,N,00607.2903674,E,4,04,4.5,368.657,M,49.481,M,2.92,0083*7D
$RDENS,3649,4758644,PC
$GPVTG,46.9290,T,46.9290,M,0.235,N,0.435,K,D*20
$GPGGA,131308.40,4612.1066305,N,00607.2903927,E,4,04,4.5,368.611,M,49.481,M,3.32,0083*7F
$GPVTG,20.8632,T,20.8632,M,0.265,N,0.491,K,D*2B
$GPGGA,131308.60,4612.1066267,N,00607.2904105,E,4,04,4.5,368.628,M,49.481,M,3.52,0083*7B
$GPVTG,100.6898,T,100.6898,M,0.156,N,0.288,K,D*26
$RDENS,3650,4758731,PC
$GPGGA,131308.80,4612.1066291,N,00607.2904201,E,4,04,4.5,368.624,M,49.481,M,3.72,0083*75
$GPVTG,63.6676,T,63.6676,M,0.147,N,0.273,K,D*22
$GPGGA,131309.20,4612.1066198,N,00607.2904497,E,4,04,4.5,368.645,M,49.481,M,4.12,0083*7B
$GPVTG,134.7053,T,134.7053,M,0.328,N,0.607,K,D*2E
$GPGGA,131309.40,4612.1066169,N,00607.2904599,E,4,04,4.5,368.638,M,49.481,M,4.32,0083*74
$GPVTG,125.7303,T,125.7303,M,0.334,N,0.619,K,D*2C
$RDENS,3651,4758817,PC
$GPGGA,131309.80,4612.1066116,N,00607.2904864,E,4,04,4.5,368.603,M,49.481,M,4.72,0083*73
$GPVTG,102.8053,T,102.8053,M,0.128,N,0.238,K,D*24
$GPGGA,131310.00,4612.1066045,N,00607.2904972,E,4,04,4.5,368.605,M,49.481,M,4.92,0083*7A
$GPVTG,142.1347,T,142.1347,M,0.210,N,0.389,K,D*27
$GPGGA,131310.40,4612.1065911,N,00607.2905125,E,4,04,4.5,368.597,M,49.481,M,5.32,0083*7D
$GPVTG,143.4703,T,143.4703,M,0.061,N,0.113,K,D*22
$RDENS,3652,4758902,PC
$GPGGA,131310.60,4612.1065896,N,00607.2905113,E,4,04,4.5,368.576,M,49.481,M,5.52,0083*7D
$GPVTG,163.5143,T,163.5143,M,0.174,N,0.322,K,D*27
$GPGGA,131311.00,4612.1065606,N,00607.2905238,E,4,04,4.5,368.618,M,49.481,M,5.92,0083*70
$GPVTG,163.5237,T,163.5237,M,0.304,N,0.563,K,D*21
$GPGGA,131311.20,4612.1065369,N,00607.2905334,E,4,04,4.5,368.645,M,49.481,M,6.12,0083*70
$GPVTG,169.3356,T,169.3356,M,0.288,N,0.533,K,D*21
$RDENS,3653,4758988,PC
$GPGGA,131311.60,4612.1065062,N,00607.2905465,E,4,04,4.5,368.666,M,49.481,M,6.52,0083*7A
$GPVTG,167.8303,T,167.8303,M,0.179,N,0.332,K,D*2B
$GPGGA,131311.80,4612.1064977,N,00607.2905447,E,4,04,4.5,368.642,M,49.481,M,6.72,0083*7C
$GPVTG,154.4644,T,154.4644,M,0.517,N,0.959,K,D*20
$GPGGA,131312.20,4612.1064437,N,00607.2905846,E,4,04,4.5,368.696,M,49.481,M,7.12,0083*7F
$GPVTG,149.2006,T,149.2006,M,0.738,N,1.367,K,D*29
$RDENS,3654,4759074,PC
$GPGGA,131312.40,4612.1064406,N,00607.2905935,E,4,04,4.5,368.646,M,49.481,M,7.32,0083*71
$GPVTG,128.0584,T,128.0584,M,0.202,N,0.374,K,D*26
$GPGGA,131312.80,4612.1063783,N,00607.2906630,E,4,04,4.5,368.721,M,49.481,M,7.72,0083*79
$GPVTG,144.0103,T,144.0103,M,1.229,N,2.278,K,D*21
$GPGGA,131313.00,4612.1063909,N,00607.2906700,E,4,04,4.5,368.617,M,49.481,M,7.92,0083*74
$GPVTG,149.0480,T,149.0480,M,1.095,N,2.029,K,D*22
$RDENS,3655,4759160,PC
$GPGGA,131313.20,4612.1063381,N,00607.2907131,E,4,04,4.5,368.667,M,49.481,M,8.12,0083*79
$GPVTG,71.5929,T,71.5929,M,0.163,N,0.302,K,D*23
$GPGGA,131313.60,4612.1062850,N,00607.2907919,E,4,04,4.5,368.611,M,49.481,M,8.52,0083*7C
$GPVTG,142.2699,T,142.2699,M,1.504,N,2.787,K,D*2C
$GPGGA,131313.80,4612.1062764,N,00607.2908183,E,2,04,4.5,368.534,M,49.481,M,8.72,0083*7E
$GPVTG,138.9297,T,138.9297,M,1.010,N,1.872,K,D*2A
$RDENS,3656,4759246,PC
$GPVTG,106.2530,T,106.2530,M,0.459,N,0.850,K,D*23
$GPGGA,131314.40,4612.1061676,N,00607.2909715,E,2,04,4.5,368.499,M,49.481,M,9.32,0083*7F
$GPVTG,146.7035,T,146.7035,M,1.202,N,2.227,K,D*22
$GPGGA,131314.60,4612.1061094,N,00607.2910243,E,2,04,4.5,368.554,M,49.481,M,9.52,0083*7F
$GPVTG,136.8361,T,136.8361,M,0.671,N,1.243,K,D*22
$RDENS,3657,4759332,PC
$GPGGA,131315.00,4612.1060187,N,00607.2911233,E,2,04,4.5,368.579,M,49.481,M,0.08,0083*75
$GPVTG,145.5600,T,145.5600,M,1.338,N,2.479,K,D*27
$GPGGA,131315.20,4612.1059543,N,00607.2911762,E,4,04,4.5,368.593,M,49.481,M,0.11,0083*7A
$GPVTG,149.0282,T,149.0282,M,1.504,N,2.786,K,D*2D
$GPGGA,131315.60,4612.1058182,N,00607.2912949,E,4,04,4.5,368.643,M,49.481,M,0.29,0083*77
$GPVTG,147.1088,T,147.1088,M,1.489,N,2.759,K,D*2B
$RDENS,3658,4759418,PC
$GPGGA,131315.80,4612.1057708,N,00607.2913271,E,4,04,4.5,368.576,M,49.481,M,0.49,0083*70
$GPVTG,151.8030,T,151.8030,M,1.195,N,2.215,K,D*2E
$GPGGA,131316.20,4612.1056474,N,00607.2914196,E,4,04,4.5,368.575,M,49.481,M,0.89,0083*72
$GPVTG,155.6967,T,155.6967,M,0.957,N,1.774,K,D*28
$GPGGA,131316.40,4612.1055889,N,00607.2914662,E,4,04,4.5,368.552,M,49.481,M,1.09,0083*79
$GPVTG,155.1339,T,155.1339,M,0.916,N,1.698,K,D*2E
$RDENS,3659,4759504,PC
$GPGGA,131316.80,4612.1054648,N,00607.2915430,E,4,04,4.5,368.495,M,49.481,M,1.49,0083*7D
$GPVTG,160.4254,T,160.4254,M,1.125,N,2.084,K,D*2F
$GPGGA,131317.00,4612.1053711,N,00607.2916247,E,4,04,4.5,368.590,M,49.481,M,1.69,0083*7D
$GPVTG,160.1589,T,160.1589,M,1.412,N,2.617,K,D*22
$GPGGA,131317.40,4612.1052370,N,00607.2916985,E,4,04,4.5,368.536,M,49.481,M,2.09,0083*77
$GPVTG,157.8471,T,157.8471,M,1.168,N,2.164,K,D*29
$RDENS,3660,4759590,PC
$GPGGA,131317.60,4612.1051597,N,00607.2917577,E,4,04,4.5,368.552,M,49.481,M,2.29,0083*79
$GPVTG,153.9764,T,153.9764,M,1.340,N,2.484,K,D*2A
$GPGGA,131318.00,4612.1049867,N,00607.2918799,E,4,04,4.5,368.592,M,49.481,M,2.69,0083*7E
$GPVTG,153.6668,T,153.6668,M,2.107,N,3.906,K,D*2E
$GPGGA,131318.20,4612.1049233,N,00607.2919217,E,4,04,4.5,368.523,M,49.481,M,2.89,0083*71
$GPVTG,157.3813,T,157.3813,M,1.359,N,2.519,K,D*27
$RDENS,3661,4759676,PC
$GPGGA,131318.60,4612.1047490,N,00607.2920431,E,4,04,4.5,368.567,M,49.481,M,3.29,0083*77
$GPVTG,152.4312,T,152.4312,M,2.010,N,3.725,K,D*26
$GPGGA,131318.80,4612.1046742,N,00607.2920961,E,4,04,4.5,368.554,M,49.481,M,3.49,0083*7A
$GPVTG,150.0228,T,150.0228,M,1.403,N,2.601,K,D*25
$GPGGA,131319.00,4612.1046080,N,00607.2921521,E,4,04,4.5,368.493,M,49.481,M,3.69,0083*7B
$GPVTG,152.7140,T,152.7140,M,1.743,N,3.229,K,D*2D
$RDENS,3662,4759762,PC
$GPGGA,131319.40,4612.1044062,N,00607.2923042,E,4,04,4.5,368.611,M,49.481,M,4.09,0083*7A
$GPVTG,152.1991,T,152.1991,M,2.187,N,4.052,K,D*29
$GPGGA,131319.60,4612.1043488,N,00607.2923552,E,4,04,4.5,368.521,M,49.481,M,4.29,0083*79
$GPVTG,149.6496,T,149.6496,M,2.224,N,4.121,K,D*26
$GPGGA,131320.00,4612.1041765,N,00607.2925021,E,4,04,4.5,368.519,M,49.481,M,4.69,0083*7F
$RDENS,3663,4759848,PC
$GPVTG,149.2072,T,149.2072,M,1.394,N,2.583,K,D*25
$GPGGA,131320.20,4612.1040659,N,00607.2926010,E,4,04,4.5,368.570,M,49.481,M,4.89,0083*72
$GPVTG,150.0591,T,150.0591,M,1.518,N,2.813,K,D*23
$GPGGA,131320.60,4612.1038879,N,00607.2927518,E,2,04,4.5,368.563,M,49.481,M,5.29,0083*76
$GPVTG,149.7188,T,149.7188,M,2.248,N,4.167,K,D*2E
$GPGGA,131320.80,4612.1037997,N,00607.2928291,E,2,04,4.5,368.529,M,49.481,M,5.49,0083*77
$RDENS,3664,4759935,PC
$GPVTG,150.2603,T,150.2603,M,2.103,N,3.898,K,D*2C
$GPGGA,131321.20,4612.1036014,N,00607.2929950,E,2,04,4.5,368.523,M,49.481,M,5.89,0083*7E
$GPVTG,149.5777,T,149.5777,M,2.038,N,3.777,K,D*2B
$GPGGA,131321.40,4612.1035068,N,00607.2930635,E,2,04,4.5,368.505,M,49.481,M,6.09,0083*7B
$GPVTG,151.0978,T,151.0978,M,2.421,N,4.486,K,D*2D
$GPGGA,131321.80,4612.1032671,N,00607.2932447,E,2,04,4.5,368.589,M,49.481,M,6.49,0083*7B
$RDENS,3665,4760022,PC
$GPVTG,153.4238,T,153.4238,M,2.451,N,4.543,K,D*22
$GPGGA,131322.00,4612.1031418,N,00607.2933370,E,2,04,4.5,368.592,M,49.481,M,6.69,0083*74
$GPVTG,158.3111,T,158.3111,M,2.455,N,4.549,K,D*2C
$GPGGA,131322.40,4612.1028835,N,00607.2934765,E,2,04,4.5,368.639,M,49.481,M,7.09,0083*79
$GPVTG,160.5216,T,160.5216,M,2.520,N,4.670,K,D*26
$GPGGA,131322.60,4612.1027469,N,00607.2935441,E,2,04,4.5,368.654,M,49.481,M,7.29,0083*7C
$RDENS,3666,4760109,PC
$GPVTG,166.6346,T,166.6346,M,2.452,N,4.544,K,D*26
$GPGGA,131323.00,4612.1024806,N,00607.2936351,E,2,04,4.5,368.615,M,49.481,M,7.69,0083*79
$GPVTG,166.7408,T,166.7408,M,2.540,N,4.706,K,D*20
$GPGGA,131323.20,4612.1023199,N,00607.2936770,E,2,04,4.5,368.688,M,49.481,M,7.89,0083*7E
$GPVTG,170.1642,T,170.1642,M,2.787,N,5.164,K,D*2A
$GPGGA,131323.40,4612.1021662,N,00607.2937151,E,2,04,4.5,368.677,M,49.481,M,8.09,0083*7A
$RDENS,3667,4760196,PC
$GPVTG,176.1649,T,176.1649,M,2.695,N,4.994,K,D*2E
$GPGGA,131323.80,4612.1018852,N,00607.2937156,E,2,04,4.5,368.614,M,49.481,M,8.49,0083*77
$GPVTG,184.3206,T,184.3206,M,2.680,N,4.967,K,D*26
$GPGGA,131324.00,4612.1017377,N,00607.2936990,E,2,04,4.5,368.586,M,49.481,M,8.69,0083*72
$GPVTG,182.8524,T,182.8524,M,2.769,N,5.131,K,D*2A
$GPGGA,131324.40,4612.1014205,N,00607.2936596,E,2,04,4.5,368.616,M,49.481,M,9.09,0083*76
$RDENS,3668,4760284,PC
$GPVTG,190.3985,T,190.3985,M,2.793,N,5.176,K,D*2C
$GPGGA,131324.60,4612.1012943,N,00607.2936004,E,2,04,4.5,368.503,M,49.481,M,9.29,0083*70
$GPVTG,198.1261,T,198.1261,M,2.743,N,5.084,K,D*2D
$GPGGA,131325.00,4612.1009902,N,00607.2934844,E,2,04,4.5,368.492,M,49.481,M,9.69,0083*7B
$GPVTG,194.2585,T,194.2585,M,2.752,N,5.101,K,D*21
$GPGGA,131325.20,4612.1008360,N,00607.2934235,E,2,04,4.5,368.489,M,49.481,M,9.89,0083*7E
$RDENS,3669,4760372,PC
$GPVTG,196.5644,T,196.5644,M,2.950,N,5.467,K,D*28
$GPGGA,131325.60,4612.1005199,N,00607.2932807,E,2,04,4.5,368.596,M,49.481,M,10.29,0083*43
$GPVTG,203.7036,T,203.7036,M,2.751,N,5.099,K,D*22
$GPGGA,131325.80,4612.1003745,N,00607.2931953,E,2,04,4.5,368.617,M,49.481,M,10.49,0083*43
$GPVTG,204.5242,T,204.5242,M,2.690,N,4.986,K,D*28
$GPGGA,131326.20,4612.1001062,N,00607.2930060,E,2,04,4.5,368.627,M,49.481,M,10.89,0083*4D
$RDENS,3670,4760461,PC
$GPVTG,202.4875,T,202.4875,M,2.866,N,5.311,K,D*2A
$GPGGA,131326.40,4612.1000017,N,00607.2928856,E,2,04,4.5,368.591,M,49.481,M,11.09,0083*4B
$GPVTG,209.1554,T,209.1554,M,2.708,N,5.018,K,D*27
$GPGGA,131326.80,4612.0997253,N,00607.2926865,E,2,04,4.5,368.663,M,49.481,M,11.49,0083*47
$GPVTG,210.9078,T,210.9078,M,2.647,N,4.906,K,D*2A
$GPGGA,131327.00,4612.0996123,N,00607.2925731,E,2,04,4.5,368.633,M,49.481,M,11.69,0083*41
$RDENS,3671,4760549,PC
$GPVTG,211.8904,T,211.8904,M,2.604,N,4.826,K,D*2E
$GPGGA,131327.40,4612.0993280,N,00607.2923842,E,2,04,4.5,368.753,M,49.481,M,12.09,0083*45
$GPVTG,212.4525,T,212.4525,M,2.620,N,4.856,K,D*2F
$GPGGA,131327.60,4612.0991960,N,00607.2922760,E,2,04,4.5,368.770,M,49.481,M,12.29,0083*4D
$GPVTG,210.8611,T,210.8611,M,2.554,N,4.734,K,D*24
$GPGGA,131328.00,4612.0989621,N,00607.2920632,E,2,04,4.5,368.750,M,49.481,M,12.69,0083*45
$RDENS,3672,4760636,PC
$GPVTG,208.8617,T,208.8617,M,2.560,N,4.744,K,D*24
$GPGGA,131328.20,4612.0988417,N,00607.2919539,E,2,04,4.5,368.727,M,49.481,M,12.89,0083*4D
$GPVTG,214.2542,T,214.2542,M,2.493,N,4.620,K,D*2A
$GPGGA,131328.60,4612.0985964,N,00607.2917473,E,2,04,4.5,368.733,M,49.481,M,13.29,0083*42
$GPVTG,209.3289,T,209.3289,M,2.565,N,4.753,K,D*27
$GPGGA,131328.80,4612.0984708,N,00607.2916555,E,2,04,4.5,368.740,M,49.481,M,13.49,0083*4F
$RDENS,3673,4760724,PC
$GPVTG,206.1225,T,206.1225,M,2.546,N,4.718,K,D*29
$GPGGA,131329.20,4612.0982173,N,00607.2914812,E,2,04,4.5,368.739,M,49.481,M,13.89,0083*46
$GPVTG,205.4515,T,205.4515,M,2.527,N,4.683,K,D*2D
$GPGGA,131329.40,4612.0980836,N,00607.2913975,E,2,04,4.5,368.747,M,49.481,M,14.09,0083*4B
$GPVTG,203.9592,T,203.9592,M,2.526,N,4.681,K,D*2E
$GPGGA,131329.60,4612.0979582,N,00607.2913139,E,2,04,4.5,368.740,M,49.481,M,14.29,0083*48
$RDENS,3674,4760812,PC
$GPVTG,201.0781,T,201.0781,M,2.587,N,4.794,K,D*20
$GPGGA,131330.00,4612.0976877,N,00607.2911685,E,2,04,4.5,368.760,M,49.481,M,14.69,0083*4A
$GPVTG,201.8479,T,201.8479,M,2.546,N,4.719,K,D*28
$GPGGA,131330.20,4612.0975647,N,00607.2910936,E,2,04,4.5,368.749,M,49.481,M,14.89,0083*45
$GPVTG,197.7100,T,197.7100,M,2.572,N,4.767,K,D*26
$RDENS,3675,4760900,PC
$GPGGA,131330.60,4612.0973119,N,00607.2909522,E,2,04,4.5,368.673,M,49.481,M,15.29,0083*49
$GPVTG,200.4100,T,200.4100,M,2.516,N,4.663,K,D*21
$GPGGA,131330.80,4612.0971805,N,00607.2908884,E,2,04,4.5,368.644,M,49.481,M,15.49,0083*43
$GPVTG,193.7579,T,193.7579,M,2.625,N,4.865,K,D*2A
$GPGGA,131331.20,4612.0968992,N,00607.2907793,E,2,04,4.5,368.623,M,49.481,M,15.89,0083*44
$GPVTG,193.0122,T,193.0122,M,2.686,N,4.978,K,D*2E
$RDENS,3676,4760988,PC
$GPGGA,131331.40,4612.0967595,N,00607.2907309,E,2,04,4.5,368.598,M,49.481,M,16.09,0083*49
$GPVTG,191.9257,T,191.9257,M,2.753,N,5.102,K,D*23
$GPGGA,131331.80,4612.0964502,N,00607.2906481,E,2,04,4.5,368.641,M,49.481,M,16.49,0083*4D
$GPVTG,190.8712,T,190.8712,M,2.748,N,5.093,K,D*20
$GPGGA,131332.00,4612.0962912,N,00607.2906176,E,2,04,4.5,368.672,M,49.481,M,16.69,0083*42
$GPVTG,191.6137,T,191.6137,M,2.728,N,5.055,K,D*2C
$RDENS,3677,4761076,PC
$GPGGA,131332.40,4612.0959871,N,00607.2905532,E,2,04,4.5,368.638,M,49.481,M,17.09,0083*44
$GPVTG,187.5373,T,187.5373,M,2.731,N,5.062,K,D*20
$GPGGA,131332.60,4612.0958348,N,00607.2905294,E,2,04,4.5,368.635,M,49.481,M,17.29,0083*42
$GPVTG,185.6105,T,185.6105,M,2.843,N,5.268,K,D*22
$GPGGA,131333.00,4612.0955147,N,00607.2904950,E,2,04,4.5,368.658,M,49.481,M,17.69,0083*48
$GPVTG,183.7121,T,183.7121,M,2.882,N,5.341,K,D*25
$RDENS,3678,4761164,PC
$GPGGA,131333.20,4612.0953580,N,00607.2904821,E,2,04,4.5,368.658,M,49.481,M,17.89,0083*4A
$GPVTG,183.3068,T,183.3068,M,2.808,N,5.204,K,D*27
$GPGGA,131333.60,4612.0950382,N,00607.2904694,E,2,04,4.5,368.674,M,49.481,M,18.29,0083*42
$GPVTG,182.0562,T,182.0562,M,2.798,N,5.185,K,D*2B
$GPGGA,131333.80,4612.0948761,N,00607.2904709,E,2,04,4.5,368.700,M,49.481,M,18.49,0083*4D
$GPVTG,180.9101,T,180.9101,M,2.742,N,5.082,K,D*2A
$RDENS,3679,4761252,PC
$GPGGA,131334.20,4612.0945590,N,00607.2904797,E,2,04,4.5,368.744,M,49.481,M,18.89,0083*4A
$GPVTG,179.4696,T,179.4696,M,2.738,N,5.074,K,D*2E
$GPGGA,131334.40,4612.0944172,N,00607.2904821,E,2,04,4.5,368.714,M,49.481,M,19.09,0083*4B
$GPVTG,177.2000,T,177.2000,M,2.691,N,4.988,K,D*27
$GPGGA,131334.80,4612.0941267,N,00607.2905054,E,2,04,4.5,368.693,M,49.481,M,19.49,0083*44
$GPVTG,175.2331,T,175.2331,M,2.657,N,4.925,K,D*2A
$RDENS,3680,4761340,PC
$GPGGA,131335.00,4612.0939865,N,00607.2905255,E,2,04,4.5,368.694,M,49.481,M,19.69,0083*4C
$GPVTG,171.9633,T,171.9633,M,2.562,N,4.749,K,D*2B
$GPGGA,131335.40,4612.0936929,N,00607.2905966,E,2,04,4.5,368.743,M,49.481,M,20.09,0083*42
$GPVTG,170.2250,T,170.2250,M,2.604,N,4.826,K,D*2E
$GPGGA,131335.60,4612.0935475,N,00607.2906410,E,2,04,4.5,368.784,M,49.481,M,20.29,0083*41
$GPVTG,167.8248,T,167.8248,M,2.438,N,4.519,K,D*22
$RDENS,3681,4761428,PC
$GPGGA,131336.00,4612.0932843,N,00607.2907361,E,2,04,4.5,368.773,M,49.481,M,20.69,0083*46
$GPVTG,164.1582,T,164.1582,M,2.454,N,4.547,K,D*23
$GPVTG,163.3717,T,163.3717,M,2.398,N,4.445,K,D*27
$GPGGA,131336.40,4612.0930308,N,00607.2908390,E,2,04,4.5,368.756,M,49.481,M,21.09,0083*45
$GPVTG,161.2123,T,161.2123,M,2.323,N,4.305,K,D*24
$GPGGA,131336.60,4612.0929111,N,00607.2908932,E,2,04,4.5,368.736,M,49.481,M,21.29,0083*43
$RDENS,3682,4761516,PC
$GPVTG,163.4200,T,163.4200,M,2.282,N,4.228,K,D*20
$GPGGA,131337.00,4612.0926760,N,00607.2910042,E,2,04,4.5,368.718,M,49.481,M,21.69,0083*44
$GPVTG,160.4038,T,160.4038,M,2.240,N,4.150,K,D*22
$GPGGA,131337.20,4612.0925569,N,00607.2910620,E,2,04,4.5,368.733,M,49.481,M,21.89,0083*4B
$GPVTG,160.0085,T,160.0085,M,2.172,N,4.025,K,D*23
$GPGGA,131337.60,4612.0923203,N,00607.2911769,E,2,04,4.5,368.776,M,49.481,M,22.29,0083*47
$RDENS,3683,4761604,PC
$GPVTG,162.5268,T,162.5268,M,2.155,N,3.994,K,D*22
$GPGGA,131337.80,4612.0922055,N,00607.2912319,E,2,04,4.5,368.797,M,49.481,M,22.49,0083*40
$GPVTG,162.2116,T,162.2116,M,2.192,N,4.062,K,D*2E
$GPGGA,131338.20,4612.0919766,N,00607.2913425,E,2,04,4.5,368.824,M,49.481,M,22.89,0083*48
$GPVTG,161.3060,T,161.3060,M,2.159,N,4.001,K,D*2C
$GPGGA,131338.40,4612.0918690,N,00607.2913875,E,2,04,4.5,368.802,M,49.481,M,23.09,0083*43
$RDENS,3684,4761692,PC
$GPVTG,164.0253,T,164.0253,M,2.076,N,3.848,K,D*22
$GPGGA,131338.80,4612.0916423,N,00607.2914851,E,2,04,4.5,368.799,M,49.481,M,0.05,0083*7A
$GPVTG,164.5211,T,164.5211,M,2.073,N,3.841,K,D*2E
$GPGGA,131339.00,4612.0915336,N,00607.2915341,E,2,04,4.5,368.791,M,49.481,M,0.15,0083*71
$GPVTG,165.1312,T,165.1312,M,2.130,N,3.947,K,D*2F
$GPGGA,131339.40,4612.0913158,N,00607.2916253,E,2,04,4.5,368.766,M,49.481,M,0.55,0083*74
$RDENS,3685,4761780,PC
$GPVTG,163.2111,T,163.2111,M,2.151,N,3.986,K,D*25
$GPGGA,131339.60,4612.0912029,N,00607.2916776,E,2,04,4.5,368.804,M,49.481,M,0.06,0083*7F
$GPVTG,166.3850,T,166.3850,M,2.071,N,3.838,K,D*22
$GPGGA,131340.00,4612.0909662,N,00607.2917649,E,2,04,4.5,368.823,M,49.481,M,0.46,0083*79
$GPVTG,165.8106,T,165.8106,M,2.132,N,3.952,K,D*29
$GPGGA,131340.20,4612.0908559,N,00607.2918021,E,2,04,4.5,368.813,M,49.481,M,0.66,0083*77
$RDENS,3686,4761868,PC
$GPVTG,166.0911,T,166.0911,M,2.198,N,4.073,K,D*24
$GPGGA,131340.60,4612.0906174,N,00607.2918780,E,2,04,4.5,368.855,M,49.481,M,1.06,0083*7F
$GPVTG,169.9702,T,169.9702,M,2.059,N,3.816,K,D*24
$GPGGA,131340.80,4612.0905014,N,00607.2919067,E,2,04,4.5,368.838,M,49.481,M,1.26,0083*73
$GPVTG,169.9040,T,169.9040,M,2.140,N,3.966,K,D*2B
$GPGGA,131341.20,4612.0902524,N,00607.2919626,E,2,04,4.5,368.884,M,49.481,M,1.66,0083*79
$RDENS,3687,4761956,PC
$GPVTG,172.6734,T,172.6734,M,2.155,N,3.994,K,D*22
$GPGGA,131341.40,4612.0901408,N,00607.2919733,E,2,04,4.5,368.850,M,49.481,M,1.86,0083*71
$GPVTG,176.8218,T,176.8218,M,2.130,N,3.947,K,D*2F
$GPGGA,131341.80,4612.0899206,N,00607.2919897,E,2,04,4.5,368.770,M,49.481,M,0.10,0083*77
$GPVTG,171.1581,T,171.1581,M,2.238,N,4.148,K,D*24
$GPGGA,131342.00,4612.0897957,N,00607.2920038,E,2,04,4.5,368.763,M,49.481,M,0.30,0083*7A
$RDENS,3688,4762044,PC
$GPVTG,174.4145,T,174.4145,M,2.242,N,4.154,K,D*24
$GPGGA,131342.20,4612.0896674,N,00607.2920207,E,2,04,4.5,368.779,M,49.481,M,0.50,0083*74
$GPVTG,178.5616,T,178.5616,M,2.235,N,4.142,K,D*23
$GPGGA,131342.60,4612.0894127,N,00607.2920434,E,2,04,4.5,368.787,M,49.481,M,0.90,0083*78
$GPVTG,177.0177,T,177.0177,M,2.269,N,4.206,K,D*29
$GPGGA,131342.80,4612.0892893,N,00607.2920450,E,2,04,4.5,368.770,M,49.481,M,1.10,0083*75
$RDENS,3689,4762132,PC
$GPVTG,179.6043,T,179.6043,M,2.253,N,4.176,K,D*24
$GPGGA,131343.20,4612.0890381,N,00607.2920468,E,2,04,4.5,368.770,M,49.481,M,1.50,0083*7B
$GPVTG,180.6398,T,180.6398,M,2.208,N,4.092,K,D*21
$GPGGA,131343.40,4612.0889165,N,00607.2920401,E,2,04,4.5,368.756,M,49.481,M,1.70,0083*74
$GPVTG,181.2951,T,181.2951,M,2.245,N,4.161,K,D*25
$GPGGA,131343.80,4612.0886658,N,00607.2920243,E,2,04,4.5,368.756,M,49.481,M,2.10,0083*7B
$RDENS,3690,4762220,PC
$GPVTG,183.1953,T,183.1953,M,2.246,N,4.162,K,D*25
$GPGGA,131344.00,4612.0885327,N,00607.2920263,E,2,04,4.5,368.806,M,49.481,M,2.30,0083*70
$GPVTG,183.0159,T,183.0159,M,2.158,N,4.000,K,D*2C
$GPGGA,131344.40,4612.0883010,N,00607.2920023,E,2,04,4.5,368.756,M,49.481,M,2.70,0083*7D
$GPVTG,183.4160,T,183.4160,M,2.135,N,3.958,K,D*24
$GPGGA,131344.60,4612.0881689,N,00607.2919988,E,2,04,4.5,368.803,M,49.481,M,2.90,0083*78
$RDENS,3691,4762308,PC
$GPVTG,186.4992,T,186.4992,M,2.134,N,3.955,K,D*28
$GPGGA,131345.00,4612.0879270,N,00607.2919685,E,2,04,4.5,368.793,M,49.481,M,3.30,0083*75
$GPVTG,183.1412,T,183.1412,M,2.186,N,4.052,K,D*28
$GPGGA,131345.20,4612.0878108,N,00607.2919502,E,2,04,4.5,368.774,M,49.481,M,3.50,0083*79
$GPVTG,185.2955,T,185.2955,M,2.169,N,4.019,K,D*26
$GPGGA,131345.60,4612.0875746,N,00607.2919120,E,2,04,4.5,368.756,M,49.481,M,3.90,0083*74
$RDENS,3692,4762396,PC
$GPVTG,184.8765,T,184.8765,M,2.197,N,4.072,K,D*2A
$GPGGA,131345.80,4612.0874484,N,00607.2918975,E,2,04,4.5,368.787,M,49.481,M,4.10,0083*7C
$GPVTG,187.2443,T,187.2443,M,2.118,N,3.925,K,D*21
$GPGGA,131346.20,4612.0872210,N,00607.2918566,E,2,04,4.5,368.787,M,49.481,M,4.50,0083*72
$GPVTG,187.6676,T,187.6676,M,2.059,N,3.815,K,D*27
$GPGGA,131346.40,4612.0870982,N,00607.2918384,E,2,04,4.5,368.807,M,49.481,M,4.70,0083*79
$RDENS,3693,4762484,PC
$GPVTG,187.7685,T,187.7685,M,2.016,N,3.736,K,D*22
$GPGGA,131346.60,4612.0869827,N,00607.2918182,E,2,04,4.5,368.809,M,49.481,M,4.90,0083*79
$GPVTG,186.5201,T,186.5201,M,2.109,N,3.909,K,D*2F
$GPGGA,131347.00,4612.0867477,N,00607.2917890,E,2,04,4.5,368.842,M,49.481,M,5.30,0083*78
$GPVTG,187.1467,T,187.1467,M,2.046,N,3.792,K,D*29
$GPGGA,131347.20,4612.0866415,N,00607.2917589,E,2,04,4.5,368.829,M,49.481,M,5.50,0083*71
$RDENS,3694,4762572,PC
$GPVTG,186.0336,T,186.0336,M,1.971,N,3.652,K,D*2A
$GPGGA,131347.60,4612.0864216,N,00607.2917240,E,2,04,4.5,368.855,M,49.481,M,5.90,0083*77
$GPVTG,188.1332,T,188.1332,M,2.008,N,3.721,K,D*2B
$GPGGA,131347.80,4612.0863135,N,00607.2917057,E,2,04,4.5,368.870,M,49.481,M,6.10,0083*74
$GPVTG,185.7203,T,185.7203,M,1.993,N,3.693,K,D*2B
$GPGGA,131348.20,4612.0861029,N,00607.2916657,E,2,04,4.5,368.856,M,49.481,M,6.50,0083*78
$RDENS,3695,4762661,PC
$GPVTG,186.4216,T,186.4216,M,1.959,N,3.631,K,D*25
$GPGGA,131348.40,4612.0859887,N,00607.2916561,E,2,04,4.5,368.874,M,49.481,M,6.70,0083*7D
$GPVTG,186.2656,T,186.2656,M,1.884,N,3.491,K,D*2C
$GPGGA,131348.80,4612.0857701,N,00607.2916363,E,2,04,4.5,368.875,M,49.481,M,7.10,0083*7C
$GPVTG,183.8709,T,183.8709,M,1.910,N,3.539,K,D*23
$GPGGA,131349.00,4612.0856703,N,00607.2916190,E,2,04,4.5,368.856,M,49.481,M,7.30,0083*7B
$RDENS,3696,4762750,PC
$GPVTG,183.2331,T,183.2331,M,1.912,N,3.544,K,D*2B
$GPGGA,131349.40,4612.0854708,N,00607.2915937,E,2,04,4.5,368.842,M,49.481,M,0.19,0083*79
$GPVTG,185.7250,T,185.7250,M,1.876,N,3.477,K,D*29
$GPGGA,131349.60,4612.0853677,N,00607.2915795,E,2,04,4.5,368.839,M,49.481,M,0.39,0083*7D
$GPVTG,184.9821,T,184.9821,M,1.872,N,3.469,K,D*22
$GPGGA,131350.00,4612.0851639,N,00607.2915470,E,2,04,4.5,368.848,M,49.481,M,0.79,0083*71
$RDENS,3697,4762839,PC
$GPVTG,185.2586,T,185.2586,M,1.849,N,3.426,K,D*21
$GPGGA,131350.20,4612.0850576,N,00607.2915381,E,2,04,4.5,368.873,M,49.481,M,0.99,0083*75
$GPVTG,186.0986,T,186.0986,M,1.800,N,3.336,K,D*2A
$GPGGA,131350.60,4612.0848515,N,00607.2915129,E,2,04,4.5,368.873,M,49.481,M,1.39,0083*76
$GPVTG,185.2860,T,185.2860,M,1.814,N,3.362,K,D*2E
$GPGGA,131350.80,4612.0847496,N,00607.2915038,E,2,04,4.5,368.867,M,49.481,M,0.08,0083*7A
$RDENS,3698,4762928,PC
$GPVTG,184.8179,T,184.8179,M,1.789,N,3.315,K,D*25
$GPGGA,131351.00,4612.0846632,N,00607.2914827,E,2,04,4.5,368.833,M,49.481,M,0.20,0083*72
$GPVTG,185.7032,T,185.7032,M,1.781,N,3.301,K,D*28
$GPGGA,131351.40,4612.0844864,N,00607.2914470,E,4,04,4.5,368.765,M,49.481,M,0.05,0083*7A
$GPVTG,183.1886,T,183.1886,M,1.818,N,3.369,K,D*29
$GPGGA,131351.60,4612.0843971,N,00607.2914247,E,4,04,4.5,368.739,M,49.481,M,0.15,0083*70
$RDENS,3699,4763017,PC
$GPVTG,182.6671,T,182.6671,M,1.795,N,3.326,K,D*28
$GPGGA,131352.00,4612.0841947,N,00607.2914161,E,4,04,4.5,368.787,M,49.481,M,0.55,0083*74
$GPVTG,184.7078,T,184.7078,M,1.689,N,3.131,K,D*20
$GPGGA,131352.20,4612.0841174,N,00607.2913970,E,4,04,4.5,368.724,M,49.481,M,0.10,0083*79
$GPVTG,181.9579,T,181.9579,M,1.696,N,3.143,K,D*2B
$GPGGA,131352.60,4612.0839350,N,00607.2913773,E,4,04,4.5,368.715,M,49.481,M,0.07,0083*7F
$RDENS,3700,4763106,PC
$GPVTG,184.4951,T,184.4951,M,1.718,N,3.184,K,D*27
$GPGGA,131352.80,4612.0838445,N,00607.2913697,E,4,04,4.5,368.723,M,49.481,M,0.27,0083*7F
$GPVTG,181.7715,T,181.7715,M,1.747,N,3.239,K,D*28
$GPGGA,131353.20,4612.0836567,N,00607.2913552,E,4,04,4.5,368.715,M,49.481,M,0.67,0083*70
$GPVTG,183.1850,T,183.1850,M,1.631,N,3.023,K,D*21
$GPGGA,131353.40,4612.0835595,N,00607.2913523,E,4,04,4.5,368.731,M,49.481,M,0.87,0083*76
$RDENS,3701,4763195,PC
$GPVTG,182.1193,T,182.1193,M,1.659,N,3.075,K,D*2C
$GPGGA,131353.80,4612.0833823,N,00607.2913372,E,4,04,4.5,368.704,M,49.481,M,0.02,0083*75
$GPVTG,182.4058,T,182.4058,M,1.588,N,2.944,K,D*29
$GPGGA,131354.00,4612.0832823,N,00607.2913371,E,4,04,4.5,368.717,M,49.481,M,0.08,0083*70
$GPVTG,185.0049,T,185.0049,M,1.605,N,2.975,K,D*2D
$GPGGA,131354.40,4612.0831038,N,00607.2913259,E,4,04,4.5,368.734,M,49.481,M,0.32,0083*76
$RDENS,3702,4763284,PC
$GPVTG,182.5775,T,182.5775,M,1.612,N,2.988,K,D*29
$GPGGA,131354.60,4612.0830163,N,00607.2913210,E,4,04,4.5,368.752,M,49.481,M,0.08,0083*7E
$GPVTG,183.2006,T,183.2006,M,1.567,N,2.904,K,D*2C
$GPGGA,131355.00,4612.0828483,N,00607.2913038,E,4,04,4.5,368.724,M,49.481,M,0.32,0083*7B
$GPVTG,182.0240,T,182.0240,M,1.550,N,2.873,K,D*29
$GPGGA,131355.20,4612.0827582,N,00607.2913014,E,4,04,4.5,368.748,M,49.481,M,0.52,0083*74
$GPVTG,181.0900,T,181.0900,M,1.491,N,2.763,K,D*2B
$RDENS,3703,4763373,PC
$GPGGA,131355.60,4612.0825891,N,00607.2912962,E,4,04,4.5,368.730,M,49.481,M,0.20,0083*7E
$GPVTG,182.6604,T,182.6604,M,1.519,N,2.815,K,D*24
$GPGGA,131355.80,4612.0825075,N,00607.2912931,E,4,04,4.5,368.716,M,49.481,M,0.40,0083*76
$GPVTG,179.7800,T,179.7800,M,1.534,N,2.842,K,D*29
$GPGGA,131356.00,4612.0824260,N,00607.2912954,E,4,04,4.5,368.716,M,49.481,M,0.60,0083*7B
$GPVTG,178.6196,T,178.6196,M,1.450,N,2.687,K,D*2D
$RDENS,3704,4763462,PC
$GPGGA,131356.40,4612.0822592,N,00607.2913002,E,4,04,4.5,368.734,M,49.481,M,1.00,0083*7F
$GPVTG,178.6093,T,178.6093,M,1.510,N,2.798,K,D*27
$GPGGA,131356.60,4612.0821881,N,00607.2912982,E,4,04,4.5,368.712,M,49.481,M,0.08,0083*7C
$GPVTG,178.7305,T,178.7305,M,1.451,N,2.689,K,D*22
$GPGGA,131357.00,4612.0820356,N,00607.2913018,E,4,04,4.5,368.695,M,49.481,M,0.48,0083*7A
$GPVTG,177.7485,T,177.7485,M,1.407,N,2.608,K,D*28
$RDENS,3705,4763551,PC
$GPGGA,131357.20,4612.0819551,N,00607.2913066,E,4,04,4.5,368.705,M,49.481,M,0.68,0083*70
$GPVTG,176.8963,T,176.8963,M,1.377,N,2.552,K,D*24
$GPGGA,131357.60,4612.0818058,N,00607.2913128,E,4,04,4.5,368.691,M,49.481,M,1.08,0083*79
$GPVTG,177.2284,T,177.2284,M,1.393,N,2.582,K,D*23
$GPGGA,131357.80,4612.0817269,N,00607.2913217,E,4,04,4.5,368.708,M,49.481,M,1.28,0083*74
$GPVTG,176.5676,T,176.5676,M,1.393,N,2.582,K,D*23
$RDENS,3706,4763640,PC
$GPGGA,131358.20,4612.0815709,N,00607.2913357,E,4,04,4.5,368.724,M,49.481,M,1.68,0083*7F
$GPVTG,179.8228,T,179.8228,M,1.322,N,2.449,K,D*2F
$GPVTG,177.5346,T,177.5346,M,1.330,N,2.464,K,D*23
$GPGGA,131358.60,4612.0814343,N,00607.2913414,E,4,04,4.5,368.667,M,49.481,M,2.08,0083*73
$GPVTG,176.5842,T,176.5842,M,1.276,N,2.364,K,D*27
$RDENS,3707,4763729,PC
$GPGGA,131358.80,4612.0813562,N,00607.2913524,E,4,04,4.5,368.690,M,49.481,M,2.28,0083*77
$GPVTG,176.0659,T,176.0659,M,1.252,N,2.321,K,D*20
$GPGGA,131359.20,4612.0812061,N,00607.2913800,E,4,04,4.5,368.734,M,49.481,M,2.68,0083*7B
$GPVTG,172.9348,T,172.9348,M,1.305,N,2.418,K,D*2E
$GPGGA,131359.40,4612.0811496,N,00607.2913812,E,4,04,4.5,368.694,M,49.481,M,2.88,0083*74
$GPVTG,173.0767,T,173.0767,M,1.192,N,2.209,K,D*24
$RDENS,3708,4763818,PC
$GPGGA,131359.80,4612.0810172,N,00607.2914117,E,4,04,4.5,368.710,M,49.481,M,3.28,0083*7B
$GPVTG,167.6978,T,167.6978,M,1.216,N,2.254,K,D*23
$GPGGA,131400.00,4612.0809478,N,00607.2914256,E,4,04,4.5,368.730,M,49.481,M,3.48,0083*7D
$GPVTG,171.1650,T,171.1650,M,1.175,N,2.178,K,D*28
$GPGGA,131400.40,4612.0808119,N,00607.2914587,E,4,04,4.5,368.754,M,49.481,M,3.88,0083*7F
$GPVTG,173.7224,T,173.7224,M,1.141,N,2.114,K,D*25
$GPGGA,131400.60,4612.0807466,N,00607.2914741,E,4,04,4.5,368.750,M,49.481,M,4.08,0083*7C
$RDENS,3709,4763907,PC
$GPVTG,174.5166,T,174.5166,M,1.121,N,2.077,K,D*27
$GPGGA,131401.00,4612.0806198,N,00607.2915074,E,4,04,4.5,368.733,M,49.481,M,4.48,0083*7F
$GPVTG,161.4887,T,161.4887,M,1.312,N,2.431,K,D*23
$GPGGA,131401.20,4612.0805524,N,00607.2915286,E,4,04,4.5,368.738,M,49.481,M,4.68,0083*7B
$GPVTG,167.8410,T,167.8410,M,1.179,N,2.186,K,D*25
$GPGGA,131401.60,4612.0804260,N,00607.2915674,E,4,04,4.5,368.750,M,49.481,M,5.08,0083*79
$RDENS,3710,4763996,PC
$GPVTG,167.5678,T,167.5678,M,1.150,N,2.131,K,D*22
$GPGGA,131401.80,4612.0803664,N,00607.2915839,E,4,04,4.5,368.725,M,49.481,M,5.28,0083*77
$GPVTG,164.3200,T,164.3200,M,1.168,N,2.165,K,D*28
$GPGGA,131402.20,4612.0802312,N,00607.2916401,E,4,04,4.5,368.758,M,49.481,M,5.68,0083*71
$GPVTG,165.4861,T,165.4861,M,1.193,N,2.211,K,D*2C
$GPGGA,131402.40,4612.0801678,N,00607.2916707,E,4,04,4.5,368.760,M,49.481,M,5.88,0083*7D
$RDENS,3711,4764085,PC
$GPVTG,162.4260,T,162.4260,M,1.239,N,2.296,K,D*20
$GPGGA,131402.60,4612.0800971,N,00607.2917025,E,4,04,4.5,368.769,M,49.481,M,6.08,0083*7C
$GPVTG,162.1240,T,162.1240,M,1.124,N,2.083,K,D*29
$GPGGA,131403.00,4612.0799609,N,00607.2917690,E,4,04,4.5,368.778,M,49.481,M,6.48,0083*78
$GPVTG,159.8287,T,159.8287,M,1.380,N,2.557,K,D*29
$GPGGA,131403.20,4612.0798897,N,00607.2918017,E,4,04,4.5,368.777,M,49.481,M,6.68,0083*79
$RDENS,3712,4764174,PC
$GPVTG,159.7619,T,159.7619,M,1.317,N,2.441,K,D*21
$GPGGA,131403.60,4612.0797519,N,00607.2918718,E,4,04,4.5,368.757,M,49.481,M,7.08,0083*74
$GPVTG,159.8676,T,159.8676,M,1.339,N,2.481,K,D*21
$GPGGA,131403.80,4612.0796776,N,00607.2919124,E,4,04,4.5,368.773,M,49.481,M,7.28,0083*7C
$GPVTG,161.3704,T,161.3704,M,1.413,N,2.619,K,D*2D
$GPGGA,131404.20,4612.0795346,N,00607.2919813,E,4,04,4.5,368.775,M,49.481,M,7.68,0083*7A
$RDENS,3713,4764263,PC
$GPVTG,162.2086,T,162.2086,M,1.300,N,2.410,K,D*23
$GPGGA,131404.40,4612.0794686,N,00607.2920125,E,4,04,4.5,368.740,M,49.481,M,7.88,0083*7A
$GPVTG,163.0516,T,163.0516,M,1.343,N,2.489,K,D*24
$GPGGA,131404.80,4612.0793201,N,00607.2920832,E,4,04,4.5,368.780,M,49.481,M,8.28,0083*7C
$GPVTG,161.4144,T,161.4144,M,1.404,N,2.602,K,D*21
$GPGGA,131405.00,4612.0792576,N,00607.2921101,E,4,04,4.5,368.764,M,49.481,M,8.48,0083*77
$RDENS,3714,4764352,PC
$GPVTG,162.8802,T,162.8802,M,1.237,N,2.292,K,D*2A
$GPGGA,131405.40,4612.0791207,N,00607.2921755,E,4,04,4.5,368.782,M,49.481,M,8.88,0083*72
$GPVTG,159.9815,T,159.9815,M,1.338,N,2.480,K,D*21
$GPGGA,131405.60,4612.0790661,N,00607.2922032,E,4,04,4.5,368.761,M,49.481,M,9.08,0083*74
$GPVTG,157.4226,T,157.4226,M,1.100,N,2.038,K,D*2F
$GPGGA,131406.00,4612.0789424,N,00607.2922758,E,4,04,4.5,368.787,M,49.481,M,9.48,0083*7D
$RDENS,3715,4764441,PC
$GPVTG,157.3019,T,157.3019,M,1.186,N,2.199,K,D*2B
$GPGGA,131406.20,4612.0788906,N,00607.2923108,E,4,04,4.5,368.779,M,49.481,M,9.68,0083*72
$GPVTG,151.5998,T,151.5998,M,1.075,N,1.992,K,D*26
$GPGGA,131406.60,4612.0787759,N,00607.2924008,E,4,04,4.5,368.816,M,49.481,M,10.08,0083*43
$GPVTG,152.6721,T,152.6721,M,0.964,N,1.786,K,D*25
$GPGGA,131406.80,4612.0787235,N,00607.2924479,E,4,04,4.5,368.841,M,49.481,M,10.28,0083*40
$RDENS,3716,4764530,PC
$GPVTG,145.4592,T,145.4592,M,0.880,N,1.632,K,D*20
$GPGGA,131407.20,4612.0786398,N,00607.2925413,E,2,04,4.5,368.841,M,49.481,M,10.68,0083*43
$GPVTG,143.3891,T,143.3891,M,0.890,N,1.649,K,D*2D
$GPGGA,131407.40,4612.0785986,N,00607.2925916,E,2,04,4.5,368.846,M,49.481,M,10.88,0083*42
$GPVTG,125.9760,T,125.9760,M,1.014,N,1.880,K,D*23
$GPGGA,131407.60,4612.0785693,N,00607.2926411,E,2,04,4.5,368.838,M,49.481,M,11.08,0083*42
$RDENS,3717,4764618,PC
$GPVTG,134.5290,T,134.5290,M,0.841,N,1.558,K,D*22
$GPGGA,131408.00,4612.0785057,N,00607.2927617,E,2,04,4.5,368.853,M,49.481,M,11.48,0083*49
$GPVTG,119.7816,T,119.7816,M,0.848,N,1.572,K,D*23
$GPGGA,131408.20,4612.0784834,N,00607.2928255,E,2,04,4.5,368.857,M,49.481,M,11.68,0083*4C
$GPVTG,114.4358,T,114.4358,M,1.004,N,1.861,K,D*2D
$GPGGA,131408.60,4612.0784306,N,00607.2929792,E,2,04,4.5,368.895,M,49.481,M,12.08,0083*46
$RDENS,3718,4764706,PC
$GPVTG,108.5747,T,108.5747,M,0.994,N,1.842,K,D*2D
$GPGGA,131408.80,4612.0784203,N,00607.2930508,E,2,04,4.5,368.888,M,49.481,M,12.28,0083*4B
$GPVTG,105.8907,T,105.8907,M,1.039,N,1.926,K,D*21
$GPGGA,131409.20,4612.0783859,N,00607.2932150,E,2,04,4.5,368.906,M,49.481,M,12.68,0083*4A
$GPVTG,106.9463,T,106.9463,M,1.129,N,2.092,K,D*24
$GPGGA,131409.40,4612.0783806,N,00607.2932961,E,2,04,4.5,368.867,M,49.481,M,12.88,0083*44
$RDENS,3719,4764794,PC
$GPVTG,106.9002,T,106.9002,M,1.171,N,2.170,K,D*24
$GPGGA,131409.80,4612.0783477,N,00607.2934780,E,2,04,4.5,368.820,M,49.481,M,13.28,0083*4D
$GPVTG,108.0471,T,108.0471,M,1.196,N,2.216,K,D*2E
$GPGGA,131410.00,4612.0783213,N,00607.2935799,E,2,04,4.5,368.830,M,49.481,M,13.48,0083*47
$GPVTG,114.1208,T,114.1208,M,1.332,N,2.469,K,D*2C
$GPGGA,131410.40,4612.0782481,N,00607.2937772,E,2,04,4.5,368.866,M,49.481,M,13.88,0083*47
$RDENS,3720,4764882,PC
$GPVTG,115.4689,T,115.4689,M,1.270,N,2.353,K,D*25
$GPGGA,131410.60,4612.0782116,N,00607.2938734,E,2,04,4.5,368.850,M,49.481,M,14.08,0083*49
$GPVTG,122.2740,T,122.2740,M,1.377,N,2.552,K,D*24
$GPGGA,131411.00,4612.0781260,N,00607.2940554,E,2,04,4.5,368.837,M,49.481,M,14.48,0083*41
$GPVTG,126.2245,T,126.2245,M,1.408,N,2.608,K,D*27
$GPGGA,131411.20,4612.0780781,N,00607.2941406,E,2,04,4.5,368.818,M,49.481,M,14.68,0083*40
$RDENS,3721,4764970,PC
$GPVTG,131.2627,T,131.2627,M,1.531,N,2.837,K,D*2E
$GPGGA,131411.60,4612.0779615,N,00607.2943120,E,2,04,4.5,368.816,M,49.481,M,15.08,0083*44
$GPVTG,137.8468,T,137.8468,M,1.597,N,2.960,K,D*21
$GPGGA,131411.80,4612.0778838,N,00607.2943934,E,2,04,4.5,368.841,M,49.481,M,15.28,0083*47
$GPVTG,142.5916,T,142.5916,M,1.661,N,3.079,K,D*2B
$GPGGA,131412.20,4612.0777378,N,00607.2945398,E,2,04,4.5,368.836,M,49.481,M,15.68,0083*40
$RDENS,3722,4765058,PC
$GPVTG,147.3017,T,147.3017,M,1.587,N,2.941,K,D*23
$GPGGA,131412.40,4612.0776550,N,00607.2946132,E,2,04,4.5,368.827,M,49.481,M,15.88,0083*44
$GPVTG,150.2388,T,150.2388,M,1.747,N,3.238,K,D*29
$GPGGA,131412.80,4612.0774841,N,00607.2947403,E,2,04,4.5,368.813,M,49.481,M,16.28,0083*4F
$GPVTG,155.0084,T,155.0084,M,1.787,N,3.312,K,D*2C
$GPGGA,131413.00,4612.0773957,N,00607.2947956,E,2,04,4.5,368.814,M,49.481,M,16.48,0083*4B
$RDENS,3723,4765146,PC
$GPVTG,160.5180,T,160.5180,M,1.737,N,3.219,K,D*2D
$GPGGA,131413.40,4612.0772151,N,00607.2948885,E,2,04,4.5,368.816,M,49.481,M,16.88,0083*4E
$GPVTG,161.5556,T,161.5556,M,1.664,N,3.083,K,D*2B
$GPGGA,131413.60,4612.0771179,N,00607.2949361,E,2,04,4.5,368.837,M,49.481,M,17.08,0083*4F
$GPVTG,163.8690,T,163.8690,M,1.684,N,3.121,K,D*2C
$GPGGA,131414.00,4612.0769317,N,00607.2950249,E,2,04,4.5,368.863,M,49.481,M,17.48,0083*4B
$RDENS,3724,4765234,PC
$GPVTG,162.7870,T,162.7870,M,1.719,N,3.186,K,D*24
$GPGGA,131414.20,4612.0768302,N,00607.2950733,E,2,04,4.5,368.892,M,49.481,M,17.68,0083*48
$GPVTG,161.6150,T,161.6150,M,1.862,N,3.451,K,D*28
$GPGGA,131414.40,4612.0767352,N,00607.2951185,E,2,04,4.5,368.907,M,49.481,M,17.88,0083*4D
$GPVTG,158.9005,T,158.9005,M,1.653,N,3.064,K,D*26
$RDENS,3725,4765322,PC
$GPGGA,131414.80,4612.0765616,N,00607.2952046,E,2,04,4.5,368.872,M,49.481,M,18.28,0083*4D
$GPVTG,157.8347,T,157.8347,M,1.761,N,3.264,K,D*24
$GPGGA,131415.00,4612.0764816,N,00607.2952540,E,2,04,4.5,368.835,M,49.481,M,18.48,0083*4D
$GPVTG,156.1056,T,156.1056,M,1.687,N,3.127,K,D*29
$GPGGA,131415.40,4612.0762837,N,00607.2953740,E,2,04,4.5,368.922,M,49.481,M,18.88,0083*44
$GPVTG,154.3715,T,154.3715,M,1.696,N,3.143,K,D*2B
$RDENS,3726,4765410,PC
$GPGGA,131415.60,4612.0761967,N,00607.2954290,E,2,04,4.5,368.927,M,49.481,M,19.08,0083*42
$GPVTG,153.2477,T,153.2477,M,1.772,N,3.283,K,D*2F
$GPGGA,131416.00,4612.0760317,N,00607.2955565,E,2,04,4.5,368.924,M,49.481,M,19.48,0083*40
$GPVTG,150.4041,T,150.4041,M,1.639,N,3.038,K,D*23
$GPGGA,131416.20,4612.0759542,N,00607.2956197,E,2,04,4.5,368.911,M,49.481,M,19.68,0083*40
$GPVTG,149.2471,T,149.2471,M,1.634,N,3.028,K,D*2F
$RDENS,3727,4765498,PC
$GPGGA,131416.60,4612.0757994,N,00607.2957526,E,2,04,4.5,368.906,M,49.481,M,20.08,0083*48
$GPVTG,150.4314,T,150.4314,M,1.597,N,2.959,K,D*2B
$GPGGA,131416.80,4612.0757326,N,00607.2958162,E,2,04,4.5,368.895,M,49.481,M,20.28,0083*47
$GPVTG,151.4495,T,151.4495,M,1.244,N,2.305,K,D*21
$GPGGA,131417.20,4612.0756000,N,00607.2959368,E,2,04,4.5,368.878,M,49.481,M,20.68,0083*44
$GPVTG,148.2742,T,148.2742,M,1.534,N,2.843,K,D*28
$RDENS,3728,4765585,PC
$GPGGA,131417.40,4612.0755481,N,00607.2959900,E,2,04,4.5,368.838,M,49.481,M,20.88,0083*42
$GPVTG,151.4738,T,151.4738,M,1.402,N,2.599,K,D*26
$GPGGA,131417.80,4612.0753960,N,00607.2961327,E,2,04,4.5,368.910,M,49.481,M,21.28,0083*4E
$GPVTG,143.6339,T,143.6339,M,1.333,N,2.470,K,D*25
$GPGGA,131418.00,4612.0753456,N,00607.2961851,E,2,04,4.5,368.871,M,49.481,M,21.48,0083*4B
$GPVTG,144.6608,T,144.6608,M,1.329,N,2.462,K,D*2D
$RDENS,3729,4765672,PC
$GPGGA,131418.40,4612.0752345,N,00607.2962877,E,2,04,4.5,368.863,M,49.481,M,21.88,0083*43
$GPVTG,150.3980,T,150.3980,M,1.190,N,2.205,K,D*2A
$GPGGA,131418.60,4612.0751685,N,00607.2963487,E,2,04,4.5,368.923,M,49.481,M,22.08,0083*47
$GPVTG,143.2455,T,143.2455,M,1.038,N,1.923,K,D*25
$GPGGA,131419.00,4612.0750849,N,00607.2964433,E,2,04,4.5,368.884,M,49.481,M,22.48,0083*4F
$GPVTG,141.2924,T,141.2924,M,1.009,N,1.870,K,D*20
$RDENS,3730,4765759,PC
$GPGGA,131419.20,4612.0750548,N,00607.2964877,E,2,04,4.5,368.871,M,49.481,M,22.68,0083*45
$GPVTG,143.4592,T,143.4592,M,0.890,N,1.649,K,D*2D
$GPGGA,131419.60,4612.0749844,N,00607.2965815,E,2,04,4.5,368.901,M,49.481,M,23.08,0083*4C
$GPVTG,129.4933,T,129.4933,M,0.640,N,1.187,K,D*2B
$GPGGA,131419.80,4612.0749653,N,00607.2966249,E,2,04,4.5,368.903,M,49.481,M,23.28,0083*4A
$GPVTG,126.4587,T,126.4587,M,0.507,N,0.940,K,D*29
$RDENS,3731,4765846,PC
$GPGGA,131420.20,4612.0749202,N,00607.2967160,E,2,04,4.5,368.975,M,49.481,M,23.68,0083*46
$GPVTG,115.7868,T,115.7868,M,0.592,N,1.097,K,D*27
$GPVTG,86.7241,T,86.7241,M,0.558,N,1.033,K,D*2F
$GPGGA,131420.60,4612.0749066,N,00607.2968043,E,2,04,4.5,369.023,M,49.481,M,24.08,0083*47
$GPVTG,81.5222,T,81.5222,M,0.510,N,0.945,K,D*2A
$GPGGA,131420.80,4612.0749231,N,00607.2968381,E,2,04,4.5,368.994,M,49.481,M,24.28,0083*42
$RDENS,3732,4765933,PC
$GPVTG,57.1972,T,57.1972,M,0.611,N,1.133,K,D*20
$GPGGA,131421.20,4612.0749591,N,00607.2969233,E,2,04,4.5,368.999,M,49.481,M,24.68,0083*44
$GPVTG,52.9038,T,52.9038,M,0.628,N,1.165,K,D*29
$GPGGA,131421.40,4612.0749886,N,00607.2969662,E,2,04,4.5,368.982,M,49.481,M,24.88,0083*4D
$GPVTG,45.4458,T,45.4458,M,0.803,N,1.488,K,D*28
$GPGGA,131421.80,4612.0750593,N,00607.2970594,E,2,04,4.5,368.992,M,49.481,M,25.28,0083*48
$RDENS,3733,4766020,PC
$GPVTG,43.3411,T,43.3411,M,0.833,N,1.543,K,D*2D
$GPGGA,131422.00,4612.0751059,N,00607.2970992,E,2,04,4.5,368.978,M,49.481,M,25.48,0083*49
$GPVTG,39.7004,T,39.7004,M,0.974,N,1.805,K,D*20
$GPGGA,131422.40,4612.0751902,N,00607.2972163,E,2,04,4.5,369.007,M,49.481,M,25.88,0083*42
$GPVTG,33.6338,T,33.6338,M,1.122,N,2.079,K,D*2A
$GPGGA,131422.60,4612.0752424,N,00607.2972704,E,2,04,4.5,368.997,M,49.481,M,26.08,0083*47
$RDENS,3734,4766107,PC
$GPVTG,38.7515,T,38.7515,M,1.229,N,2.277,K,D*2E
$GPGGA,131423.00,4612.0753522,N,00607.2973850,E,2,04,4.5,368.941,M,49.481,M,26.48,0083*46
$GPVTG,47.6909,T,47.6909,M,1.224,N,2.268,K,D*2D
$GPGGA,131423.20,4612.0753955,N,00607.2974587,E,2,04,4.5,368.963,M,49.481,M,26.68,0083*4A
$GPVTG,50.8149,T,50.8149,M,1.232,N,2.283,K,D*2F
$GPGGA,131423.60,4612.0754991,N,00607.2976019,E,2,04,4.5,368.910,M,49.481,M,27.08,0083*42
$RDENS,3735,4766194,PC
$GPVTG,46.3410,T,46.3410,M,1.225,N,2.271,K,D*24
$GPGGA,131423.80,4612.0755476,N,00607.2976810,E,2,04,4.5,368.904,M,49.481,M,27.28,0083*4F
$GPVTG,50.0747,T,50.0747,M,1.250,N,2.317,K,D*27
$GPGGA,131424.00,4612.0755829,N,00607.2977640,E,2,04,4.5,368.934,M,49.481,M,0.18,0083*79
$GPVTG,52.5791,T,52.5791,M,1.225,N,2.269,K,D*2D
$RDENS,3736,4766281,PC
$GPGGA,131424.40,4612.0757188,N,00607.2978586,E,4,04,4.5,368.712,M,49.481,M,0.08,0083*76
$GPVTG,57.5216,T,57.5216,M,1.202,N,2.228,K,D*2D
$GPGGA,131424.60,4612.0757613,N,00607.2979351,E,4,04,4.5,368.671,M,49.481,M,0.03,0083*73
$GPVTG,61.0008,T,61.0008,M,1.222,N,2.265,K,D*26
$GPGGA,131425.00,4612.0758191,N,00607.2981199,E,4,04,4.5,368.689,M,49.481,M,0.43,0083*74
$GPVTG,62.0745,T,62.0745,M,1.282,N,2.376,K,D*2F
$RDENS,3737,4766368,PC
$GPGGA,131425.20,4612.0758530,N,00607.2982111,E,4,04,4.5,368.658,M,49.481,M,0.63,0083*74
$GPVTG,68.9118,T,68.9118,M,1.324,N,2.454,K,D*25
$GPGGA,131425.60,4612.0759039,N,00607.2984054,E,4,04,4.5,368.638,M,49.481,M,1.03,0083*7A
$GPVTG,69.3433,T,69.3433,M,1.352,N,2.505,K,D*21
$GPGGA,131425.80,4612.0759248,N,00607.2985108,E,4,04,4.5,368.651,M,49.481,M,0.09,0083*7D
$GPVTG,71.4575,T,71.4575,M,1.357,N,2.516,K,D*26
$GPGGA,131426.20,4612.0759753,N,00607.2987111,E,4,04,4.5,368.635,M,49.481,M,0.49,0083*77
$RDENS,3738,4766454,PC
$GPVTG,72.1655,T,72.1655,M,1.309,N,2.426,K,D*2F
$GPGGA,131426.40,4612.0759898,N,00607.2988187,E,4,04,4.5,368.670,M,49.481,M,0.08,0083*7D
$GPVTG,75.8037,T,75.8037,M,1.350,N,2.503,K,D*25
$GPGGA,131426.80,4612.0760190,N,00607.2990402,E,4,04,4.5,368.709,M,49.481,M,0.48,0083*70
$GPVTG,76.5315,T,76.5315,M,1.339,N,2.481,K,D*21
$RDENS,3739,4766542,PC
$GPGGA,131427.00,4612.0760321,N,00607.2991504,E,4,04,4.5,368.723,M,49.481,M,0.68,0083*7D
$GPVTG,79.8017,T,79.8017,M,1.359,N,2.518,K,D*26
$GPGGA,131427.40,4612.0760680,N,00607.2993648,E,4,04,4.5,368.704,M,49.481,M,1.08,0083*7C
$GPVTG,77.2575,T,77.2575,M,1.414,N,2.620,K,D*20
$GPGGA,131427.60,4612.0760811,N,00607.2994774,E,4,04,4.5,368.718,M,49.481,M,1.28,0083*7E
$GPVTG,77.9805,T,77.9805,M,1.394,N,2.584,K,D*22
$GPGGA,131427.80,4612.0760988,N,00607.2995858,E,4,04,4.5,368.721,M,49.481,M,1.48,0083*7D
$RDENS,3740,4766629,PC
$GPVTG,77.9459,T,77.9459,M,1.387,N,2.570,K,D*2B
$GPGGA,131428.20,4612.0761330,N,00607.2998043,E,4,04,4.5,368.706,M,49.481,M,1.88,0083*76
$GPVTG,78.0869,T,78.0869,M,1.418,N,2.627,K,D*2B
$GPGGA,131428.40,4612.0761571,N,00607.2999127,E,4,04,4.5,368.678,M,49.481,M,2.08,0083*72
$GPVTG,78.3355,T,78.3355,M,1.422,N,2.636,K,D*22
$GPGGA,131428.80,4612.0761910,N,00607.3001369,E,4,04,4.5,368.683,M,49.481,M,2.48,0083*74
$RDENS,3741,4766716,PC
$GPVTG,80.2145,T,80.2145,M,1.449,N,2.685,K,D*27
$GPGGA,131429.00,4612.0762013,N,00607.3002562,E,4,04,4.5,368.720,M,49.481,M,2.68,0083*70
$GPVTG,74.2970,T,74.2970,M,1.423,N,2.638,K,D*2D
$GPGGA,131429.40,4612.0762384,N,00607.3004861,E,4,04,4.5,368.767,M,49.481,M,3.08,0083*75
$GPVTG,74.5254,T,74.5254,M,1.484,N,2.750,K,D*2F
$GPGGA,131429.60,4612.0762713,N,00607.3005962,E,4,04,4.5,368.758,M,49.481,M,3.28,0083*70
$RDENS,3742,4766803,PC
$GPVTG,69.3323,T,69.3323,M,1.456,N,2.698,K,D*25
$GPGGA,131430.00,4612.0763323,N,00607.3008314,E,4,04,4.5,368.749,M,49.481,M,3.68,0083*7A
$GPVTG,71.5555,T,71.5555,M,1.618,N,2.998,K,D*22
$GPGGA,131430.20,4612.0763703,N,00607.3009468,E,4,04,4.5,368.729,M,49.481,M,3.88,0083*7B
$GPVTG,69.1384,T,69.1384,M,1.664,N,3.083,K,D*2B
$GPGGA,131430.40,4612.0763969,N,00607.3010748,E,4,04,4.5,368.759,M,49.481,M,4.08,0083*7E
$RDENS,3743,4766891,PC
$GPVTG,67.9226,T,67.9226,M,1.727,N,3.200,K,D*24
$GPGGA,131430.80,4612.0764664,N,00607.3013308,E,4,04,4.5,368.755,M,49.481,M,4.48,0083*7C
$GPVTG,69.4271,T,69.4271,M,1.698,N,3.147,K,D*21
$GPGGA,131431.00,4612.0765101,N,00607.3014541,E,4,04,4.5,368.731,M,49.481,M,0.04,0083*72
$GPVTG,67.5711,T,67.5711,M,1.792,N,3.322,K,D*2B
$GPGGA,131431.40,4612.0765845,N,00607.3017194,E,4,04,4.5,368.726,M,49.481,M,0.44,0083*72
$RDENS,3744,4766979,PC
$GPVTG,68.9290,T,68.9290,M,1.828,N,3.387,K,D*2A
$GPGGA,131431.60,4612.0766080,N,00607.3018597,E,4,04,4.5,368.759,M,49.481,M,0.64,0083*70
$GPVTG,69.9256,T,69.9256,M,1.851,N,3.429,K,D*27
$GPGGA,131432.00,4612.0766634,N,00607.3021443,E,4,04,4.5,368.766,M,49.481,M,1.04,0083*75
$GPVTG,74.1186,T,74.1186,M,1.852,N,3.432,K,D*2E
$GPGGA,131432.20,4612.0766996,N,00607.3022775,E,4,04,4.5,368.715,M,49.481,M,0.06,0083*72
$RDENS,3745,4767067,PC
$GPVTG,74.2570,T,74.2570,M,1.880,N,3.484,K,D*2C
$GPGGA,131432.60,4612.0767646,N,00607.3025579,E,4,04,4.5,368.649,M,49.481,M,0.34,0083*75
$GPVTG,74.3230,T,74.3230,M,1.829,N,3.390,K,D*2D
$GPGGA,131432.80,4612.0767931,N,00607.3026987,E,4,04,4.5,368.612,M,49.481,M,0.54,0083*72
$GPVTG,80.3585,T,80.3585,M,1.858,N,3.443,K,D*22
$GPGGA,131433.00,4612.0768120,N,00607.3028454,E,4,04,4.5,368.638,M,49.481,M,0.74,0083*7B
$RDENS,3746,4767155,PC
$GPVTG,81.0057,T,81.0057,M,1.877,N,3.478,K,D*27
$GPGGA,131433.40,4612.0768493,N,00607.3031376,E,4,04,4.6,368.643,M,49.481,M,1.14,0083*75
$GPVTG,81.8881,T,81.8881,M,1.906,N,3.533,K,D*2E
