$GPGGA,122855.60,4612.1965744,N,00607.5724920,E,2,07,1.6,368.786,M,49.481,M,39.80,0195*46
$GPVTG,334.1079,T,334.1079,M,0.285,N,0.528,K,D*26
$GPGGA,122855.80,4612.1965856,N,00607.5724806,E,2,07,1.6,368.801,M,49.481,M,40.00,0195*47
$GPVTG,330.2735,T,330.2735,M,0.256,N,0.474,K,D*20
$GPGGA,122856.20,4612.1966125,N,00607.5724544,E,2,07,1.6,368.801,M,49.481,M,40.40,0195*4F
$GPVTG,325.6923,T,325.6923,M,0.301,N,0.557,K,D*23
$RDENS,651,4493478,PC
$GPGGA,122856.40,4612.1966257,N,00607.5724396,E,2,07,1.6,368.806,M,49.481,M,40.60,0195*43
$GPVTG,313.8503,T,313.8503,M,0.328,N,0.608,K,D*21
$GPGGA,122856.80,4612.1966487,N,00607.5724080,E,2,07,1.6,368.811,M,49.481,M,41.00,0195*41
$GPVTG,319.5518,T,319.5518,M,0.282,N,0.523,K,D*2A
$GPGGA,122857.00,4612.1966598,N,00607.5723942,E,2,07,1.6,368.815,M,49.481,M,41.20,0195*41
$GPVTG,321.7310,T,321.7310,M,0.342,N,0.634,K,D*22
$RDENS,652,4493565,PC
$GPGGA,122857.40,4612.1966898,N,00607.5723545,E,2,07,1.6,368.809,M,49.481,M,41.60,0195*4A
$GPVTG,313.7870,T,313.7870,M,0.309,N,0.573,K,D*2D
$GPGGA,122857.60,4612.1967015,N,00607.5723345,E,2,07,1.6,368.812,M,49.481,M,41.80,0195*46
$GPVTG,315.1725,T,315.1725,M,0.265,N,0.492,K,D*28
$GPGGA,122858.00,4612.1967275,N,00607.5723039,E,2,07,1.6,368.833,M,49.481,M,42.20,0195*49
$GPVTG,329.3697,T,329.3697,M,0.310,N,0.575,K,D*23
$RDENS,653,4493654,PC
$GPGGA,122858.20,4612.1967401,N,00607.5722941,E,2,07,1.6,368.856,M,49.481,M,42.40,0195*4C
$GPVTG,321.1922,T,321.1922,M,0.307,N,0.570,K,D*20
$GPGGA,122858.60,4612.1967629,N,00607.5722636,E,2,07,1.6,368.857,M,49.481,M,42.80,0195*42
$GPVTG,315.3363,T,315.3363,M,0.319,N,0.591,K,D*20
$GPGGA,122858.80,4612.1967800,N,00607.5722457,E,2,07,1.6,368.822,M,49.481,M,43.00,0195*47
$GPVTG,307.0970,T,307.0970,M,0.399,N,0.739,K,D*28
$RDENS,654,4493742,PC
$GPGGA,122859.00,4612.1967936,N,00607.5722180,E,2,07,1.6,368.799,M,49.481,M,43.20,0195*48
$GPVTG,314.2416,T,314.2416,M,0.399,N,0.739,K,D*28
$GPGGA,122859.40,4612.1968170,N,00607.5721910,E,2,07,1.6,368.839,M,49.481,M,43.60,0195*4A
$GPVTG,338.9944,T,338.9944,M,0.210,N,0.389,K,D*27
$GPGGA,122859.60,4612.1968272,N,00607.5721762,E,2,07,1.6,368.838,M,49.481,M,43.80,0195*4D
$GPVTG,297.5417,T,297.5417,M,0.475,N,0.881,K,D*21
$RDENS,655,4493830,PC
$GPGGA,122900.00,4612.1968516,N,00607.5721116,E,2,07,1.6,368.802,M,49.481,M,44.20,0195*42
$GPVTG,305.9569,T,305.9569,M,0.439,N,0.814,K,D*25
$GPGGA,122900.20,4612.1968618,N,00607.5720858,E,2,07,1.6,368.795,M,49.481,M,44.40,0195*48
$GPVTG,286.8543,T,286.8543,M,0.358,N,0.664,K,D*2C
$GPGGA,122900.60,4612.1968802,N,00607.5720285,E,2,07,1.6,368.795,M,49.481,M,44.80,0195*4F
$GPVTG,301.3639,T,301.3639,M,0.413,N,0.766,K,D*27
$RDENS,656,4493918,PC
$GPGGA,122900.80,4612.1968952,N,00607.5720131,E,2,07,1.6,368.821,M,49.481,M,45.00,0195*40
$GPVTG,309.3763,T,309.3763,M,0.342,N,0.633,K,D*25
$GPGGA,122901.20,4612.1969185,N,00607.5719679,E,2,07,1.6,368.853,M,49.481,M,45.40,0195*48
$GPVTG,307.0402,T,307.0402,M,0.377,N,0.699,K,D*23
$GPGGA,122901.40,4612.1969292,N,00607.5719345,E,2,07,1.6,368.859,M,49.481,M,45.60,0195*49
$GPVTG,296.4608,T,296.4608,M,0.492,N,0.912,K,D*23
$RDENS,657,4494006,PC
$GPGGA,122901.80,4612.1969508,N,00607.5718722,E,2,07,1.6,368.835,M,49.481,M,46.00,0195*4A
$GPVTG,299.1931,T,299.1931,M,0.400,N,0.742,K,D*23
$GPGGA,122902.00,4612.1969598,N,00607.5718477,E,2,07,1.6,368.850,M,49.481,M,46.20,0195*4A
$GPVTG,286.9559,T,286.9559,M,0.393,N,0.728,K,D*22
$GPGGA,122902.40,4612.1969698,N,00607.5717876,E,2,07,1.6,368.889,M,49.481,M,46.60,0195*4F
$GPVTG,286.0643,T,286.0643,M,0.403,N,0.746,K,D*24
$RDENS,658,4494094,PC
$GPGGA,122902.60,4612.1969804,N,00607.5717599,E,2,07,1.6,368.881,M,49.481,M,46.80,0195*4C
$GPVTG,296.4542,T,296.4542,M,0.392,N,0.727,K,D*2C
$GPGGA,122903.00,4612.1969936,N,00607.5717013,E,2,07,1.6,368.879,M,49.481,M,47.20,0195*40
$GPVTG,283.0052,T,283.0052,M,0.370,N,0.686,K,D*2A
$GPGGA,122903.20,4612.1969968,N,00607.5716673,E,2,07,1.6,368.905,M,49.481,M,47.40,0195*44
$GPVTG,299.0440,T,299.0440,M,0.435,N,0.806,K,D*2A
$RDENS,659,4494182,PC
$GPGGA,122903.60,4612.1970168,N,00607.5716084,E,2,07,1.6,368.882,M,49.481,M,47.80,0195*4C
$GPVTG,297.4908,T,297.4908,M,0.448,N,0.830,K,D*25
$GPGGA,122903.80,4612.1970253,N,00607.5715769,E,2,07,1.6,368.872,M,49.481,M,48.00,0195*46
$GPVTG,288.3118,T,288.3118,M,0.399,N,0.739,K,D*28
$GPGGA,122904.20,4612.1970333,N,00607.5715188,E,2,07,1.6,368.890,M,49.481,M,48.40,0195*4D
$GPVTG,276.8366,T,276.8366,M,0.345,N,0.640,K,D*26
$RDENS,660,4494269,PC
$GPGGA,122904.40,4612.1970391,N,00607.5714927,E,2,07,1.6,368.907,M,49.481,M,48.60,0195*42
$GPVTG,294.8903,T,294.8903,M,0.437,N,0.811,K,D*2E
$GPGGA,122904.80,4612.1970529,N,00607.5714261,E,2,07,1.6,368.868,M,49.481,M,49.00,0195*4D
$GPVTG,283.0966,T,283.0966,M,0.457,N,0.848,K,D*24
$GPGGA,122905.00,4612.1970567,N,00607.5713915,E,2,07,1.6,368.882,M,49.481,M,49.20,0195*47
$GPVTG,282.3067,T,282.3067,M,0.405,N,0.750,K,D*25
$RDENS,661,4494357,PC
$GPGGA,122905.40,4612.1970697,N,00607.5713362,E,2,07,1.6,368.891,M,49.481,M,49.60,0195*43
$GPVTG,301.2238,T,301.2238,M,0.401,N,0.744,K,D*24
$GPGGA,122905.60,4612.1970821,N,00607.5713007,E,2,07,1.6,368.847,M,49.481,M,49.80,0195*47
$GPVTG,272.2611,T,272.2611,M,0.565,N,1.048,K,D*2D
$GPGGA,122906.00,4612.1970830,N,00607.5712203,E,2,07,1.6,368.836,M,49.481,M,50.20,0195*41
$GPVTG,275.0214,T,275.0214,M,0.452,N,0.838,K,D*26
$RDENS,662,4494445,PC
$GPGGA,122906.20,4612.1970841,N,00607.5711853,E,2,07,1.6,368.866,M,49.481,M,50.40,0195*4A
$GPVTG,273.9652,T,273.9652,M,0.416,N,0.772,K,D*27
$GPGGA,122906.40,4612.1970905,N,00607.5711548,E,2,07,1.6,368.870,M,49.481,M,50.60,0195*4F
$GPVTG,289.6755,T,289.6755,M,0.320,N,0.593,K,D*28
$GPGGA,122906.80,4612.1971022,N,00607.5711016,E,2,07,1.6,368.925,M,49.481,M,51.00,0195*46
$GPVTG,283.2284,T,283.2284,M,0.364,N,0.675,K,D*23
$RDENS,663,4494533,PC
$GPGGA,122907.00,4612.1971070,N,00607.5710745,E,2,07,1.6,368.951,M,49.481,M,51.20,0195*49
$GPVTG,264.4319,T,264.4319,M,0.509,N,0.944,K,D*23
$GPGGA,122907.40,4612.1971047,N,00607.5709939,E,2,07,1.6,368.968,M,49.481,M,51.60,0195*4A
$GPVTG,278.9603,T,278.9603,M,0.511,N,0.946,K,D*28
$GPGGA,122907.60,4612.1971065,N,00607.5709635,E,2,07,1.6,368.943,M,49.481,M,51.80,0195*4C
$GPVTG,280.2180,T,280.2180,M,0.389,N,0.720,K,D*21
$RDENS,664,4494621,PC
$GPGGA,122908.00,4612.1971101,N,00607.5708992,E,2,07,1.6,368.911,M,49.481,M,52.20,0195*4B
$GPVTG,291.9852,T,291.9852,M,0.436,N,0.808,K,D*27
$GPGGA,122908.20,4612.1971148,N,00607.5708641,E,2,07,1.6,368.886,M,49.481,M,52.40,0195*4C
$GPVTG,279.0386,T,279.0386,M,0.453,N,0.840,K,D*28
$GPGGA,122908.60,4612.1971175,N,00607.5707912,E,2,07,1.6,368.879,M,49.481,M,52.80,0195*4C
$GPVTG,272.4128,T,272.4128,M,0.489,N,0.905,K,D*2F
$RDENS,665,4494709,PC
$GPGGA,122908.80,4612.1971196,N,00607.5707559,E,2,07,1.6,368.881,M,49.481,M,53.00,0195*42
$GPVTG,289.4445,T,289.4445,M,0.367,N,0.680,K,D*2A
$GPGGA,122909.20,4612.1971327,N,00607.5707035,E,2,07,1.6,368.918,M,49.481,M,53.40,0195*4B
$GPVTG,296.2402,T,296.2402,M,0.346,N,0.641,K,D*24
$GPGGA,122909.40,4612.1971419,N,00607.5706778,E,2,07,1.6,368.954,M,49.481,M,53.60,0195*42
$GPVTG,349.6932,T,349.6932,M,0.373,N,0.691,K,D*2F
$RDENS,666,4494797,PC
$GPGGA,122909.80,4612.1971807,N,00607.5706636,E,2,07,1.6,369.005,M,49.481,M,54.00,0195*4B
$GPVTG,340.7443,T,340.7443,M,0.411,N,0.763,K,D*20
$GPGGA,122910.00,4612.1971990,N,00607.5706462,E,2,07,1.6,368.998,M,49.481,M,54.20,0195*49
$GPVTG,340.9100,T,340.9100,M,0.610,N,1.130,K,D*22
$GPGGA,122910.40,4612.1972654,N,00607.5706415,E,2,07,1.6,369.017,M,49.481,M,54.60,0195*42
$GPVTG,15.1591,T,15.1591,M,0.639,N,1.183,K,D*21
$RDENS,667,4494885,PC
$GPGGA,122910.60,4612.1972927,N,00607.5706281,E,2,07,1.6,368.981,M,49.481,M,54.80,0195*49
$GPVTG,18.5232,T,18.5232,M,0.793,N,1.469,K,D*21
$GPGGA,122911.00,4612.1973638,N,00607.5706346,E,2,07,1.6,369.038,M,49.481,M,55.20,0195*45
$GPVTG,345.2174,T,345.2174,M,0.522,N,0.967,K,D*2B
$GPGGA,122911.20,4612.1973995,N,00607.5706303,E,2,07,1.6,368.992,M,49.481,M,55.40,0195*40
$GPVTG,2.2693,T,2.2693,M,0.671,N,1.244,K,D*25
$RDENS,668,4494973,PC
$GPGGA,122911.40,4612.1974340,N,00607.5706369,E,2,07,1.6,369.012,M,49.481,M,55.60,0195*4D
$GPVTG,356.3208,T,356.3208,M,0.573,N,1.061,K,D*21
$GPGGA,122911.80,4612.1974958,N,00607.5706194,E,2,07,1.6,368.964,M,49.481,M,56.00,0195*4E
$GPVTG,25.5824,T,25.5824,M,0.572,N,1.060,K,D*21
$GPVTG,317.9302,T,317.9302,M,0.605,N,1.121,K,D*26
$GPVTG,315.8448,T,315.8448,M,0.710,N,1.316,K,D*25
$RDENS,669,4495062,PC
$GPVTG,51.7180,T,51.7180,M,1.046,N,1.938,K,D*26
$GPVTG,340.1002,T,340.1002,M,0.453,N,0.839,K,D*26
$GPVTG,354.8495,T,354.8495,M,0.468,N,0.868,K,D*2A
$GPVTG,326.2934,T,326.2934,M,0.404,N,0.748,K,D*2D
$RDENS,670,4495150,PC
$GPVTG,328.4883,T,328.4883,M,0.416,N,0.772,K,D*27
$GPVTG,4.0291,T,4.0291,M,0.492,N,0.911,K,D*20
$GPVTG,0.1873,T,0.1873,M,0.343,N,0.636,K,D*21
$GPVTG,346.9071,T,346.9071,M,0.287,N,0.533,K,A*2B
$RDENS,671,4495238,PC
$GPVTG,14.9030,T,14.9030,M,0.217,N,0.402,K,A*21
$GPVTG,351.7314,T,351.7314,M,0.444,N,0.823,K,A*2E
$GPVTG,349.4951,T,349.4951,M,0.357,N,0.662,K,A*20
$GPVTG,337.4764,T,337.4764,M,0.389,N,0.721,K,A*25
$GPVTG,327.2028,T,327.2028,M,0.545,N,1.010,K,A*27
$RDENS,672,4495326,PC
$GPVTG,328.9641,T,328.9641,M,0.364,N,0.675,K,A*26
$GPVTG,338.9042,T,338.9042,M,0.276,N,0.511,K,A*25
$GPVTG,5.0334,T,5.0334,M,0.209,N,0.388,K,A*2B
$GPVTG,8.5699,T,8.5699,M,0.195,N,0.361,K,A*2A
$RDENS,673,4495414,PC
$GPVTG,2.1218,T,2.1218,M,0.150,N,0.278,K,A*2A
$GPVTG,351.6067,T,351.6067,M,0.109,N,0.203,K,A*2A
$GPVTG,0.2517,T,0.2517,M,0.116,N,0.214,K,A*22
$GPVTG,314.0354,T,314.0354,M,0.174,N,0.323,K,A*23
$GPVTG,334.8447,T,334.8447,M,0.121,N,0.224,K,A*25
$RDENS,674,4495502,PC
$GPVTG,300.5127,T,300.5127,M,0.300,N,0.555,K,A*25
$GPVTG,340.5426,T,340.5426,M,0.072,N,0.134,K,A*20
$GPVTG,302.0034,T,302.0034,M,0.153,N,0.284,K,A*2A
$GPVTG,323.4904,T,323.4904,M,0.117,N,0.217,K,A*20
$RDENS,675,4495590,PC
$GPVTG,18.3321,T,18.3321,M,0.130,N,0.240,K,A*27
$GPVTG,55.5634,T,55.5634,M,0.183,N,0.338,K,A*21
$GPVTG,34.3617,T,34.3617,M,0.201,N,0.373,K,A*27
$GPVTG,53.3606,T,53.3606,M,0.191,N,0.355,K,A*29
$RDENS,676,4495678,PC
$GPVTG,38.7659,T,38.7659,M,0.151,N,0.279,K,A*2A
$GPVTG,26.4958,T,26.4958,M,0.117,N,0.216,K,A*21
$GPVTG,30.5400,T,30.5400,M,0.109,N,0.201,K,A*28
$GPVTG,55.6707,T,55.6707,M,0.111,N,0.207,K,A*27
$GPVTG,98.9846,T,98.9846,M,0.144,N,0.267,K,A*21
$RDENS,677,4495765,PC
$GPVTG,88.0795,T,88.0795,M,0.126,N,0.233,K,A*24
$GPVTG,102.6859,T,102.6859,M,0.274,N,0.507,K,A*20
$GPVTG,97.9442,T,97.9442,M,0.213,N,0.395,K,A*2C
$GPVTG,158.7341,T,158.7341,M,0.103,N,0.192,K,A*2B
$RDENS,678,4495853,PC
$GPVTG,108.2817,T,108.2817,M,0.165,N,0.305,K,A*27
$GPVTG,103.7303,T,103.7303,M,0.283,N,0.525,K,A*28
$GPVTG,112.0977,T,112.0977,M,0.318,N,0.590,K,A*25
$GPVTG,107.0714,T,107.0714,M,0.322,N,0.597,K,A*2B
$GPVTG,99.1081,T,99.1081,M,0.253,N,0.468,K,A*2D
$RDENS,679,4495941,PC
$GPVTG,105.0167,T,105.0167,M,0.327,N,0.605,K,A*26
$GPVTG,109.9359,T,109.9359,M,0.287,N,0.532,K,A*2A
$GPVTG,129.6959,T,129.6959,M,0.302,N,0.560,K,A*21
$GPVTG,133.3617,T,133.3617,M,0.252,N,0.467,K,A*23
$RDENS,680,4496029,PC
$GPVTG,130.7653,T,130.7653,M,0.296,N,0.548,K,A*27
$RDENS,681,4496117,PC
$RDENS,682,4496205,PC
$RDENS,683,4496293,PC
$GPVTG,165.6147,T,165.6147,M,0.450,N,0.833,K,D*2F
$GPVTG,171.9924,T,171.9924,M,0.487,N,0.903,K,D*27
$GPVTG,173.8365,T,173.8365,M,0.473,N,0.876,K,D*2F
$RDENS,684,4496381,PC
$GPVTG,164.4822,T,164.4822,M,0.520,N,0.964,K,D*2A
$GPVTG,168.1595,T,168.1595,M,0.506,N,0.937,K,D*28
$GPVTG,179.4712,T,179.4712,M,0.523,N,0.968,K,D*25
$GPVTG,177.0724,T,177.0724,M,0.464,N,0.859,K,D*24
$GPVTG,170.0604,T,170.0604,M,0.646,N,1.198,K,D*23
$RDENS,685,4496469,PC
$GPVTG,175.2791,T,175.2791,M,0.449,N,0.832,K,D*26
$GPVTG,180.4358,T,180.4358,M,0.463,N,0.859,K,D*23
$GPVTG,175.2798,T,175.2798,M,0.565,N,1.048,K,D*2D
$GPVTG,166.8213,T,166.8213,M,0.528,N,0.979,K,D*2E
$RDENS,686,4496557,PC
$GPVTG,178.0267,T,178.0267,M,0.346,N,0.642,K,D*27
$GPVTG,183.5414,T,183.5414,M,0.424,N,0.786,K,D*2D
$GPVTG,171.4417,T,171.4417,M,0.625,N,1.158,K,D*2A
$GPVTG,176.7327,T,176.7327,M,0.547,N,1.013,K,A*26
$RDENS,687,4496644,PC
$RDENS,688,4496733,PC
$GPVTG,177.1960,T,177.1960,M,0.704,N,1.305,K,A*27
$RDENS,689,4496821,PC
$GPVTG,171.2774,T,171.2774,M,0.745,N,1.381,K,A*2E
$GPVTG,177.0015,T,177.0015,M,0.591,N,1.095,K,A*23
$GPVTG,175.9220,T,175.9220,M,0.656,N,1.216,K,A*22
$GPVTG,169.1198,T,169.1198,M,0.604,N,1.119,K,A*29
$RDENS,690,4496908,PC
$GPVTG,183.4672,T,183.4672,M,0.634,N,1.176,K,A*23
$GPVTG,174.5997,T,174.5997,M,0.668,N,1.238,K,A*23
$GPVTG,178.1247,T,178.1247,M,0.726,N,1.346,K,A*20
$GPVTG,193.4140,T,193.4140,M,0.515,N,0.955,K,A*2B
$RDENS,691,4496996,PC
$GPVTG,166.8875,T,166.8875,M,0.884,N,1.637,K,A*24
$GPVTG,175.3749,T,175.3749,M,0.617,N,1.144,K,A*23
$GPVTG,167.4111,T,167.4111,M,0.797,N,1.477,K,A*2F
$GPVTG,170.5402,T,170.5402,M,0.560,N,1.037,K,A*25
$GPVTG,159.9794,T,159.9794,M,0.866,N,1.606,K,A*2A
$RDENS,692,4497084,PC
$GPVTG,161.3199,T,161.3199,M,0.670,N,1.241,K,A*24
$GPVTG,155.1811,T,155.1811,M,0.810,N,1.500,K,A*2E
$GPVTG,166.7145,T,166.7145,M,0.776,N,1.439,K,A*2A
$GPVTG,155.5613,T,155.5613,M,0.687,N,1.273,K,A*2D
$RDENS,693,4497172,PC
$GPVTG,158.4023,T,158.4023,M,0.685,N,1.270,K,A*2C
$GPVTG,163.9795,T,163.9795,M,0.822,N,1.524,K,A*29
$GPVTG,169.2437,T,169.2437,M,0.704,N,1.304,K,A*26
$GPVTG,151.7320,T,151.7320,M,0.869,N,1.611,K,A*23
$GPVTG,161.1284,T,161.1284,M,0.623,N,1.155,K,A*24
$RDENS,694,4497261,PC
$GPVTG,156.1101,T,156.1101,M,0.680,N,1.260,K,A*28
$GPVTG,163.9083,T,163.9083,M,0.811,N,1.503,K,A*2C
$GPVTG,157.7700,T,157.7700,M,0.542,N,1.004,K,A*25
$GPVTG,159.0471,T,159.0471,M,0.819,N,1.518,K,A*2E
$RDENS,695,4497349,PC
$GPVTG,169.9165,T,169.9165,M,0.600,N,1.111,K,A*25
$GPVTG,160.8298,T,160.8298,M,0.738,N,1.368,K,A*23
$GPVTG,162.5254,T,162.5254,M,0.589,N,1.092,K,A*2D
$GPVTG,164.9277,T,164.9277,M,0.610,N,1.130,K,A*27
$RDENS,696,4497437,PC
$GPVTG,158.7022,T,158.7022,M,0.682,N,1.263,K,A*29
$GPVTG,163.7187,T,163.7187,M,0.601,N,1.113,K,A*26
$GPVTG,176.7102,T,176.7102,M,0.522,N,0.967,K,A*2E
$GPVTG,149.9789,T,149.9789,M,0.604,N,1.120,K,A*23
$GPVTG,159.9577,T,159.9577,M,0.664,N,1.231,K,A*26
$RDENS,697,4497525,PC
$GPVTG,178.9937,T,178.9937,M,0.546,N,1.012,K,A*26
$RDENS,698,4497614,PC
$RDENS,699,4497702,PC
$GPVTG,142.8388,T,142.8388,M,0.588,N,1.089,K,D*23
$RDENS,700,4497791,PC
$GPGGA,122938.00,4612.1954280,N,00607.5712867,E,2,09,1.2,368.230,M,49.481,M,0.12,0195*71
$RDENS,701,4497880,PC
$GPVTG,142.8726,T,142.8726,M,1.120,N,2.076,K,D*27
$RDENS,702,4497969,PC
$GPGGA,122941.40,4612.1948719,N,00607.5721423,E,2,09,1.2,367.804,M,49.481,M,1.73,0195*7B
$GPVTG,144.0398,T,144.0398,M,1.067,N,1.977,K,D*2E
$GPGGA,122941.60,4612.1948278,N,00607.5721915,E,2,09,1.2,367.787,M,49.481,M,0.14,0195*77
$GPVTG,147.0591,T,147.0591,M,1.103,N,2.044,K,D*27
$GPGGA,122942.00,4612.1947205,N,00607.5722934,E,2,09,1.2,367.803,M,49.481,M,0.09,0195*78
$GPVTG,147.6067,T,147.6067,M,1.107,N,2.052,K,D*24
$RDENS,703,4498058,PC
$GPGGA,122942.20,4612.1946711,N,00607.5723403,E,2,09,1.2,367.788,M,49.481,M,0.29,0195*7D
$GPVTG,152.0424,T,152.0424,M,1.040,N,1.928,K,D*21
$GPGGA,122942.60,4612.1945635,N,00607.5724173,E,2,09,1.2,367.782,M,49.481,M,0.69,0195*76
$GPVTG,154.5248,T,154.5248,M,1.080,N,2.002,K,D*2F
$GPGGA,122942.80,4612.1945112,N,00607.5724569,E,2,09,1.2,367.774,M,49.481,M,0.89,0195*72
$GPVTG,160.1971,T,160.1971,M,0.912,N,1.690,K,D*22
$RDENS,704,4498147,PC
$GPGGA,122943.20,4612.1944010,N,00607.5725190,E,2,09,1.2,367.829,M,49.481,M,1.29,0195*74
$GPVTG,154.5439,T,154.5439,M,1.095,N,2.029,K,D*22
$GPGGA,122943.40,4612.1943389,N,00607.5725399,E,2,09,1.2,367.839,M,49.481,M,1.49,0195*7A
$GPVTG,159.0017,T,159.0017,M,1.024,N,1.898,K,D*29
$GPGGA,122943.80,4612.1942268,N,00607.5725917,E,2,09,1.2,367.889,M,49.481,M,0.15,0195*76
$GPVTG,165.7456,T,165.7456,M,0.911,N,1.688,K,D*28
$RDENS,705,4498236,PC
$GPGGA,122944.00,4612.1941755,N,00607.5726136,E,2,09,1.2,367.910,M,49.481,M,0.35,0195*7A
$GPVTG,171.2932,T,171.2932,M,0.989,N,1.832,K,D*26
$GPGGA,122944.40,4612.1940677,N,00607.5726414,E,2,09,1.2,367.963,M,49.481,M,0.16,0195*7E
$GPVTG,167.8526,T,167.8526,M,1.019,N,1.888,K,D*26
$GPGGA,122944.60,4612.1940248,N,00607.5726523,E,2,09,1.2,367.965,M,49.481,M,0.04,0195*74
$GPVTG,178.8583,T,178.8583,M,0.996,N,1.846,K,D*2B
$RDENS,706,4498325,PC
$GPGGA,122945.00,4612.1939531,N,00607.5728800,E,4,06,1.4,368.613,M,49.481,M,0.44,0195*7C
$GPVTG,172.3291,T,172.3291,M,1.098,N,2.035,K,D*22
$GPGGA,122945.20,4612.1939008,N,00607.5728824,E,4,06,1.4,368.604,M,49.481,M,0.64,0195*73
$GPVTG,179.0913,T,179.0913,M,1.045,N,1.936,K,D*2B
$GPGGA,122945.60,4612.1937852,N,00607.5728939,E,4,06,1.4,368.548,M,49.481,M,1.04,0195*7F
$GPVTG,173.4160,T,173.4160,M,1.014,N,1.878,K,D*24
$RDENS,707,4498411,PC
$GPGGA,122945.80,4612.1937228,N,00607.5728978,E,4,06,1.4,368.548,M,49.481,M,1.24,0195*71
$GPVTG,180.8099,T,180.8099,M,1.075,N,1.993,K,D*27
$GPGGA,122946.20,4612.1936032,N,00607.5728887,E,4,06,1.4,368.560,M,49.481,M,1.64,0195*7F
$GPVTG,186.1481,T,186.1481,M,1.050,N,1.946,K,D*28
$GPGGA,122946.40,4612.1935463,N,00607.5728792,E,4,06,1.4,368.567,M,49.481,M,1.84,0195*78
$GPVTG,182.3920,T,182.3920,M,1.126,N,2.087,K,D*2F
$RDENS,708,4498497,PC
$GPGGA,122946.60,4612.1934822,N,00607.5728763,E,4,06,1.4,368.600,M,49.481,M,0.04,0195*77
$GPVTG,186.1545,T,186.1545,M,1.158,N,2.146,K,D*2A
$GPGGA,122947.00,4612.1933635,N,00607.5728438,E,4,06,1.4,368.610,M,49.481,M,0.36,0195*72
$GPVTG,196.0461,T,196.0461,M,1.007,N,1.867,K,D*28
$GPGGA,122947.20,4612.1933044,N,00607.5728314,E,4,06,1.4,368.621,M,49.481,M,0.06,0195*78
$GPVTG,188.2411,T,188.2411,M,1.072,N,1.986,K,D*24
$RDENS,709,4498583,PC
$GPGGA,122947.60,4612.1931861,N,00607.5728011,E,4,06,1.4,368.616,M,49.481,M,0.04,0195*71
$GPVTG,192.9950,T,192.9950,M,1.064,N,1.971,K,D*2B
$GPGGA,122947.80,4612.1931279,N,00607.5727759,E,4,06,1.4,368.599,M,49.481,M,0.16,0195*7F
$GPVTG,193.3544,T,193.3544,M,1.098,N,2.035,K,D*22
$GPGGA,122948.20,4612.1930153,N,00607.5727328,E,4,06,1.4,368.606,M,49.481,M,0.56,0195*73
$GPVTG,195.6519,T,195.6519,M,1.051,N,1.948,K,D*27
$RDENS,710,4498669,PC
$GPGGA,122948.40,4612.1929573,N,00607.5727062,E,4,06,1.4,368.605,M,49.481,M,0.76,0195*77
$GPVTG,198.4453,T,198.4453,M,1.074,N,1.991,K,D*24
$GPGGA,122948.80,4612.1928447,N,00607.5726518,E,4,06,1.4,368.602,M,49.481,M,1.16,0195*75
$GPVTG,199.1255,T,199.1255,M,1.077,N,1.996,K,D*20
$GPGGA,122949.00,4612.1927905,N,00607.5726191,E,4,06,1.4,368.599,M,49.481,M,1.36,0195*7E
$RDENS,711,4498755,PC
$GPVTG,199.7247,T,199.7247,M,1.129,N,2.092,K,D*24
$GPGGA,122949.40,4612.1926803,N,00607.5725520,E,4,06,1.4,368.596,M,49.481,M,1.76,0195*7A
$GPVTG,205.7530,T,205.7530,M,1.063,N,1.971,K,D*2C
$GPGGA,122949.60,4612.1926213,N,00607.5725194,E,4,06,1.4,368.600,M,49.481,M,1.96,0195*7A
$GPVTG,206.6260,T,206.6260,M,1.044,N,1.934,K,D*28
$GPGGA,122950.00,4612.1925237,N,00607.5724405,E,4,06,1.4,368.585,M,49.481,M,2.36,0195*7A
$RDENS,712,4498841,PC
$GPVTG,209.6836,T,209.6836,M,1.029,N,1.907,K,D*23
$GPGGA,122950.20,4612.1924728,N,00607.5724023,E,4,06,1.4,368.592,M,49.481,M,0.05,0195*76
$GPVTG,203.9463,T,203.9463,M,1.085,N,2.011,K,D*28
$GPGGA,122950.60,4612.1923681,N,00607.5723229,E,4,06,1.4,368.598,M,49.481,M,0.15,0195*73
$GPVTG,211.5106,T,211.5106,M,1.038,N,1.923,K,D*25
$GPGGA,122950.80,4612.1923184,N,00607.5722821,E,4,06,1.4,368.587,M,49.481,M,0.35,0195*70
$RDENS,713,4498927,PC
$GPVTG,208.7363,T,208.7363,M,1.022,N,1.895,K,D*22
$GPGGA,122951.20,4612.1922253,N,00607.5721989,E,4,06,1.4,368.598,M,49.481,M,0.75,0195*79
$GPVTG,212.9350,T,212.9350,M,0.991,N,1.837,K,D*2A
$GPGGA,122951.40,4612.1921801,N,00607.5721537,E,4,06,1.4,368.592,M,49.481,M,0.95,0195*7C
$GPVTG,214.5913,T,214.5913,M,0.998,N,1.849,K,D*2A
$GPGGA,122951.60,4612.1921358,N,00607.5721083,E,4,06,1.4,368.576,M,49.481,M,1.15,0195*70
$RDENS,714,4499013,PC
$GPVTG,213.5267,T,213.5267,M,1.066,N,1.975,K,D*2D
$GPGGA,122952.00,4612.1920430,N,00607.5720190,E,4,06,1.4,368.564,M,49.481,M,0.06,0195*7F
$GPVTG,215.6736,T,215.6736,M,0.925,N,1.714,K,D*2B
$GPGGA,122952.20,4612.1919942,N,00607.5719861,E,4,06,1.4,368.551,M,49.481,M,0.26,0195*76
$GPVTG,209.4485,T,209.4485,M,0.986,N,1.827,K,D*2D
$GPGGA,122952.60,4612.1918975,N,00607.5719081,E,4,06,1.4,368.551,M,49.481,M,0.15,0195*71
$RDENS,715,4499100,PC
$GPVTG,210.3071,T,210.3071,M,0.948,N,1.758,K,D*28
$GPGGA,122952.80,4612.1918507,N,00607.5718652,E,4,06,1.4,368.563,M,49.481,M,0.35,0195*7C
$GPVTG,204.8571,T,204.8571,M,0.992,N,1.839,K,D*27
$GPGGA,122953.20,4612.1917550,N,00607.5717907,E,4,06,1.4,368.603,M,49.481,M,0.75,0195*7B
$GPVTG,212.7885,T,212.7885,M,0.976,N,1.808,K,D*2F
$RDENS,716,4499187,PC
$GPGGA,122953.40,4612.1917101,N,00607.5717472,E,4,06,1.4,368.592,M,49.481,M,0.95,0195*77
$GPVTG,209.2498,T,209.2498,M,0.990,N,1.834,K,D*28
$GPGGA,122953.80,4612.1916208,N,00607.5716636,E,4,06,1.4,368.586,M,49.481,M,1.35,0195*7D
$GPVTG,216.9323,T,216.9323,M,0.952,N,1.764,K,D*2C
$GPGGA,122954.00,4612.1915728,N,00607.5716226,E,4,06,1.4,368.588,M,49.481,M,1.55,0195*7B
$GPVTG,207.1225,T,207.1225,M,0.982,N,1.820,K,D*2E
$RDENS,717,4499274,PC
$GPGGA,122954.40,4612.1914831,N,00607.5715482,E,4,06,1.4,368.606,M,49.481,M,0.12,0195*75
$GPVTG,215.1320,T,215.1320,M,0.884,N,1.637,K,D*21
$GPGGA,122954.60,4612.1914348,N,00607.5715062,E,4,06,1.4,368.622,M,49.481,M,0.11,0195*7D
$GPVTG,216.2117,T,216.2117,M,0.918,N,1.702,K,D*22
$GPGGA,122955.00,4612.1913518,N,00607.5714238,E,4,06,1.4,368.626,M,49.481,M,0.29,0195*7D
$GPVTG,213.3178,T,213.3178,M,0.863,N,1.599,K,D*2F
$RDENS,718,4499361,PC
$GPGGA,122955.20,4612.1913068,N,00607.5713810,E,4,06,1.4,368.623,M,49.481,M,0.07,0195*73
$GPVTG,215.6193,T,215.6193,M,0.946,N,1.754,K,D*2A
$GPGGA,122955.60,4612.1912264,N,00607.5712953,E,4,06,1.4,368.641,M,49.481,M,0.47,0195*7F
$GPVTG,217.3818,T,217.3818,M,0.879,N,1.630,K,D*24
$GPGGA,122955.80,4612.1911875,N,00607.5712450,E,4,06,1.4,368.624,M,49.481,M,0.67,0195*77
$GPVTG,217.4814,T,217.4814,M,0.849,N,1.574,K,D*24
$RDENS,719,4499448,PC
$GPGGA,122956.00,4612.1911507,N,00607.5712018,E,4,06,1.4,368.627,M,49.481,M,0.87,0195*71
$GPVTG,218.5236,T,218.5236,M,0.879,N,1.629,K,D*2C
$GPGGA,122956.40,4612.1910746,N,00607.5711101,E,4,06,1.4,368.630,M,49.481,M,1.27,0195*74
$GPVTG,222.3416,T,222.3416,M,0.934,N,1.731,K,D*2C
$GPGGA,122956.60,4612.1910419,N,00607.5710644,E,4,06,1.4,368.641,M,49.481,M,0.18,0195*73
$GPVTG,225.0706,T,225.0706,M,0.899,N,1.666,K,D*29
$RDENS,720,4499535,PC
$GPGGA,122957.00,4612.1909698,N,00607.5709643,E,4,06,1.4,368.645,M,49.481,M,0.22,0195*75
$GPVTG,221.3971,T,221.3971,M,0.893,N,1.655,K,D*23
$GPGGA,122957.20,4612.1909353,N,00607.5709215,E,4,06,1.4,368.653,M,49.481,M,0.42,0195*73
$GPVTG,214.9208,T,214.9208,M,0.753,N,1.395,K,D*29
$GPGGA,122957.60,4612.1908702,N,00607.5708559,E,4,06,1.4,368.683,M,49.481,M,0.82,0195*79
$GPVTG,214.2158,T,214.2158,M,0.694,N,1.286,K,D*20
$RDENS,721,4499622,PC
$GPGGA,122957.80,4612.1908452,N,00607.5708161,E,4,06,1.4,368.665,M,49.481,M,1.02,0195*7F
$GPVTG,221.6174,T,221.6174,M,0.672,N,1.245,K,D*27
$GPGGA,122958.20,4612.1907935,N,00607.5707470,E,4,06,1.4,368.656,M,49.481,M,1.42,0195*77
$GPVTG,225.0558,T,225.0558,M,0.603,N,1.117,K,D*25
$GPGGA,122958.40,4612.1907737,N,00607.5707124,E,4,06,1.4,368.633,M,49.481,M,0.15,0195*79
$GPVTG,229.7486,T,229.7486,M,0.615,N,1.139,K,D*2E
$RDENS,722,4499709,PC
$GPGGA,122958.80,4612.1907265,N,00607.5706404,E,4,06,1.4,368.608,M,49.481,M,0.25,0195*7A
$GPVTG,229.8064,T,229.8064,M,0.595,N,1.102,K,D*2D
$GPGGA,122959.00,4612.1907044,N,00607.5706070,E,4,06,1.4,368.612,M,49.481,M,0.12,0195*7A
$GPVTG,226.8954,T,226.8954,M,0.565,N,1.046,K,D*23
$GPGGA,122959.40,4612.1906636,N,00607.5705413,E,4,06,1.4,368.618,M,49.481,M,0.28,0195*7D
$GPVTG,236.7935,T,236.7935,M,0.532,N,0.986,K,D*25
$RDENS,723,4499796,PC
$GPGGA,122959.60,4612.1906435,N,00607.5705034,E,4,06,1.4,368.609,M,49.481,M,0.09,0195*7C
$GPVTG,231.3614,T,231.3614,M,0.592,N,1.097,K,D*27
$GPGGA,123000.00,4612.1906063,N,00607.5704244,E,4,06,1.4,368.609,M,49.481,M,0.49,0195*79
$GPVTG,235.6394,T,235.6394,M,0.608,N,1.126,K,D*2C
$GPGGA,123000.20,4612.1905860,N,00607.5703831,E,4,06,1.4,368.607,M,49.481,M,0.69,0195*70
$GPVTG,235.3886,T,235.3886,M,0.528,N,0.978,K,D*2F
$RDENS,724,4499883,PC
$GPGGA,123000.60,4612.1905474,N,00607.5703008,E,4,06,1.4,368.593,M,49.481,M,1.09,0195*76
$GPVTG,236.7999,T,236.7999,M,0.698,N,1.294,K,D*2F
$GPGGA,123000.80,4612.1905282,N,00607.5702671,E,4,06,1.4,368.621,M,49.481,M,1.29,0195*76
$GPVTG,231.7117,T,231.7117,M,0.641,N,1.188,K,D*25
$GPGGA,123001.00,4612.1905075,N,00607.5702239,E,4,06,1.4,368.605,M,49.481,M,1.49,0195*7D
$GPVTG,235.5269,T,235.5269,M,0.619,N,1.147,K,D*2B
$RDENS,725,4499970,PC
$GPGGA,123001.40,4612.1904676,N,00607.5701398,E,4,06,1.4,368.608,M,49.481,M,1.89,0195*75
$GPVTG,235.0430,T,235.0430,M,0.657,N,1.218,K,D*28
$GPGGA,123001.60,4612.1904491,N,00607.5700972,E,4,06,1.4,368.602,M,49.481,M,2.09,0195*72
$GPVTG,237.9266,T,237.9266,M,0.645,N,1.196,K,D*2E
$GPGGA,123002.00,4612.1904115,N,00607.5700123,E,4,06,1.4,368.592,M,49.481,M,2.49,0195*7C
$GPVTG,233.7927,T,233.7927,M,0.625,N,1.158,K,D*2A
$RDENS,726,4500057,PC
$GPGGA,123002.20,4612.1903881,N,00607.5699640,E,4,06,1.4,368.593,M,49.481,M,2.69,0195*7D
$GPVTG,235.4091,T,235.4091,M,0.616,N,1.142,K,D*21
$GPVTG,228.5723,T,228.5723,M,0.606,N,1.124,K,D*20
$GPGGA,123002.80,4612.1903233,N,00607.5698402,E,4,06,1.4,368.596,M,49.481,M,3.29,0195*71
$GPVTG,230.3308,T,230.3308,M,0.580,N,1.075,K,D*28
$RDENS,727,4500144,PC
$GPGGA,123003.00,4612.1903053,N,00607.5698031,E,4,06,1.4,368.600,M,49.481,M,3.49,0195*72
$GPVTG,217.3487,T,217.3487,M,0.570,N,1.057,K,D*27
$GPGGA,123003.40,4612.1902485,N,00607.5697509,E,4,06,1.4,368.627,M,49.481,M,0.07,0195*75
$GPVTG,208.1069,T,208.1069,M,0.633,N,1.172,K,D*25
$GPGGA,123003.60,4612.1902165,N,00607.5697339,E,4,06,1.4,368.634,M,49.481,M,0.16,0195*7B
$GPVTG,194.3229,T,194.3229,M,0.622,N,1.153,K,D*26
$RDENS,728,4500230,PC
$GPGGA,123004.00,4612.1901524,N,00607.5697061,E,4,06,1.4,368.636,M,49.481,M,0.24,0195*75
$GPVTG,198.0261,T,198.0261,M,0.585,N,1.084,K,D*23
$GPGGA,123004.20,4612.1901205,N,00607.5697006,E,4,06,1.4,368.618,M,49.481,M,0.44,0195*78
$GPVTG,184.6805,T,184.6805,M,0.710,N,1.316,K,D*25
$GPGGA,123004.60,4612.1900430,N,00607.5696922,E,4,06,1.4,368.589,M,49.481,M,0.84,0195*74
$GPVTG,183.4555,T,183.4555,M,0.710,N,1.316,K,D*25
$RDENS,729,4500317,PC
$GPGGA,123004.80,4612.1899918,N,00607.5696902,E,4,06,1.4,368.598,M,49.481,M,0.12,0195*71
$GPVTG,175.8004,T,175.8004,M,0.890,N,1.650,K,D*25
$GPGGA,123005.20,4612.1898982,N,00607.5696952,E,4,06,1.4,368.582,M,49.481,M,0.52,0195*72
$GPVTG,179.5832,T,179.5832,M,0.821,N,1.522,K,D*29
$GPGGA,123005.40,4612.1898450,N,00607.5697052,E,4,06,1.4,368.608,M,49.481,M,0.72,0195*7D
$GPVTG,173.5910,T,173.5910,M,1.028,N,1.906,K,D*23
$RDENS,730,4500404,PC
$GPGGA,123005.80,4612.1897370,N,00607.5697152,E,4,06,1.4,368.613,M,49.481,M,1.12,0195*77
$GPVTG,177.6858,T,177.6858,M,1.013,N,1.877,K,D*2C
$GPGGA,123006.00,4612.1896761,N,00607.5697120,E,4,06,1.4,368.610,M,49.481,M,1.32,0195*7D
$GPVTG,188.8032,T,188.8032,M,1.028,N,1.904,K,D*21
$GPGGA,123006.40,4612.1895625,N,00607.5696930,E,4,06,1.4,368.571,M,49.481,M,1.72,0195*73
$GPVTG,184.1023,T,184.1023,M,1.048,N,1.942,K,D*25
$RDENS,731,4500491,PC
$GPGGA,123006.60,4612.1894978,N,00607.5696899,E,4,06,1.4,368.595,M,49.481,M,1.92,0195*71
$GPVTG,186.1518,T,186.1518,M,1.120,N,2.076,K,D*27
$GPGGA,123007.00,4612.1893748,N,00607.5696572,E,4,06,1.4,368.579,M,49.481,M,2.32,0195*7F
$GPVTG,192.7709,T,192.7709,M,1.162,N,2.154,K,D*20
$GPGGA,123007.20,4612.1893078,N,00607.5696424,E,4,06,1.4,368.580,M,49.481,M,0.06,0195*78
$GPVTG,194.2008,T,194.2008,M,1.177,N,2.181,K,D*2C
$RDENS,732,4500578,PC
$GPGGA,123007.40,4612.1892457,N,00607.5696194,E,4,06,1.4,368.570,M,49.481,M,0.09,0195*78
$GPVTG,196.2608,T,196.2608,M,1.174,N,2.175,K,D*24
$GPGGA,123007.80,4612.1891154,N,00607.5695613,E,4,06,1.4,368.576,M,49.481,M,0.19,0195*7D
$GPVTG,199.2859,T,199.2859,M,1.210,N,2.242,K,D*22
$GPGGA,123008.00,4612.1890510,N,00607.5695275,E,4,06,1.4,368.573,M,49.481,M,0.39,0195*7C
$GPVTG,203.3324,T,203.3324,M,1.193,N,2.211,K,D*2C
$RDENS,733,4500665,PC
$GPGGA,123008.40,4612.1889293,N,00607.5694441,E,4,06,1.4,368.555,M,49.481,M,0.79,0195*7C
$GPVTG,205.7879,T,205.7879,M,1.233,N,2.286,K,D*2B
$GPGGA,123008.60,4612.1888688,N,00607.5694032,E,4,06,1.4,368.577,M,49.481,M,0.99,0195*7F
$GPVTG,205.6228,T,205.6228,M,1.265,N,2.344,K,D*27
$GPGGA,123009.00,4612.1887444,N,00607.5693148,E,4,06,1.4,368.564,M,49.481,M,1.39,0195*77
$GPVTG,206.5084,T,206.5084,M,1.231,N,2.282,K,D*2D
$RDENS,734,4500751,PC
$GPGGA,123009.20,4612.1886824,N,00607.5692656,E,4,06,1.4,368.567,M,49.481,M,1.59,0195*72
$GPVTG,208.3163,T,208.3163,M,1.299,N,2.407,K,D*24
$GPGGA,123009.60,4612.1885594,N,00607.5691657,E,4,06,1.4,368.574,M,49.481,M,1.99,0195*7F
$GPVTG,209.4411,T,209.4411,M,1.279,N,2.371,K,D*2C
$GPGGA,123009.80,4612.1884868,N,00607.5691161,E,4,06,1.4,368.587,M,49.481,M,2.19,0195*7B
$GPVTG,209.8369,T,209.8369,M,1.349,N,2.500,K,D*2E
$RDENS,735,4500838,PC
$GPGGA,123010.20,4612.1883520,N,00607.5690027,E,4,06,1.4,368.624,M,49.481,M,0.11,0195*7D
$GPVTG,211.0235,T,211.0235,M,1.447,N,2.682,K,D*2E
$GPGGA,123010.40,4612.1882851,N,00607.5689496,E,4,06,1.4,368.609,M,49.481,M,0.00,0195*78
$GPVTG,212.1590,T,212.1590,M,1.363,N,2.526,K,D*22
$GPGGA,123010.80,4612.1881627,N,00607.5688324,E,4,06,1.4,368.584,M,49.481,M,0.40,0195*75
$GPVTG,213.0028,T,213.0028,M,1.306,N,2.420,K,D*26
$RDENS,736,4500925,PC
$GPGGA,123011.00,4612.1881045,N,00607.5687726,E,4,06,1.4,368.575,M,49.481,M,0.60,0195*7B
$GPVTG,213.5681,T,213.5681,M,1.405,N,2.604,K,D*26
$GPGGA,123011.40,4612.1879763,N,00607.5686399,E,4,06,1.4,368.585,M,49.481,M,1.00,0195*72
$GPVTG,216.2978,T,216.2978,M,1.422,N,2.636,K,D*22
$GPGGA,123011.60,4612.1879058,N,00607.5685758,E,4,06,1.4,368.617,M,49.481,M,1.20,0195*7F
$GPVTG,214.9730,T,214.9730,M,1.535,N,2.845,K,D*2F
$RDENS,737,4501012,PC
$GPGGA,123011.80,4612.1878382,N,00607.5685023,E,4,06,1.4,368.618,M,49.481,M,1.40,0195*76
$GPVTG,217.0586,T,217.0586,M,1.327,N,2.460,K,D*21
$GPGGA,123012.20,4612.1877166,N,00607.5683653,E,4,06,1.4,368.638,M,49.481,M,1.80,0195*71
$GPVTG,219.3798,T,219.3798,M,1.475,N,2.733,K,D*24
$GPGGA,123012.40,4612.1876511,N,00607.5682966,E,4,06,1.4,368.641,M,49.481,M,0.02,0195*7F
$RDENS,738,4501099,PC
$GPVTG,219.6863,T,219.6863,M,1.531,N,2.838,K,D*21
$GPGGA,123012.80,4612.1875238,N,00607.5681499,E,4,06,1.4,368.653,M,49.481,M,0.13,0195*71
$GPVTG,219.6070,T,219.6070,M,1.395,N,2.586,K,D*21
$GPGGA,123013.00,4612.1874649,N,00607.5680671,E,4,06,1.4,368.645,M,49.481,M,0.33,0195*7B
$GPVTG,219.8100,T,219.8100,M,1.473,N,2.730,K,D*21
$GPGGA,123013.40,4612.1873413,N,00607.5679136,E,4,06,1.4,368.648,M,49.481,M,0.73,0195*7E
$RDENS,739,4501186,PC
$GPVTG,222.9413,T,222.9413,M,1.427,N,2.644,K,D*22
$GPGGA,123013.60,4612.1872877,N,00607.5678344,E,4,06,1.4,368.660,M,49.481,M,0.93,0195*71
$GPVTG,223.7222,T,223.7222,M,1.382,N,2.560,K,D*2F
$GPGGA,123014.00,4612.1871768,N,00607.5676777,E,4,06,1.4,368.733,M,49.481,M,1.33,0195*74
$GPVTG,226.1613,T,226.1613,M,1.425,N,2.641,K,D*25
$GPGGA,123014.20,4612.1871251,N,00607.5675956,E,4,06,1.4,368.774,M,49.481,M,1.53,0195*72
$RDENS,740,4501273,PC
$GPVTG,225.4827,T,225.4827,M,1.313,N,2.433,K,D*20
$GPGGA,123014.60,4612.1870269,N,00607.5674483,E,4,06,1.4,368.715,M,49.481,M,1.93,0195*73
$GPVTG,225.3626,T,225.3626,M,1.241,N,2.301,K,D*20
$GPGGA,123014.80,4612.1869922,N,00607.5673712,E,4,06,1.4,368.628,M,49.481,M,2.13,0195*79
$GPVTG,230.4495,T,230.4495,M,1.088,N,2.017,K,D*23
$GPGGA,123015.20,4612.1869211,N,00607.5672335,E,4,06,1.4,368.588,M,49.481,M,2.53,0195*74
$RDENS,741,4501361,PC
$GPVTG,237.0306,T,237.0306,M,1.068,N,1.980,K,D*29
$GPGGA,123015.40,4612.1868963,N,00607.5671643,E,4,06,1.4,368.586,M,49.481,M,2.73,0195*76
$GPVTG,244.5325,T,244.5325,M,0.986,N,1.827,K,D*2D
$GPGGA,123015.80,4612.1868559,N,00607.5670148,E,4,06,1.4,368.609,M,49.481,M,3.13,0195*71
$GPVTG,253.4659,T,253.4659,M,1.020,N,1.891,K,D*24
$GPGGA,123016.00,4612.1868368,N,00607.5669448,E,4,06,1.4,368.627,M,49.481,M,3.33,0195*7D
$RDENS,742,4501448,PC
$GPVTG,259.0735,T,259.0735,M,1.051,N,1.948,K,D*27
$GPGGA,123016.40,4612.1868105,N,00607.5667913,E,4,06,1.4,368.584,M,49.481,M,3.73,0195*73
$GPVTG,261.8523,T,261.8523,M,1.069,N,1.981,K,D*29
$GPGGA,123016.60,4612.1867962,N,00607.5667087,E,4,06,1.4,368.585,M,49.481,M,3.93,0195*7C
$GPVTG,261.3969,T,261.3969,M,1.133,N,2.099,K,D*24
$GPGGA,123016.80,4612.1867866,N,00607.5666192,E,4,06,1.4,368.579,M,49.481,M,4.13,0195*7F
$RDENS,743,4501535,PC
$GPVTG,266.2328,T,266.2328,M,1.065,N,1.974,K,D*2F
$GPGGA,123017.20,4612.1867827,N,00607.5664370,E,4,06,1.4,368.598,M,49.481,M,4.53,0195*76
$GPVTG,270.3902,T,270.3902,M,1.217,N,2.255,K,D*23
$GPGGA,123017.40,4612.1867881,N,00607.5663336,E,4,06,1.4,368.599,M,49.481,M,4.73,0195*7A
$GPVTG,275.8970,T,275.8970,M,1.274,N,2.360,K,D*21
$GPGGA,123017.80,4612.1868007,N,00607.5661377,E,4,06,1.4,368.640,M,49.481,M,5.13,0195*78
$RDENS,744,4501622,PC
$GPVTG,274.1487,T,274.1487,M,1.181,N,2.190,K,D*25
$GPGGA,123018.00,4612.1868075,N,00607.5660372,E,4,06,1.4,368.636,M,49.481,M,5.33,0195*7D
$GPVTG,278.7958,T,278.7958,M,1.297,N,2.403,K,D*2E
$GPGGA,123018.40,4612.1868292,N,00607.5658359,E,4,06,1.4,368.639,M,49.481,M,5.73,0195*7B
$GPVTG,277.7233,T,277.7233,M,1.242,N,2.302,K,D*20
$GPGGA,123018.60,4612.1868423,N,00607.5657312,E,4,06,1.4,368.627,M,49.481,M,5.93,0195*74
$RDENS,745,4501709,PC
$GPVTG,277.9701,T,277.9701,M,1.392,N,2.580,K,D*20
$GPGGA,123019.00,4612.1868694,N,00607.5655160,E,4,06,1.4,368.645,M,49.481,M,6.33,0195*75
$GPVTG,283.1987,T,283.1987,M,1.390,N,2.577,K,D*2A
$GPGGA,123019.20,4612.1868907,N,00607.5654112,E,4,06,1.4,368.649,M,49.481,M,6.53,0195*7C
$GPVTG,283.3794,T,283.3794,M,1.363,N,2.525,K,D*21
$GPGGA,123019.60,4612.1869342,N,00607.5651961,E,4,06,1.4,368.688,M,49.481,M,6.93,0195*7A
$RDENS,746,4501796,PC
$GPVTG,287.0832,T,287.0832,M,1.392,N,2.579,K,D*26
$GPGGA,123019.80,4612.1869559,N,00607.5650924,E,4,06,1.4,368.679,M,49.481,M,7.13,0195*7F
$GPVTG,287.4759,T,287.4759,M,1.369,N,2.537,K,D*28
$GPGGA,123020.20,4612.1869990,N,00607.5648860,E,4,06,1.4,368.710,M,49.481,M,7.53,0195*74
$GPVTG,285.9424,T,285.9424,M,1.355,N,2.512,K,D*20
$GPGGA,123020.40,4612.1870212,N,00607.5647823,E,4,06,1.4,368.739,M,49.481,M,7.73,0195*7A
$RDENS,747,4501883,PC
$GPVTG,287.4208,T,287.4208,M,1.375,N,2.548,K,D*2D
$GPGGA,123020.80,4612.1870641,N,00607.5645768,E,4,06,1.4,368.771,M,49.481,M,8.13,0195*73
$GPVTG,288.7800,T,288.7800,M,1.450,N,2.688,K,D*22
$GPGGA,123021.00,4612.1870890,N,00607.5644626,E,4,06,1.4,368.762,M,49.481,M,8.33,0195*72
$GPVTG,284.5884,T,284.5884,M,1.439,N,2.667,K,D*2C
$GPGGA,123021.20,4612.1871109,N,00607.5643503,E,4,06,1.4,368.759,M,49.481,M,8.53,0195*75
$RDENS,748,4501970,PC
$GPVTG,291.8851,T,291.8851,M,1.409,N,2.612,K,D*2D
$GPGGA,123021.60,4612.1871661,N,00607.5641440,E,4,06,1.4,368.773,M,49.481,M,8.93,0195*78
$GPVTG,290.4528,T,290.4528,M,1.404,N,2.602,K,D*21
$GPGGA,123021.80,4612.1871913,N,00607.5640373,E,4,06,1.4,368.791,M,49.481,M,9.13,0195*7F
$GPVTG,285.1837,T,285.1837,M,1.494,N,2.768,K,D*25
$GPGGA,123022.20,4612.1872451,N,00607.5638118,E,4,06,1.4,368.798,M,49.481,M,9.53,0195*73
$RDENS,749,4502058,PC
$GPVTG,292.2052,T,292.2052,M,1.485,N,2.751,K,D*2F
$GPGGA,123022.40,4612.1872730,N,00607.5637068,E,4,06,1.4,368.817,M,49.481,M,9.73,0195*72
$GPVTG,292.7898,T,292.7898,M,1.339,N,2.481,K,D*21
$GPGGA,123022.80,4612.1873241,N,00607.5635068,E,4,06,1.4,368.806,M,49.481,M,10.13,0195*40
$GPVTG,287.4194,T,287.4194,M,1.330,N,2.465,K,D*22
$GPGGA,123023.00,4612.1873512,N,00607.5634130,E,4,06,1.4,368.844,M,49.481,M,10.33,0195*41
$RDENS,750,4502146,PC
$GPVTG,296.3889,T,296.3889,M,1.433,N,2.656,K,D*24
$GPGGA,123023.40,4612.1874234,N,00607.5632042,E,4,06,1.4,368.824,M,49.481,M,10.73,0195*41
$GPVTG,294.9650,T,294.9650,M,1.393,N,2.582,K,D*23
$GPGGA,123023.60,4612.1874538,N,00607.5631229,E,4,06,1.4,368.865,M,49.481,M,10.93,0195*4F
$GPVTG,303.0258,T,303.0258,M,1.371,N,2.542,K,D*23
$RDENS,751,4502234,PC
$GPGGA,123024.00,4612.1875395,N,00607.5629586,E,4,06,1.4,368.844,M,49.481,M,11.33,0195*4D
$GPVTG,311.5585,T,311.5585,M,1.245,N,2.307,K,D*22
$GPGGA,123024.20,4612.1875787,N,00607.5628763,E,4,06,1.4,368.771,M,49.481,M,11.53,0195*4F
$GPVTG,303.3576,T,303.3576,M,1.192,N,2.208,K,D*25
$GPGGA,123024.60,4612.1876489,N,00607.5627181,E,4,06,1.4,368.763,M,49.481,M,11.93,0195*4F
$GPVTG,300.1154,T,300.1154,M,1.224,N,2.268,K,D*2D
$GPVTG,304.2558,T,304.2558,M,1.209,N,2.241,K,D*29
$RDENS,752,4502322,PC
$GPGGA,123025.00,4612.1877227,N,00607.5625609,E,4,06,1.4,368.726,M,49.481,M,12.33,0195*46
$GPVTG,303.5613,T,303.5613,M,1.158,N,2.146,K,D*2A
$GPGGA,123025.20,4612.1877567,N,00607.5624854,E,4,06,1.4,368.742,M,49.481,M,12.53,0195*44
$GPVTG,306.9953,T,306.9953,M,1.275,N,2.363,K,D*23
$GPGGA,123025.60,4612.1878379,N,00607.5623280,E,4,06,1.4,368.786,M,49.481,M,12.93,0195*46
$GPVTG,306.1638,T,306.1638,M,1.211,N,2.245,K,D*24
$RDENS,753,4502410,PC
$GPGGA,123025.80,4612.1878714,N,00607.5622559,E,4,06,1.4,368.788,M,49.481,M,13.13,0195*42
$GPVTG,305.2143,T,305.2143,M,1.208,N,2.239,K,D*27
$GPGGA,123026.20,4612.1879452,N,00607.5621025,E,2,06,1.4,368.820,M,49.481,M,13.53,0195*49
$GPVTG,303.8246,T,303.8246,M,1.170,N,2.169,K,D*2D
$GPGGA,123026.40,4612.1879797,N,00607.5620307,E,2,06,1.4,368.803,M,49.481,M,13.73,0195*44
$GPVTG,308.3996,T,308.3996,M,1.032,N,1.912,K,D*2D
$RDENS,754,4502498,PC
$GPGGA,123026.80,4612.1880542,N,00607.5618917,E,2,06,1.4,368.721,M,49.481,M,14.13,0195*4A
$GPVTG,303.4039,T,303.4039,M,1.215,N,2.251,K,D*25
$GPGGA,123027.00,4612.1880899,N,00607.5618175,E,2,06,1.4,368.682,M,49.481,M,14.33,0195*4E
$GPVTG,310.8211,T,310.8211,M,0.836,N,1.549,K,D*22
$GPGGA,123027.40,4612.1881560,N,00607.5616993,E,4,06,1.4,368.667,M,49.481,M,0.11,0195*76
$GPVTG,309.4038,T,309.4038,M,0.940,N,1.743,K,D*2A
$RDENS,755,4502586,PC
$GPGGA,123027.60,4612.1881874,N,00607.5616431,E,4,06,1.4,368.667,M,49.481,M,0.31,0195*7B
$GPVTG,307.3701,T,307.3701,M,0.833,N,1.544,K,D*2A
$GPGGA,123028.00,4612.1882549,N,00607.5615390,E,4,06,1.4,368.705,M,49.481,M,0.71,0195*7C
$GPVTG,316.4649,T,316.4649,M,0.915,N,1.696,K,D*23
$GPGGA,123028.20,4612.1882866,N,00607.5614854,E,4,06,1.4,368.719,M,49.481,M,0.91,0195*7F
$RDENS,756,4502674,PC
$GPVTG,318.4348,T,318.4348,M,0.843,N,1.561,K,D*2A
$GPGGA,123028.60,4612.1883611,N,00607.5613692,E,4,06,1.4,368.638,M,49.481,M,0.05,0195*78
$GPVTG,313.1430,T,313.1430,M,0.953,N,1.766,K,D*2F
$GPGGA,123028.80,4612.1883920,N,00607.5613214,E,4,06,1.4,368.604,M,49.481,M,0.12,0195*78
$GPVTG,322.1786,T,322.1786,M,0.848,N,1.572,K,D*23
$GPGGA,123029.20,4612.1884527,N,00607.5612411,E,4,06,1.4,368.529,M,49.481,M,0.28,0195*78
$RDENS,757,4502761,PC
$GPVTG,314.9803,T,314.9803,M,0.690,N,1.278,K,D*25
$GPGGA,123029.40,4612.1884843,N,00607.5612128,E,4,06,1.4,368.552,M,49.481,M,0.06,0195*7E
$GPVTG,320.2956,T,320.2956,M,0.618,N,1.145,K,D*28
$GPGGA,123029.80,4612.1885456,N,00607.5611515,E,4,06,1.4,368.546,M,49.481,M,0.34,0195*76
$GPVTG,329.3715,T,329.3715,M,0.700,N,1.297,K,D*2C
$GPGGA,123030.00,4612.1885742,N,00607.5611289,E,4,06,1.4,368.550,M,49.481,M,0.54,0195*73
$RDENS,758,4502848,PC
$GPVTG,337.8929,T,337.8929,M,0.540,N,1.000,K,D*26
$GPGGA,123030.40,4612.1886272,N,00607.5610977,E,4,06,1.4,368.561,M,49.481,M,0.94,0195*77
$GPVTG,337.7159,T,337.7159,M,0.532,N,0.985,K,D*26
$GPGGA,123030.60,4612.1886558,N,00607.5610757,E,4,06,1.4,368.536,M,49.481,M,0.02,0195*7B
$GPVTG,343.0663,T,343.0663,M,0.473,N,0.876,K,D*2F
$GPGGA,123030.80,4612.1886792,N,00607.5610659,E,4,06,1.4,368.541,M,49.481,M,0.22,0195*7C
$RDENS,759,4502935,PC
$GPVTG,344.0551,T,344.0551,M,0.444,N,0.822,K,D*2A
$GPGGA,123031.20,4612.1887243,N,00607.5610366,E,4,06,1.4,368.508,M,49.481,M,0.62,0195*7F
$GPVTG,333.4502,T,333.4502,M,0.416,N,0.770,K,D*25
$GPGGA,123031.40,4612.1887407,N,00607.5610190,E,4,06,1.4,368.512,M,49.481,M,0.02,0195*79
$GPVTG,324.5388,T,324.5388,M,0.454,N,0.841,K,D*2E
$GPGGA,123031.80,4612.1887814,N,00607.5609724,E,4,06,1.4,368.495,M,49.481,M,0.42,0195*70
$RDENS,760,4503023,PC
$GPVTG,320.3325,T,320.3325,M,0.430,N,0.797,K,D*28
$GPGGA,123032.00,4612.1888051,N,00607.5609502,E,4,06,1.4,368.528,M,49.481,M,0.62,0195*7E
$GPVTG,323.1194,T,323.1194,M,0.496,N,0.919,K,D*2C
$GPGGA,123032.40,4612.1888510,N,00607.5609005,E,4,06,1.4,368.569,M,49.481,M,1.02,0195*7A
$GPVTG,321.0410,T,321.0410,M,0.517,N,0.958,K,D*21
$GPGGA,123032.60,4612.1888740,N,00607.5608770,E,4,06,1.4,368.556,M,49.481,M,1.22,0195*75
$RDENS,761,4503110,PC
$GPVTG,332.9879,T,332.9879,M,0.456,N,0.844,K,D*29
$GPGGA,123033.00,4612.1889117,N,00607.5608565,E,4,06,1.4,368.544,M,49.481,M,1.62,0195*76
$GPVTG,339.0896,T,339.0896,M,0.393,N,0.729,K,D*23
$GPGGA,123033.20,4612.1889325,N,00607.5608420,E,4,06,1.4,368.525,M,49.481,M,1.82,0195*7E
$GPVTG,337.5848,T,337.5848,M,0.438,N,0.813,K,D*23
$GPGGA,123033.60,4612.1889824,N,00607.5608267,E,4,06,1.4,368.530,M,49.481,M,0.09,0195*73
$RDENS,762,4503198,PC
$GPVTG,356.5182,T,356.5182,M,0.516,N,0.957,K,D*2F
$GPGGA,123033.80,4612.1890108,N,00607.5608200,E,4,06,1.4,368.517,M,49.481,M,0.29,0195*74
$GPVTG,6.4272,T,6.4272,M,0.565,N,1.047,K,D*22
$GPGGA,123034.00,4612.1890429,N,00607.5608262,E,4,06,1.4,368.542,M,49.481,M,0.09,0195*7B
$GPVTG,7.8976,T,7.8976,M,0.680,N,1.261,K,D*2C
$GPGGA,123034.40,4612.1891230,N,00607.5608374,E,4,06,1.4,368.540,M,49.481,M,0.31,0195*7F
$RDENS,763,4503285,PC
$GPVTG,16.1547,T,16.1547,M,0.873,N,1.617,K,D*2B
$GPGGA,123034.60,4612.1891671,N,00607.5608618,E,4,06,1.4,368.561,M,49.481,M,0.51,0195*76
$GPVTG,15.4148,T,15.4148,M,0.923,N,1.710,K,D*29
$GPGGA,123035.00,4612.1892657,N,00607.5609034,E,4,06,1.4,368.553,M,49.481,M,0.91,0195*72
$GPVTG,16.4929,T,16.4929,M,0.931,N,1.725,K,D*2C
$GPGGA,123035.20,4612.1893231,N,00607.5609249,E,4,06,1.4,368.534,M,49.481,M,1.11,0195*75
$RDENS,764,4503373,PC
$GPVTG,18.0252,T,18.0252,M,1.113,N,2.063,K,D*23
$GPGGA,123035.60,4612.1894449,N,00607.5609864,E,4,06,1.4,368.562,M,49.481,M,1.51,0195*7D
$GPVTG,20.5512,T,20.5512,M,1.202,N,2.228,K,D*2D
$GPGGA,123035.80,4612.1895077,N,00607.5610148,E,4,06,1.4,368.567,M,49.481,M,0.10,0195*75
$GPVTG,11.5466,T,11.5466,M,1.282,N,2.375,K,D*2C
$GPGGA,123036.20,4612.1896497,N,00607.5610723,E,4,06,1.4,368.559,M,49.481,M,0.10,0195*73
$RDENS,765,4503461,PC
$GPVTG,14.8472,T,14.8472,M,1.422,N,2.635,K,D*21
$GPGGA,123036.40,4612.1897189,N,00607.5611081,E,4,06,1.4,368.578,M,49.481,M,0.30,0195*71
$GPVTG,19.9132,T,19.9132,M,1.388,N,2.571,K,D*25
$GPGGA,123036.80,4612.1898650,N,00607.5611762,E,4,06,1.4,368.558,M,49.481,M,0.70,0195*7D
$GPVTG,18.6580,T,18.6580,M,1.349,N,2.501,K,D*2F
$GPGGA,123037.00,4612.1899410,N,00607.5612044,E,4,06,1.4,368.554,M,49.481,M,0.90,0195*71
$RDENS,766,4503548,PC
$GPVTG,17.9285,T,17.9285,M,1.526,N,2.828,K,D*26
$GPGGA,123037.20,4612.1900212,N,00607.5612422,E,4,06,1.4,368.565,M,49.481,M,1.10,0195*79
$GPVTG,14.2871,T,14.2871,M,1.501,N,2.781,K,D*2F
$GPGGA,123037.60,4612.1901876,N,00607.5612942,E,4,06,1.4,368.596,M,49.481,M,0.03,0195*70
$GPVTG,11.5349,T,11.5349,M,1.529,N,2.834,K,D*24
$GPGGA,123037.80,4612.1902663,N,00607.5613202,E,4,06,1.4,368.642,M,49.481,M,0.06,0195*76
$RDENS,767,4503635,PC
$GPVTG,6.1338,T,6.1338,M,1.378,N,2.553,K,D*2A
$GPVTG,4.0507,T,4.0507,M,1.204,N,2.231,K,D*23
$GPGGA,123038.20,4612.1904088,N,00607.5613416,E,4,06,1.4,368.679,M,49.481,M,0.34,0195*7C
$GPVTG,2.7747,T,2.7747,M,1.124,N,2.083,K,D*29
$GPGGA,123038.40,4612.1904712,N,00607.5613427,E,4,06,1.4,368.674,M,49.481,M,0.54,0195*77
$GPVTG,359.3872,T,359.3872,M,1.114,N,2.064,K,D*23
$RDENS,768,4503722,PC
$GPGGA,123038.80,4612.1905933,N,00607.5613294,E,4,06,1.4,368.628,M,49.481,M,0.05,0195*74
$GPVTG,354.0044,T,354.0044,M,1.062,N,1.967,K,D*2A
$GPGGA,123039.20,4612.1907065,N,00607.5613100,E,4,06,1.4,368.616,M,49.481,M,0.35,0195*77
$GPVTG,348.6572,T,348.6572,M,0.957,N,1.773,K,D*2F
$GPGGA,123039.40,4612.1907587,N,00607.5612926,E,4,06,1.4,368.598,M,49.481,M,0.55,0195*76
$GPVTG,350.2690,T,350.2690,M,1.035,N,1.919,K,D*21
$RDENS,769,4503809,PC
$GPGGA,123039.80,4612.1908546,N,00607.5612507,E,4,06,1.4,368.607,M,49.481,M,0.95,0195*7E
$GPVTG,332.1950,T,332.1950,M,0.792,N,1.467,K,D*2E
$GPGGA,123040.00,4612.1908958,N,00607.5612297,E,4,06,1.4,368.679,M,49.481,M,1.15,0195*75
$GPVTG,321.6795,T,321.6795,M,0.980,N,1.816,K,D*29
$GPGGA,123040.40,4612.1909750,N,00607.5611525,E,4,06,1.4,368.705,M,49.481,M,1.55,0195*75
$GPVTG,328.0450,T,328.0450,M,0.845,N,1.565,K,D*28
$RDENS,770,4503896,PC
$GPGGA,123040.60,4612.1910065,N,00607.5611114,E,4,06,1.4,368.693,M,49.481,M,1.75,0195*74
$GPVTG,305.5719,T,305.5719,M,0.780,N,1.446,K,D*2E
$GPGGA,123040.80,4612.1910384,N,00607.5610451,E,4,06,1.4,368.625,M,49.481,M,1.95,0195*70
$GPVTG,310.8222,T,310.8222,M,0.813,N,1.506,K,D*2E
$GPGGA,123041.20,4612.1910923,N,00607.5609532,E,4,06,1.4,368.622,M,49.481,M,2.35,0195*7E
$GPVTG,309.7627,T,309.7627,M,0.805,N,1.492,K,D*25
$RDENS,771,4503983,PC
$GPGGA,123041.40,4612.1911057,N,00607.5608984,E,4,06,1.4,368.607,M,49.481,M,2.55,0195*72
$GPVTG,292.8585,T,292.8585,M,0.746,N,1.382,K,D*2B
$GPGGA,123041.80,4612.1911322,N,00607.5607829,E,4,06,1.4,368.624,M,49.481,M,2.95,0195*7B
$GPVTG,281.7568,T,281.7568,M,0.659,N,1.221,K,D*2C
$GPGGA,123042.00,4612.1911466,N,00607.5607196,E,4,06,1.4,368.602,M,49.481,M,3.15,0195*77
$GPVTG,275.6704,T,275.6704,M,0.760,N,1.408,K,D*2A
$RDENS,772,4504069,PC
$GPGGA,123042.40,4612.1911516,N,00607.5605961,E,4,06,1.4,368.619,M,49.481,M,3.55,0195*79
$GPVTG,274.1567,T,274.1567,M,0.800,N,1.483,K,D*20
$GPGGA,123042.60,4612.1911624,N,00607.5605233,E,4,06,1.4,368.593,M,49.481,M,3.75,0195*76
$GPVTG,258.1833,T,258.1833,M,0.785,N,1.456,K,D*2A
$GPGGA,123043.00,4612.1911336,N,00607.5604021,E,4,06,1.4,368.624,M,49.481,M,4.15,0195*79
$GPVTG,253.4247,T,253.4247,M,0.845,N,1.566,K,D*2B
$RDENS,773,4504155,PC
$GPGGA,123043.20,4612.1911242,N,00607.5603452,E,4,06,1.4,368.630,M,49.481,M,4.35,0195*79
$GPVTG,259.4036,T,259.4036,M,0.841,N,1.558,K,D*22
$GPGGA,123043.60,4612.1910904,N,00607.5602172,E,4,06,1.4,368.646,M,49.481,M,4.75,0195*76
$GPVTG,241.4018,T,241.4018,M,0.891,N,1.651,K,D*25
$GPGGA,123043.80,4612.1910665,N,00607.5601474,E,4,06,1.4,368.644,M,49.481,M,4.95,0195*7C
$GPVTG,238.3420,T,238.3420,M,0.923,N,1.711,K,D*28
$RDENS,774,4504242,PC
$GPGGA,123044.20,4612.1910125,N,00607.5600238,E,4,06,1.4,368.663,M,49.481,M,5.35,0195*73
$GPVTG,236.5536,T,236.5536,M,0.905,N,1.678,K,D*22
$GPGGA,123044.40,4612.1909836,N,00607.5599578,E,4,06,1.4,368.687,M,49.481,M,5.55,0195*7A
$GPVTG,234.7894,T,234.7894,M,0.954,N,1.767,K,D*29
$GPGGA,123044.80,4612.1909136,N,00607.5598309,E,4,06,1.4,368.653,M,49.481,M,5.95,0195*7B
$GPVTG,233.2453,T,233.2453,M,1.044,N,1.935,K,D*29
$RDENS,775,4504328,PC
$GPGGA,123045.00,4612.1908825,N,00607.5597673,E,4,06,1.4,368.641,M,49.481,M,6.15,0195*77
$GPVTG,222.1168,T,222.1168,M,1.089,N,2.018,K,D*2D
$GPGGA,123045.20,4612.1908385,N,00607.5597084,E,4,06,1.4,368.668,M,49.481,M,6.35,0195*73
$GPVTG,221.5124,T,221.5124,M,0.961,N,1.781,K,D*27
$GPGGA,123045.60,4612.1907568,N,00607.5595951,E,4,06,1.4,368.669,M,49.481,M,6.75,0195*7B
$GPVTG,222.4372,T,222.4372,M,1.094,N,2.028,K,D*22
$RDENS,776,4504414,PC
$GPGGA,123045.80,4612.1907133,N,00607.5595354,E,4,06,1.4,368.677,M,49.481,M,6.95,0195*71
$GPVTG,213.1889,T,213.1889,M,1.064,N,1.971,K,D*2B
$GPGGA,123046.20,4612.1906095,N,00607.5594345,E,4,06,1.4,368.706,M,49.481,M,7.35,0195*79
$GPVTG,217.0541,T,217.0541,M,1.157,N,2.144,K,D*27
$GPGGA,123046.40,4612.1905580,N,00607.5593853,E,4,06,1.4,368.714,M,49.481,M,7.55,0195*73
$GPVTG,211.4667,T,211.4667,M,1.006,N,1.864,K,D*2A
$RDENS,777,4504501,PC
$GPGGA,123046.80,4612.1904566,N,00607.5592980,E,4,06,1.4,368.704,M,49.481,M,7.95,0195*75
$GPVTG,211.1344,T,211.1344,M,1.108,N,2.053,K,D*2A
$GPGGA,123047.00,4612.1904059,N,00607.5592561,E,4,06,1.4,368.732,M,49.481,M,0.18,0195*71
$GPVTG,202.8442,T,202.8442,M,1.040,N,1.928,K,D*21
$GPGGA,123047.40,4612.1903178,N,00607.5591837,E,4,06,1.4,368.655,M,49.481,M,0.19,0195*7C
$GPVTG,207.5318,T,207.5318,M,0.921,N,1.707,K,D*2D
$RDENS,778,4504588,PC
$GPGGA,123047.60,4612.1902689,N,00607.5591634,E,4,06,1.4,368.696,M,49.481,M,0.39,0195*76
$GPVTG,196.7431,T,196.7431,M,0.920,N,1.704,K,D*2F
$GPGGA,123048.00,4612.1901705,N,00607.5591261,E,4,06,1.4,368.712,M,49.481,M,0.79,0195*74
$GPVTG,194.8612,T,194.8612,M,0.870,N,1.613,K,D*2C
$GPGGA,123048.20,4612.1901298,N,00607.5591205,E,4,06,1.4,368.728,M,49.481,M,0.99,0195*72
$RDENS,779,4504675,PC
$GPVTG,192.8805,T,192.8805,M,0.731,N,1.354,K,D*20
$GPGGA,123048.60,4612.1900474,N,00607.5591051,E,4,06,1.4,368.705,M,49.481,M,1.39,0195*74
$GPVTG,183.6961,T,183.6961,M,0.735,N,1.361,K,D*22
$GPGGA,123048.80,4612.1900064,N,00607.5591165,E,4,06,1.4,368.701,M,49.481,M,1.59,0195*7B
$GPVTG,165.2924,T,165.2924,M,0.603,N,1.117,K,D*25
$GPGGA,123049.20,4612.1899430,N,00607.5591477,E,4,06,1.4,368.683,M,49.481,M,1.99,0195*75
$RDENS,780,4504762,PC
$GPVTG,157.6383,T,157.6383,M,0.622,N,1.153,K,D*26
$GPGGA,123049.40,4612.1899129,N,00607.5591675,E,4,06,1.4,368.658,M,49.481,M,2.19,0195*73
$GPVTG,134.5322,T,134.5322,M,0.645,N,1.194,K,D*2C
$GPGGA,123049.80,4612.1898628,N,00607.5592451,E,4,06,1.4,368.680,M,49.481,M,2.59,0195*7E
$GPVTG,130.5862,T,130.5862,M,0.655,N,1.214,K,D*26
$GPGGA,123050.00,4612.1898383,N,00607.5592825,E,4,06,1.4,368.667,M,49.481,M,2.79,0195*7E
$RDENS,781,4504849,PC
$GPVTG,120.3366,T,120.3366,M,0.648,N,1.200,K,D*2F
$GPGGA,123050.20,4612.1898211,N,00607.5593270,E,4,06,1.4,368.664,M,49.481,M,2.99,0195*70
$GPVTG,117.1804,T,117.1804,M,0.786,N,1.456,K,D*29
$GPGGA,123050.60,4612.1897845,N,00607.5594408,E,4,06,1.4,368.690,M,49.481,M,3.39,0195*7E
$GPVTG,109.9394,T,109.9394,M,0.747,N,1.384,K,D*2C
$GPGGA,123050.80,4612.1897683,N,00607.5594910,E,4,06,1.4,368.670,M,49.481,M,3.59,0195*78
$RDENS,782,4504936,PC
$GPVTG,105.9962,T,105.9962,M,0.777,N,1.439,K,D*2E
$GPGGA,123051.20,4612.1897422,N,00607.5596126,E,4,06,1.4,368.663,M,49.481,M,3.99,0195*7B
$GPVTG,106.7475,T,106.7475,M,0.781,N,1.447,K,D*2E
$GPGGA,123051.40,4612.1897308,N,00607.5596739,E,4,06,1.4,368.679,M,49.481,M,4.19,0195*7E
$GPVTG,103.9740,T,103.9740,M,0.855,N,1.585,K,D*27
$GPGGA,123051.80,4612.1897064,N,00607.5597973,E,4,06,1.4,368.659,M,49.481,M,4.59,0195*7C
$RDENS,783,4505023,PC
$GPVTG,106.7734,T,106.7734,M,0.757,N,1.403,K,D*25
$GPGGA,123052.00,4612.1896954,N,00607.5598650,E,4,06,1.4,368.659,M,49.481,M,4.79,0195*7F
$GPVTG,101.1877,T,101.1877,M,0.828,N,1.534,K,D*27
$GPGGA,123052.40,4612.1896720,N,00607.5600022,E,4,06,1.4,368.682,M,49.481,M,5.19,0195*76
$GPVTG,104.5133,T,104.5133,M,0.849,N,1.573,K,D*23
$GPGGA,123052.60,4612.1896599,N,00607.5600672,E,4,06,1.4,368.676,M,49.481,M,5.39,0195*7E
$RDENS,784,4505110,PC
$GPVTG,106.6827,T,106.6827,M,0.812,N,1.505,K,D*2C
$GPGGA,123053.00,4612.1896351,N,00607.5601972,E,4,06,1.4,368.691,M,49.481,M,5.79,0195*78
$GPVTG,103.1718,T,103.1718,M,0.804,N,1.490,K,D*26
$GPGGA,123053.20,4612.1896292,N,00607.5602528,E,4,06,1.4,368.639,M,49.481,M,0.13,0195*7F
$GPVTG,106.0731,T,106.0731,M,0.810,N,1.500,K,D*2B
$GPGGA,123053.60,4612.1896086,N,00607.5603873,E,4,06,1.4,368.641,M,49.481,M,0.22,0195*73
$RDENS,785,4505197,PC
$GPVTG,99.5110,T,99.5110,M,0.852,N,1.579,K,D*23
$GPGGA,123053.80,4612.1895986,N,00607.5604500,E,4,06,1.4,368.652,M,49.481,M,0.06,0195*7D
$GPVTG,104.1698,T,104.1698,M,0.809,N,1.500,K,D*23
$GPGGA,123054.20,4612.1895799,N,00607.5605827,E,4,06,1.4,368.690,M,49.481,M,0.46,0195*73
$GPVTG,100.3122,T,100.3122,M,0.869,N,1.611,K,D*26
$GPGGA,123054.40,4612.1895743,N,00607.5606542,E,4,06,1.4,368.677,M,49.481,M,0.66,0195*74
$RDENS,786,4505284,PC
$GPVTG,95.8477,T,95.8477,M,0.810,N,1.500,K,D*2B
$GPGGA,123054.60,4612.1895693,N,00607.5607205,E,4,06,1.4,368.687,M,49.481,M,0.86,0195*7E
$GPVTG,93.9355,T,93.9355,M,0.852,N,1.579,K,D*23
$GPGGA,123055.00,4612.1895689,N,00607.5608456,E,4,06,1.4,368.662,M,49.481,M,1.26,0195*7D
$GPVTG,85.5958,T,85.5958,M,0.727,N,1.347,K,D*25
$GPGGA,123055.20,4612.1895723,N,00607.5609071,E,4,06,1.4,368.666,M,49.481,M,1.46,0195*7C
$RDENS,787,4505372,PC
$GPVTG,84.6963,T,84.6963,M,0.945,N,1.752,K,D*2F
$GPGGA,123055.60,4612.1895832,N,00607.5610532,E,4,06,1.4,368.699,M,49.481,M,1.86,0195*71
$GPVTG,83.0199,T,83.0199,M,0.929,N,1.723,K,D*23
$GPGGA,123055.80,4612.1895968,N,00607.5611227,E,4,06,1.4,368.684,M,49.481,M,2.06,0195*74
$GPVTG,71.9417,T,71.9417,M,0.958,N,1.775,K,D*26
$GPGGA,123056.20,4612.1896343,N,00607.5612716,E,4,06,1.4,368.682,M,49.481,M,0.11,0195*7B
$RDENS,788,4505460,PC
$GPVTG,66.9528,T,66.9528,M,1.013,N,1.878,K,D*23
$GPGGA,123056.40,4612.1896621,N,00607.5613516,E,4,06,1.4,368.679,M,49.481,M,0.31,0195*79
$GPVTG,57.3565,T,57.3565,M,1.109,N,2.056,K,D*2E
$GPGGA,123056.80,4612.1897280,N,00607.5615029,E,4,06,1.4,368.649,M,49.481,M,0.71,0195*73
$GPVTG,55.8789,T,55.8789,M,1.139,N,2.112,K,D*2C
$GPGGA,123057.00,4612.1897667,N,00607.5615819,E,4,06,1.4,368.640,M,49.481,M,0.91,0195*7B
$RDENS,789,4505548,PC
$GPVTG,52.9497,T,52.9497,M,1.275,N,2.363,K,D*23
$GPGGA,123057.40,4612.1898510,N,00607.5617446,E,4,06,1.4,368.640,M,49.481,M,1.31,0195*7C
$GPVTG,50.1821,T,50.1821,M,1.289,N,2.389,K,D*24
$GPGGA,123057.60,4612.1898956,N,00607.5618245,E,4,06,1.4,368.658,M,49.481,M,1.51,0195*75
$GPVTG,52.2092,T,52.2092,M,1.279,N,2.369,K,D*25
$GPGGA,123057.80,4612.1899431,N,00607.5619086,E,4,06,1.4,368.657,M,49.481,M,0.13,0195*72
$RDENS,790,4505635,PC
$GPVTG,49.0305,T,49.0305,M,1.384,N,2.566,K,D*2F
$GPGGA,123058.20,4612.1900484,N,00607.5620847,E,4,06,1.4,368.682,M,49.481,M,0.15,0195*79
$GPVTG,49.2222,T,49.2222,M,1.466,N,2.716,K,D*21
$GPGGA,123058.40,4612.1901001,N,00607.5621718,E,4,06,1.4,368.674,M,49.481,M,0.35,0195*78
$GPVTG,48.9666,T,48.9666,M,1.577,N,2.923,K,D*28
$GPGGA,123058.80,4612.1902115,N,00607.5623578,E,4,06,1.4,368.689,M,49.481,M,0.11,0195*71
$RDENS,791,4505722,PC
$GPVTG,47.5405,T,47.5405,M,1.501,N,2.782,K,D*2C
$GPGGA,123059.00,4612.1902639,N,00607.5624463,E,4,06,1.4,368.648,M,49.481,M,0.31,0195*72
$GPVTG,53.5011,T,53.5011,M,1.594,N,2.954,K,D*25
$GPGGA,123059.40,4612.1903717,N,00607.5626428,E,4,06,1.4,368.635,M,49.481,M,0.71,0195*79
$GPVTG,51.3483,T,51.3483,M,1.569,N,2.907,K,D*21
$GPGGA,123059.60,4612.1904224,N,00607.5627373,E,4,06,1.4,368.663,M,49.481,M,0.01,0195*75
$RDENS,792,4505809,PC
$GPVTG,58.8184,T,58.8184,M,1.586,N,2.940,K,D*23
$GPVTG,55.7118,T,55.7118,M,1.506,N,2.790,K,D*28
$GPGGA,123100.20,4612.1905639,N,00607.5630424,E,4,06,1.4,368.671,M,49.481,M,0.59,0195*78
$GPVTG,55.1498,T,55.1498,M,1.466,N,2.716,K,D*21
$GPGGA,123100.40,4612.1906106,N,00607.5631407,E,4,06,1.4,368.669,M,49.481,M,0.79,0195*7D
$RDENS,793,4505897,PC
$GPVTG,57.8517,T,57.8517,M,1.538,N,2.851,K,D*27
$GPGGA,123100.80,4612.1906904,N,00607.5633615,E,4,06,1.4,368.675,M,49.481,M,0.10,0195*7A
$GPVTG,64.0466,T,64.0466,M,1.588,N,2.944,K,D*29
$GPGGA,123101.00,4612.1907247,N,00607.5634698,E,4,06,1.4,368.690,M,49.481,M,0.30,0195*75
$GPVTG,61.5340,T,61.5340,M,1.480,N,2.742,K,D*28
$GPGGA,123101.40,4612.1907979,N,00607.5636852,E,4,06,1.4,368.659,M,49.481,M,0.70,0195*7C
$RDENS,794,4505984,PC
$GPVTG,65.6429,T,65.6429,M,1.519,N,2.815,K,D*24
$GPGGA,123101.60,4612.1908300,N,00607.5637985,E,4,06,1.4,368.655,M,49.481,M,0.90,0195*7D
$GPVTG,73.6741,T,73.6741,M,1.551,N,2.875,K,D*2E
$GPGGA,123102.00,4612.1908895,N,00607.5640223,E,4,06,1.4,368.653,M,49.481,M,1.30,0195*75
$GPVTG,66.8661,T,66.8661,M,1.443,N,2.673,K,D*24
$GPGGA,123102.20,4612.1909103,N,00607.5641356,E,4,06,1.4,368.665,M,49.481,M,1.50,0195*71
$RDENS,795,4506071,PC
$GPVTG,74.4837,T,74.4837,M,1.440,N,2.669,K,D*2C
$GPGGA,123102.60,4612.1909510,N,00607.5643531,E,4,06,1.4,368.669,M,49.481,M,0.15,0195*7A
$GPVTG,76.5045,T,76.5045,M,1.387,N,2.570,K,D*2B
$GPGGA,123102.80,4612.1909611,N,00607.5644690,E,4,06,1.4,368.683,M,49.481,M,0.08,0195*71
$GPVTG,81.1548,T,81.1548,M,1.454,N,2.695,K,D*2A
$GPGGA,123103.00,4612.1909752,N,00607.5645811,E,4,06,1.4,368.698,M,49.481,M,0.28,0195*70
$RDENS,796,4506158,PC
$GPVTG,82.3019,T,82.3019,M,1.409,N,2.612,K,D*2D
$GPGGA,123103.40,4612.1909958,N,00607.5648062,E,4,06,1.4,368.669,M,49.481,M,0.68,0195*7B
$GPVTG,82.5304,T,82.5304,M,1.425,N,2.640,K,D*24
$GPGGA,123103.60,4612.1909968,N,00607.5649218,E,4,06,1.4,368.676,M,49.481,M,0.02,0195*76
$GPVTG,86.9503,T,86.9503,M,1.386,N,2.568,K,D*23
$GPGGA,123104.00,4612.1910057,N,00607.5651486,E,4,06,1.4,368.662,M,49.481,M,0.42,0195*73
$RDENS,797,4506245,PC
$GPVTG,86.9594,T,86.9594,M,1.456,N,2.698,K,D*25
$GPGGA,123104.20,4612.1910049,N,00607.5652594,E,4,06,1.4,368.670,M,49.481,M,0.62,0195*7E
$GPVTG,90.7941,T,90.7941,M,1.435,N,2.659,K,D*2D
$GPGGA,123104.60,4612.1909999,N,00607.5654877,E,4,06,1.4,368.660,M,49.481,M,1.02,0195*76
$GPVTG,92.4649,T,92.4649,M,1.416,N,2.624,K,D*26
$GPGGA,123104.80,4612.1909952,N,00607.5656007,E,4,06,1.4,368.668,M,49.481,M,1.22,0195*78
$RDENS,798,4506332,PC
$GPVTG,93.8573,T,93.8573,M,1.437,N,2.664,K,D*21
$GPGGA,123105.20,4612.1909807,N,00607.5658285,E,4,06,1.4,368.675,M,49.481,M,1.62,0195*7C
$GPVTG,96.1715,T,96.1715,M,1.417,N,2.626,K,D*25
$GPGGA,123105.40,4612.1909749,N,00607.5659401,E,4,06,1.4,368.686,M,49.481,M,1.82,0195*76
$GPVTG,96.9679,T,96.9679,M,1.435,N,2.660,K,D*27
$GPGGA,123105.60,4612.1909652,N,00607.5660542,E,4,06,1.4,368.679,M,49.481,M,0.12,0195*7B
$RDENS,799,4506419,PC
$GPVTG,95.3097,T,95.3097,M,1.427,N,2.644,K,D*22
$GPGGA,123106.00,4612.1909507,N,00607.5662807,E,4,06,1.4,368.666,M,49.481,M,0.28,0195*74
$GPVTG,96.2225,T,96.2225,M,1.430,N,2.650,K,D*21
$GPGGA,123106.20,4612.1909349,N,00607.5663982,E,4,06,1.4,368.690,M,49.481,M,0.48,0195*78
$GPVTG,96.1956,T,96.1956,M,1.364,N,2.529,K,D*2A
$GPGGA,123106.60,4612.1909146,N,00607.5666099,E,4,06,1.4,368.673,M,49.481,M,0.88,0195*76
$RDENS,800,4506506,PC
$GPVTG,101.6191,T,101.6191,M,1.355,N,2.511,K,D*23
$GPGGA,123106.80,4612.1909033,N,00607.5667151,E,4,06,1.4,368.673,M,49.481,M,1.08,0195*76
$GPVTG,99.3622,T,99.3622,M,1.274,N,2.362,K,D*23
$GPGGA,123107.20,4612.1908842,N,00607.5669141,E,4,06,1.4,368.664,M,49.481,M,1.48,0195*7F
$GPVTG,98.5742,T,98.5742,M,1.265,N,2.345,K,D*26
$GPGGA,123107.40,4612.1908728,N,00607.5670104,E,4,06,1.4,368.657,M,49.481,M,0.08,0195*76
$RDENS,801,4506593,PC
$GPVTG,99.5997,T,99.5997,M,1.162,N,2.153,K,D*27
$GPGGA,123107.80,4612.1908552,N,00607.5671940,E,4,06,1.4,368.650,M,49.481,M,0.48,0195*7F
$GPVTG,96.7760,T,96.7760,M,1.157,N,2.145,K,D*26
$GPGGA,123108.00,4612.1908479,N,00607.5672825,E,4,06,1.4,368.648,M,49.481,M,0.68,0195*7A
$GPVTG,95.7481,T,95.7481,M,1.056,N,1.957,K,D*2E
$GPGGA,123108.40,4612.1908350,N,00607.5674507,E,4,06,1.4,368.669,M,49.481,M,1.08,0195*7D
$RDENS,802,4506680,PC
$GPVTG,97.1882,T,97.1882,M,1.020,N,1.890,K,D*25
$GPGGA,123108.60,4612.1908280,N,00607.5675296,E,4,06,1.4,368.666,M,49.481,M,1.28,0195*70
$GPVTG,94.7749,T,94.7749,M,0.952,N,1.764,K,D*2C
$GPGGA,123108.80,4612.1908187,N,00607.5676041,E,4,06,1.4,368.693,M,49.481,M,1.48,0195*7D
$GPVTG,96.8198,T,96.8198,M,0.918,N,1.701,K,D*21
$GPGGA,123109.20,4612.1908078,N,00607.5677464,E,4,06,1.4,368.688,M,49.481,M,1.88,0195*73
$RDENS,803,4506767,PC
$GPVTG,95.1946,T,95.1946,M,0.874,N,1.620,K,D*28
$GPGGA,123109.40,4612.1907972,N,00607.5678151,E,4,06,1.4,368.693,M,49.481,M,2.08,0195*74
$GPVTG,95.8642,T,95.8642,M,0.774,N,1.435,K,D*21
$GPGGA,123109.80,4612.1907834,N,00607.5679466,E,4,06,1.4,368.692,M,49.481,M,2.48,0195*7E
$GPVTG,94.8446,T,94.8446,M,0.765,N,1.418,K,D*2E
