$GPVTG,296.0446,T,296.0446,M,0.150,N,0.278,K,D*2F
$GPGGA,124056.80,4612.0685799,N,00607.4259495,E,4,07,1.1,368.493,M,49.479,M,0.10,0195*7A
$GPVTG,286.7849,T,286.7849,M,0.166,N,0.308,K,D*2C
$GPGGA,124057.20,4612.0685822,N,00607.4259246,E,4,07,1.1,368.539,M,49.479,M,0.50,0195*73
$GPVTG,286.9592,T,286.9592,M,0.154,N,0.286,K,D*2A
$GPGGA,124057.40,4612.0685855,N,00607.4259106,E,4,07,1.1,368.541,M,49.479,M,0.70,0195*7F
$GPVTG,275.5810,T,275.5810,M,0.214,N,0.396,K,D*2D
$GPGGA,124057.80,4612.0685907,N,00607.4258759,E,4,07,1.1,368.515,M,49.479,M,1.10,0195*7E
$GPVTG,270.2686,T,270.2686,M,0.158,N,0.294,K,D*25
$GPGGA,124058.00,4612.0685961,N,00607.4258631,E,4,07,1.1,368.502,M,49.479,M,1.30,0195*72
$GPVTG,304.5992,T,304.5992,M,0.155,N,0.287,K,D*2A
$GPGGA,124058.40,4612.0685979,N,00607.4258481,E,4,07,1.1,368.517,M,49.479,M,1.70,0195*76
$GPVTG,298.5460,T,298.5460,M,0.156,N,0.289,K,D*27
$GPGGA,124058.60,4612.0685971,N,00607.4258395,E,4,07,1.1,368.542,M,49.479,M,0.12,0195*7B
$RDENS,1468,4565709,PC
$GPVTG,290.0284,T,290.0284,M,0.109,N,0.203,K,D*2F
$GPGGA,124059.00,4612.0685997,N,00607.4258159,E,4,07,1.1,368.591,M,49.479,M,0.22,0195*7B
$GPVTG,289.1144,T,289.1144,M,0.197,N,0.365,K,D*29
$GPGGA,124059.20,4612.0686090,N,00607.4257883,E,4,07,1.1,368.568,M,49.479,M,0.42,0195*75
$GPVTG,279.9556,T,279.9556,M,0.207,N,0.383,K,D*2B
$GPGGA,124059.60,4612.0686135,N,00607.4257546,E,4,07,1.1,368.581,M,49.479,M,0.82,0195*70
$RDENS,1469,4565798,PC
$GPVTG,279.3358,T,279.3358,M,0.209,N,0.388,K,D*2E
$GPGGA,124059.80,4612.0686161,N,00607.4257351,E,4,07,1.1,368.558,M,49.479,M,1.02,0195*72
$GPVTG,262.6203,T,262.6203,M,0.220,N,0.407,K,D*25
$GPGGA,124100.20,4612.0686187,N,00607.4256981,E,4,07,1.1,368.507,M,49.479,M,1.42,0195*75
$GPVTG,269.7865,T,269.7865,M,0.213,N,0.396,K,D*2A
$GPGGA,124100.40,4612.0686184,N,00607.4256854,E,4,07,1.1,368.507,M,49.479,M,1.62,0195*7B
$RDENS,1470,4565887,PC
$GPVTG,261.1806,T,261.1806,M,0.185,N,0.343,K,D*2E
$GPGGA,124100.60,4612.0686156,N,00607.4256710,E,4,07,1.1,368.523,M,49.479,M,1.82,0195*71
$GPVTG,272.4158,T,272.4158,M,0.204,N,0.379,K,D*2D
$GPGGA,124101.00,4612.0686183,N,00607.4256385,E,4,07,1.1,368.533,M,49.479,M,2.22,0195*7E
$GPVTG,273.5644,T,273.5644,M,0.195,N,0.361,K,D*2F
$GPGGA,124101.20,4612.0686215,N,00607.4256180,E,4,07,1.1,368.540,M,49.479,M,2.42,0195*75
$RDENS,1471,4565976,PC
$GPVTG,271.6115,T,271.6115,M,0.253,N,0.469,K,D*29
$GPGGA,124101.60,4612.0686197,N,00607.4255790,E,4,07,1.1,368.547,M,49.479,M,2.82,0195*77
$GPVTG,262.8782,T,262.8782,M,0.238,N,0.442,K,D*2D
$GPGGA,124101.80,4612.0686195,N,00607.4255591,E,4,07,1.1,368.541,M,49.479,M,3.02,0195*77
$GPVTG,284.3313,T,284.3313,M,0.264,N,0.489,K,D*23
$GPGGA,124102.20,4612.0686194,N,00607.4255219,E,4,07,1.1,368.549,M,49.479,M,3.42,0195*74
$RDENS,1472,4566065,PC
$GPVTG,275.7964,T,275.7964,M,0.294,N,0.546,K,D*2E
$GPGGA,124102.40,4612.0686193,N,00607.4255017,E,4,07,1.1,368.549,M,49.479,M,3.62,0195*7B
$GPVTG,263.2932,T,263.2932,M,0.225,N,0.417,K,D*21
$GPGGA,124102.80,4612.0686205,N,00607.4254598,E,4,07,1.1,368.551,M,49.479,M,4.02,0195*70
$GPVTG,262.0037,T,262.0037,M,0.253,N,0.469,K,D*29
$GPGGA,124103.00,4612.0686204,N,00607.4254401,E,4,07,1.1,368.570,M,49.479,M,4.22,0195*78
$RDENS,1473,4566154,PC
$GPVTG,272.0458,T,272.0458,M,0.252,N,0.467,K,D*26
$GPGGA,124103.40,4612.0686211,N,00607.4254003,E,4,07,1.1,368.562,M,49.479,M,4.62,0195*79
$GPVTG,267.3886,T,267.3886,M,0.231,N,0.428,K,D*28
$GPGGA,124103.60,4612.0686202,N,00607.4253802,E,4,07,1.1,368.547,M,49.479,M,4.82,0195*7E
$GPVTG,275.4794,T,275.4794,M,0.310,N,0.575,K,D*23
$GPGGA,124104.00,4612.0686164,N,00607.4253334,E,4,07,1.1,368.537,M,49.479,M,5.22,0195*7E
$RDENS,1474,4566243,PC
$GPVTG,268.1768,T,268.1768,M,0.348,N,0.645,K,D*2E
$GPGGA,124104.20,4612.0686147,N,00607.4253050,E,4,07,1.1,368.535,M,49.479,M,5.42,0195*78
$GPVTG,248.7495,T,248.7495,M,0.317,N,0.588,K,D*26
$GPGGA,124104.60,4612.0686097,N,00607.4252575,E,4,07,1.1,368.541,M,49.479,M,5.82,0195*7C
$GPVTG,257.0938,T,257.0938,M,0.243,N,0.450,K,D*22
$GPGGA,124104.80,4612.0686092,N,00607.4252340,E,4,07,1.1,368.547,M,49.479,M,6.02,0195*7A
$GPVTG,269.5381,T,269.5381,M,0.297,N,0.551,K,D*2B
$RDENS,1475,4566332,PC
$GPGGA,124105.00,4612.0686083,N,00607.4252105,E,4,07,1.1,368.554,M,49.479,M,6.22,0195*70
$GPVTG,263.7784,T,263.7784,M,0.295,N,0.547,K,D*2E
$GPGGA,124105.40,4612.0686053,N,00607.4251607,E,4,07,1.1,368.550,M,49.479,M,6.62,0195*7F
$GPVTG,261.9830,T,261.9830,M,0.329,N,0.609,K,D*21
$GPGGA,124105.60,4612.0686038,N,00607.4251405,E,4,07,1.1,368.551,M,49.479,M,6.82,0195*7F
$GPVTG,267.1866,T,267.1866,M,0.267,N,0.494,K,D*2C
$RDENS,1476,4566421,PC
$GPGGA,124106.00,4612.0686024,N,00607.4250967,E,4,07,1.1,368.547,M,49.479,M,7.22,0195*73
$GPVTG,264.5634,T,264.5634,M,0.284,N,0.527,K,D*28
$GPGGA,124106.20,4612.0685984,N,00607.4250666,E,4,07,1.1,368.541,M,49.479,M,7.42,0195*7F
$GPVTG,259.5447,T,259.5447,M,0.285,N,0.528,K,D*26
$GPGGA,124106.60,4612.0685941,N,00607.4250219,E,4,07,1.1,368.554,M,49.479,M,7.82,0195*76
$GPVTG,264.9160,T,264.9160,M,0.263,N,0.486,K,D*2B
$RDENS,1477,4566510,PC
$GPGGA,124106.80,4612.0685909,N,00607.4249929,E,4,07,1.1,368.540,M,49.479,M,8.02,0195*76
$GPVTG,254.0570,T,254.0570,M,0.404,N,0.749,K,D*2C
$GPGGA,124107.20,4612.0685807,N,00607.4249380,E,4,07,1.1,368.549,M,49.479,M,8.42,0195*76
$GPVTG,255.9680,T,255.9680,M,0.341,N,0.632,K,D*27
$GPGGA,124107.40,4612.0685731,N,00607.4249201,E,4,07,1.1,368.563,M,49.479,M,8.62,0195*78
$GPVTG,227.2019,T,227.2019,M,0.314,N,0.582,K,D*2F
$RDENS,1478,4566599,PC
$GPGGA,124107.80,4612.0685481,N,00607.4248821,E,4,07,1.1,368.567,M,49.479,M,9.02,0195*76
$GPVTG,223.0187,T,223.0187,M,0.345,N,0.640,K,D*26
$GPGGA,124108.00,4612.0685313,N,00607.4248678,E,4,07,1.1,368.563,M,49.479,M,9.22,0195*79
$GPVTG,202.9606,T,202.9606,M,0.390,N,0.724,K,D*2D
$GPGGA,124108.40,4612.0684871,N,00607.4248489,E,4,07,1.1,368.557,M,49.479,M,9.62,0195*7C
$GPVTG,192.5956,T,192.5956,M,0.418,N,0.775,K,D*2E
$RDENS,1479,4566688,PC
$GPGGA,124108.60,4612.0684609,N,00607.4248361,E,4,07,1.1,368.532,M,49.479,M,9.82,0195*73
$GPVTG,197.1544,T,197.1544,M,0.474,N,0.878,K,D*26
$GPGGA,124109.00,4612.0683989,N,00607.4248246,E,4,07,1.1,368.519,M,49.479,M,10.22,0195*4B
$GPVTG,182.0965,T,182.0965,M,0.736,N,1.364,K,D*24
$GPGGA,124109.20,4612.0683631,N,00607.4248257,E,4,07,1.1,368.543,M,49.479,M,10.42,0195*4C
$GPVTG,189.0969,T,189.0969,M,0.723,N,1.339,K,D*28
$RDENS,1480,4566778,PC
$GPGGA,124109.60,4612.0682811,N,00607.4248176,E,4,07,1.1,368.567,M,49.479,M,10.82,0195*4F
$GPVTG,178.3949,T,178.3949,M,0.781,N,1.447,K,D*2E
$GPGGA,124109.80,4612.0682375,N,00607.4248184,E,4,07,1.1,368.587,M,49.479,M,11.02,0195*42
$GPVTG,183.2652,T,183.2652,M,0.812,N,1.505,K,D*2C
$GPGGA,124110.00,4612.0681922,N,00607.4248136,E,4,07,1.1,368.564,M,49.479,M,11.22,0195*4F
$GPVTG,180.8297,T,180.8297,M,0.839,N,1.555,K,D*20
$RDENS,1481,4566866,PC
$GPGGA,124110.40,4612.0680985,N,00607.4248142,E,4,07,1.1,368.544,M,49.479,M,0.10,0195*77
$GPVTG,186.9293,T,186.9293,M,0.922,N,1.709,K,D*20
$GPGGA,124110.60,4612.0680464,N,00607.4248066,E,4,07,1.1,368.526,M,49.479,M,0.30,0195*76
$GPVTG,178.5872,T,178.5872,M,1.043,N,1.933,K,D*28
$GPGGA,124111.00,4612.0679319,N,00607.4248160,E,4,07,1.1,368.551,M,49.479,M,0.70,0195*79
$GPVTG,174.7889,T,174.7889,M,1.030,N,1.910,K,D*2D
$RDENS,1482,4566955,PC
$GPGGA,124111.20,4612.0678712,N,00607.4248241,E,4,07,1.1,368.552,M,49.479,M,0.90,0195*78
$GPVTG,179.0471,T,179.0471,M,1.155,N,2.140,K,D*21
$GPGGA,124111.60,4612.0677494,N,00607.4248335,E,4,07,1.1,368.570,M,49.479,M,0.01,0195*74
$GPVTG,174.9061,T,174.9061,M,1.149,N,2.129,K,D*23
$GPGGA,124111.80,4612.0676775,N,00607.4248452,E,4,07,1.1,368.600,M,49.479,M,0.17,0195*72
$GPVTG,173.0073,T,173.0073,M,1.271,N,2.355,K,D*22
$RDENS,1483,4567045,PC
$GPGGA,124112.20,4612.0675393,N,00607.4248744,E,4,07,1.1,368.576,M,49.479,M,0.23,0195*75
$GPVTG,170.2562,T,170.2562,M,1.225,N,2.270,K,D*25
$GPGGA,124112.40,4612.0674627,N,00607.4248956,E,4,07,1.1,368.579,M,49.479,M,0.01,0195*7A
$GPVTG,170.1261,T,170.1261,M,1.402,N,2.598,K,D*27
$GPGGA,124112.80,4612.0673086,N,00607.4249215,E,4,07,1.1,368.574,M,49.479,M,0.41,0195*78
$GPVTG,176.4184,T,176.4184,M,1.391,N,2.577,K,D*2B
$RDENS,1484,4567135,PC
$GPGGA,124113.00,4612.0672314,N,00607.4249429,E,4,07,1.1,368.566,M,49.479,M,0.61,0195*70
$GPVTG,166.2594,T,166.2594,M,1.434,N,2.658,K,D*2D
$GPGGA,124113.40,4612.0670744,N,00607.4249839,E,4,07,1.1,368.557,M,49.479,M,1.01,0195*7F
$GPVTG,172.1964,T,172.1964,M,1.480,N,2.743,K,D*29
$GPGGA,124113.60,4612.0669903,N,00607.4250052,E,4,07,1.1,368.575,M,49.479,M,0.14,0195*70
$GPVTG,168.8456,T,168.8456,M,1.571,N,2.911,K,D*2F
$RDENS,1485,4567232,PC
$GPGGA,124114.00,4612.0668100,N,00607.4250424,E,4,07,1.1,368.585,M,49.479,M,0.54,0195*75
$GPVTG,172.2249,T,172.2249,M,1.606,N,2.976,K,D*2D
$GPVTG,168.3383,T,168.3383,M,1.618,N,2.998,K,D*22
$GPGGA,124114.40,4612.0666359,N,00607.4250931,E,4,07,1.1,368.555,M,49.479,M,0.94,0195*79
$GPVTG,170.3877,T,170.3877,M,1.688,N,3.129,K,D*28
$GPGGA,124114.60,4612.0665399,N,00607.4251135,E,4,07,1.1,368.573,M,49.479,M,0.05,0195*75
$GPVTG,171.5872,T,171.5872,M,1.630,N,3.020,K,D*23
$RDENS,1486,4567329,PC
$GPGGA,124115.00,4612.0663604,N,00607.4251637,E,4,07,1.1,368.593,M,49.479,M,0.35,0195*7D
$GPVTG,168.9520,T,168.9520,M,1.651,N,3.059,K,D*2A
$GPGGA,124115.20,4612.0662816,N,00607.4251778,E,4,07,1.1,368.579,M,49.479,M,0.55,0195*7B
$GPVTG,169.5592,T,169.5592,M,1.544,N,2.861,K,D*2F
$GPGGA,124115.60,4612.0661096,N,00607.4252168,E,4,07,1.1,368.583,M,49.479,M,0.95,0195*71
$GPVTG,171.3437,T,171.3437,M,1.554,N,2.879,K,D*27
$GPGGA,124115.80,4612.0660351,N,00607.4252233,E,4,07,1.1,368.581,M,49.479,M,1.15,0195*70
$RDENS,1487,4567426,PC
$GPVTG,174.9969,T,174.9969,M,1.374,N,2.546,K,D*22
$GPGGA,124116.20,4612.0658783,N,00607.4252509,E,4,07,1.1,368.585,M,49.479,M,1.55,0195*77
$GPVTG,171.4684,T,171.4684,M,1.396,N,2.587,K,D*23
$GPGGA,124116.40,4612.0658036,N,00607.4252511,E,4,07,1.1,368.562,M,49.479,M,1.75,0195*7A
$GPVTG,174.1300,T,174.1300,M,1.339,N,2.482,K,D*22
$RDENS,1488,4567512,PC
$GPGGA,124116.80,4612.0656552,N,00607.4252605,E,4,07,1.1,368.551,M,49.479,M,2.15,0195*7C
$GPVTG,181.2706,T,181.2706,M,1.350,N,2.501,K,D*27
$GPGGA,124117.00,4612.0655769,N,00607.4252596,E,4,07,1.1,368.569,M,49.479,M,2.35,0195*7C
$GPVTG,179.0504,T,179.0504,M,1.350,N,2.503,K,D*25
$GPGGA,124117.40,4612.0654303,N,00607.4252597,E,4,07,1.1,368.559,M,49.479,M,2.75,0195*77
$GPVTG,179.3728,T,179.3728,M,1.344,N,2.491,K,D*2A
$RDENS,1489,4567598,PC
$GPGGA,124117.60,4612.0653571,N,00607.4252594,E,4,07,1.1,368.569,M,49.479,M,2.95,0195*7F
$GPVTG,178.5909,T,178.5909,M,1.285,N,2.382,K,D*23
$GPGGA,124118.00,4612.0652179,N,00607.4252627,E,4,07,1.1,368.577,M,49.479,M,3.35,0195*74
$GPVTG,178.9367,T,178.9367,M,1.245,N,2.307,K,D*22
$GPGGA,124118.20,4612.0651418,N,00607.4252626,E,4,07,1.1,368.593,M,49.479,M,3.55,0195*7A
$GPVTG,181.5561,T,181.5561,M,1.279,N,2.371,K,D*2C
$RDENS,1490,4567684,PC
$GPGGA,124118.60,4612.0649989,N,00607.4252561,E,4,07,1.1,368.585,M,49.479,M,3.95,0195*79
$GPVTG,181.5893,T,181.5893,M,1.284,N,2.379,K,D*26
$GPGGA,124118.80,4612.0649292,N,00607.4252471,E,4,07,1.1,368.577,M,49.479,M,4.15,0195*74
$GPVTG,184.4417,T,184.4417,M,1.242,N,2.301,K,D*23
$GPGGA,124119.00,4612.0648597,N,00607.4252389,E,4,07,1.1,368.565,M,49.479,M,4.35,0195*7F
$GPVTG,183.0641,T,183.0641,M,1.218,N,2.257,K,D*2E
$RDENS,1491,4567770,PC
$GPGGA,124119.40,4612.0647285,N,00607.4252204,E,4,07,1.1,368.562,M,49.479,M,4.75,0195*77
$GPVTG,186.0408,T,186.0408,M,1.212,N,2.246,K,D*24
$GPGGA,124119.60,4612.0646612,N,00607.4252165,E,4,07,1.1,368.586,M,49.479,M,4.95,0195*7E
$GPVTG,192.5450,T,192.5450,M,1.169,N,2.166,K,D*2A
$GPGGA,124120.00,4612.0645311,N,00607.4251788,E,4,07,1.1,368.572,M,49.479,M,5.35,0195*71
$GPVTG,190.0815,T,190.0815,M,1.187,N,2.200,K,D*29
$RDENS,1492,4567856,PC
$GPGGA,124120.20,4612.0644655,N,00607.4251601,E,4,07,1.1,368.596,M,49.479,M,5.55,0195*7B
$GPVTG,190.9249,T,190.9249,M,1.136,N,2.105,K,D*25
$GPGGA,124120.60,4612.0643388,N,00607.4251248,E,4,07,1.1,368.585,M,49.479,M,5.95,0195*7A
$GPVTG,190.9283,T,190.9283,M,1.169,N,2.167,K,D*2B
$GPGGA,124120.80,4612.0642774,N,00607.4251067,E,4,07,1.1,368.580,M,49.479,M,6.15,0195*73
$GPVTG,190.1884,T,190.1884,M,1.164,N,2.158,K,D*2A
$RDENS,1493,4567942,PC
$GPGGA,124121.20,4612.0641505,N,00607.4250742,E,4,07,1.1,368.592,M,49.479,M,6.55,0195*79
$GPVTG,189.7830,T,189.7830,M,1.157,N,2.144,K,D*27
$GPGGA,124121.40,4612.0640905,N,00607.4250459,E,4,07,1.1,368.572,M,49.479,M,6.75,0195*77
$GPVTG,190.6232,T,190.6232,M,1.111,N,2.059,K,D*28
$GPGGA,124121.80,4612.0639701,N,00607.4250042,E,4,07,1.1,368.583,M,49.479,M,7.15,0195*78
$GPVTG,200.2869,T,200.2869,M,1.034,N,1.915,K,D*2C
$RDENS,1494,4568027,PC
$GPGGA,124122.00,4612.0639092,N,00607.4249852,E,4,07,1.1,368.598,M,49.479,M,7.35,0195*77
$GPVTG,193.3701,T,193.3701,M,1.041,N,1.930,K,D*29
$GPGGA,124122.40,4612.0638022,N,00607.4249414,E,4,07,1.1,368.586,M,49.479,M,7.75,0195*7C
$GPVTG,196.2234,T,196.2234,M,0.986,N,1.827,K,D*2D
$GPGGA,124122.60,4612.0637448,N,00607.4249170,E,4,07,1.1,368.582,M,49.479,M,7.95,0195*74
$GPVTG,202.4984,T,202.4984,M,1.100,N,2.039,K,D*2E
$RDENS,1495,4568114,PC
$GPGGA,124123.00,4612.0636337,N,00607.4248523,E,4,07,1.1,368.595,M,49.479,M,8.35,0195*7D
$GPVTG,200.3951,T,200.3951,M,1.072,N,1.987,K,D*25
$GPGGA,124123.20,4612.0635766,N,00607.4248223,E,4,07,1.1,368.584,M,49.479,M,8.55,0195*7D
$GPVTG,200.2936,T,200.2936,M,0.997,N,1.849,K,D*25
$GPGGA,124123.40,4612.0635235,N,00607.4247957,E,4,07,1.1,368.597,M,49.479,M,0.17,0195*73
$RDENS,1496,4568200,PC
$GPVTG,201.7208,T,201.7208,M,1.028,N,1.906,K,D*23
$GPGGA,124123.80,4612.0634213,N,00607.4247297,E,4,08,1.0,368.580,M,49.479,M,0.02,0195*71
$GPVTG,205.5045,T,205.5045,M,1.080,N,2.002,K,D*2F
$GPGGA,124124.00,4612.0633667,N,00607.4246906,E,4,08,1.0,368.576,M,49.479,M,0.08,0195*7F
$GPVTG,202.7079,T,202.7079,M,1.126,N,2.086,K,D*2E
$GPGGA,124124.40,4612.0632602,N,00607.4246204,E,4,08,1.0,368.586,M,49.479,M,0.05,0195*72
$RDENS,1497,4568286,PC
$GPVTG,207.9716,T,207.9716,M,1.015,N,1.881,K,D*23
$GPGGA,124124.60,4612.0632133,N,00607.4245873,E,4,08,1.0,368.581,M,49.479,M,0.09,0195*77
$GPVTG,204.3191,T,204.3191,M,0.992,N,1.838,K,D*26
$GPGGA,124125.00,4612.0631146,N,00607.4245132,E,4,08,1.0,368.593,M,49.479,M,0.49,0195*7A
$GPVTG,210.3685,T,210.3685,M,1.002,N,1.856,K,D*2F
$GPGGA,124125.20,4612.0630651,N,00607.4244743,E,4,08,1.0,368.583,M,49.479,M,0.69,0195*7A
$RDENS,1498,4568372,PC
$GPVTG,210.8539,T,210.8539,M,1.010,N,1.871,K,D*29
$GPGGA,124125.60,4612.0629694,N,00607.4243926,E,4,08,1.0,368.580,M,49.479,M,1.09,0195*71
$GPVTG,209.2833,T,209.2833,M,0.999,N,1.851,K,D*22
$GPGGA,124125.80,4612.0629184,N,00607.4243504,E,4,08,1.0,368.591,M,49.479,M,1.29,0195*77
$GPVTG,207.8504,T,207.8504,M,1.013,N,1.877,K,D*2C
$GPGGA,124126.20,4612.0628192,N,00607.4242721,E,4,08,1.0,368.594,M,49.479,M,1.69,0195*7D
$RDENS,1499,4568458,PC
$GPVTG,208.9625,T,208.9625,M,1.026,N,1.901,K,D*2A
$GPGGA,124126.40,4612.0627710,N,00607.4242301,E,4,07,1.1,368.604,M,49.479,M,1.89,0195*74
$GPVTG,212.2309,T,212.2309,M,1.039,N,1.926,K,D*21
$GPGGA,124126.80,4612.0626763,N,00607.4241407,E,4,07,1.1,368.607,M,49.479,M,2.29,0195*75
$GPVTG,214.5369,T,214.5369,M,0.993,N,1.841,K,D*29
$GPGGA,124127.00,4612.0626356,N,00607.4240911,E,4,07,1.1,368.592,M,49.479,M,2.49,0195*7C
$RDENS,1500,4568544,PC
$GPVTG,215.2572,T,215.2572,M,0.961,N,1.781,K,D*27
$GPGGA,124127.40,4612.0625515,N,00607.4240012,E,4,07,1.1,368.593,M,49.479,M,2.89,0195*7D
$GPVTG,218.9788,T,218.9788,M,0.915,N,1.696,K,D*23
$GPGGA,124127.60,4612.0625094,N,00607.4239513,E,4,07,1.1,368.573,M,49.479,M,3.09,0195*7E
$GPVTG,216.6629,T,216.6629,M,0.967,N,1.792,K,D*23
$RDENS,1501,4568630,PC
$GPGGA,124128.00,4612.0624252,N,00607.4238549,E,4,07,1.1,368.563,M,49.479,M,3.49,0195*75
$GPVTG,220.2929,T,220.2929,M,0.962,N,1.783,K,D*26
$GPGGA,124128.20,4612.0623825,N,00607.4238078,E,4,07,1.1,368.574,M,49.479,M,3.69,0195*79
$GPVTG,221.6949,T,221.6949,M,0.940,N,1.743,K,D*2A
$GPGGA,124128.40,4612.0623430,N,00607.4237572,E,4,07,1.1,368.570,M,49.479,M,3.89,0195*7D
$GPVTG,217.8201,T,217.8201,M,0.966,N,1.790,K,D*20
$RDENS,1502,4568716,PC
$GPGGA,124128.80,4612.0622593,N,00607.4236618,E,4,07,1.1,368.596,M,49.479,M,4.29,0195*73
$GPVTG,221.3967,T,221.3967,M,0.934,N,1.730,K,D*2D
$GPGGA,124129.00,4612.0622167,N,00607.4236135,E,4,07,1.1,368.598,M,49.479,M,4.49,0195*75
$GPVTG,220.9755,T,220.9755,M,0.941,N,1.743,K,D*2B
$GPGGA,124129.40,4612.0621390,N,00607.4235147,E,4,07,1.1,368.586,M,49.479,M,4.89,0195*7D
$GPVTG,225.6207,T,225.6207,M,0.867,N,1.607,K,D*2F
$RDENS,1503,4568802,PC
$GPGGA,124129.60,4612.0621030,N,00607.4234622,E,4,07,1.1,368.582,M,49.479,M,5.09,0195*7E
$GPVTG,219.6161,T,219.6161,M,0.915,N,1.696,K,D*23
$GPGGA,124130.00,4612.0620293,N,00607.4233593,E,4,07,1.1,368.578,M,49.479,M,5.49,0195*75
$GPVTG,231.1962,T,231.1962,M,0.911,N,1.689,K,D*29
$GPGGA,124130.20,4612.0619891,N,00607.4233040,E,4,07,1.1,368.575,M,49.479,M,5.69,0195*71
$GPVTG,227.7921,T,227.7921,M,0.933,N,1.728,K,D*23
$RDENS,1504,4568888,PC
$GPGGA,124130.60,4612.0619185,N,00607.4231962,E,4,07,1.1,368.569,M,49.479,M,6.09,0195*7A
$GPVTG,224.5434,T,224.5434,M,0.926,N,1.716,K,D*2A
$GPGGA,124130.80,4612.0618833,N,00607.4231433,E,4,07,1.1,368.571,M,49.479,M,6.29,0195*73
$GPVTG,224.1560,T,224.1560,M,0.894,N,1.657,K,D*26
$GPGGA,124131.20,4612.0618117,N,00607.4230466,E,4,07,1.1,368.602,M,49.479,M,6.69,0195*75
$GPVTG,227.0752,T,227.0752,M,0.850,N,1.575,K,D*2D
$RDENS,1505,4568974,PC
$GPGGA,124131.40,4612.0617756,N,00607.4229931,E,4,07,1.1,368.610,M,49.479,M,6.89,0195*75
$GPVTG,230.4147,T,230.4147,M,0.956,N,1.772,K,D*2F
$GPGGA,124131.80,4612.0617146,N,00607.4228736,E,4,07,1.1,368.594,M,49.479,M,7.29,0195*72
$GPVTG,229.2949,T,229.2949,M,0.926,N,1.716,K,D*2A
$GPGGA,124132.00,4612.0616818,N,00607.4228218,E,4,07,1.1,368.609,M,49.479,M,7.49,0195*72
$GPVTG,231.7523,T,231.7523,M,0.894,N,1.657,K,D*26
$RDENS,1506,4569060,PC
$GPGGA,124132.40,4612.0616178,N,00607.4227077,E,4,07,1.1,368.574,M,49.479,M,7.89,0195*78
$GPVTG,231.5966,T,231.5966,M,0.925,N,1.713,K,D*2C
$GPGGA,124132.60,4612.0615831,N,00607.4226475,E,4,07,1.1,368.561,M,49.479,M,8.09,0195*79
$GPVTG,224.3744,T,224.3744,M,0.980,N,1.815,K,D*2A
$GPGGA,124132.80,4612.0615445,N,00607.4225924,E,4,07,1.1,368.558,M,49.479,M,8.29,0195*7A
$GPVTG,222.0557,T,222.0557,M,0.951,N,1.762,K,D*29
$RDENS,1507,4569146,PC
$GPGGA,124133.20,4612.0614633,N,00607.4224942,E,4,07,1.1,368.571,M,49.479,M,8.69,0195*7D
$GPVTG,220.3598,T,220.3598,M,0.948,N,1.758,K,D*28
$GPGGA,124133.40,4612.0614252,N,00607.4224441,E,4,07,1.1,368.567,M,49.479,M,8.89,0195*7F
$GPVTG,216.5915,T,216.5915,M,1.009,N,1.870,K,D*20
$GPGGA,124133.80,4612.0613346,N,00607.4223383,E,4,07,1.1,368.567,M,49.479,M,9.29,0195*75
$GPVTG,218.7236,T,218.7236,M,1.095,N,2.030,K,D*2A
$RDENS,1508,4569232,PC
$GPGGA,124134.00,4612.0612884,N,00607.4222910,E,4,07,1.1,368.574,M,49.479,M,9.49,0195*7B
$GPVTG,217.2486,T,217.2486,M,1.103,N,2.043,K,D*20
$GPGGA,124134.40,4612.0611889,N,00607.4221926,E,4,07,1.1,368.560,M,49.479,M,9.89,0195*7E
$GPVTG,212.4393,T,212.4393,M,1.058,N,1.961,K,D*25
$GPGGA,124134.60,4612.0611365,N,00607.4221464,E,4,07,1.1,368.556,M,49.479,M,10.09,0195*4B
$RDENS,1509,4569318,PC
$GPVTG,210.6322,T,210.6322,M,1.196,N,2.217,K,D*2F
$GPGGA,124135.00,4612.0610251,N,00607.4220478,E,4,07,1.1,368.511,M,49.479,M,10.49,0195*40
$GPVTG,207.5007,T,207.5007,M,1.207,N,2.237,K,D*26
$GPGGA,124135.20,4612.0609639,N,00607.4220091,E,4,07,1.1,368.528,M,49.479,M,10.69,0195*4B
$GPVTG,204.1186,T,204.1186,M,1.193,N,2.211,K,D*2C
$GPGGA,124135.60,4612.0608400,N,00607.4219362,E,4,07,1.1,368.533,M,49.479,M,11.09,0195*4E
$RDENS,1510,4569404,PC
$GPVTG,199.3088,T,199.3088,M,1.244,N,2.305,K,D*21
$GPGGA,124135.80,4612.0607758,N,00607.4218978,E,4,07,1.1,368.536,M,49.479,M,11.29,0195*46
$GPVTG,199.2816,T,199.2816,M,1.208,N,2.239,K,D*27
$GPGGA,124136.20,4612.0606465,N,00607.4218368,E,4,07,1.1,368.541,M,49.479,M,11.69,0195*4C
$GPVTG,197.8127,T,197.8127,M,1.233,N,2.285,K,D*28
$GPVTG,196.1442,T,196.1442,M,1.250,N,2.317,K,D*27
$RDENS,1511,4569490,PC
$GPGGA,124136.60,4612.0605150,N,00607.4217757,E,4,07,1.1,368.538,M,49.479,M,12.09,0195*44
$GPVTG,193.1870,T,193.1870,M,1.309,N,2.426,K,D*2F
$GPGGA,124136.80,4612.0604456,N,00607.4217512,E,4,07,1.1,368.535,M,49.479,M,12.29,0195*44
$GPVTG,192.2502,T,192.2502,M,1.267,N,2.349,K,D*28
$GPGGA,124137.20,4612.0603070,N,00607.4217119,E,4,07,1.1,368.530,M,49.479,M,12.69,0195*46
$GPVTG,189.7948,T,189.7948,M,1.293,N,2.396,K,D*21
$RDENS,1512,4569576,PC
$GPGGA,124137.40,4612.0602363,N,00607.4216950,E,4,07,1.1,368.537,M,49.479,M,12.89,0195*4D
$GPVTG,187.3248,T,187.3248,M,1.341,N,2.486,K,D*29
$GPGGA,124137.80,4612.0600932,N,00607.4216658,E,4,07,1.1,368.543,M,49.479,M,13.29,0195*42
$GPVTG,187.2613,T,187.2613,M,1.314,N,2.436,K,D*22
$GPGGA,124138.00,4612.0600184,N,00607.4216562,E,4,07,1.1,368.558,M,49.479,M,13.49,0195*46
$GPVTG,183.1879,T,183.1879,M,1.334,N,2.472,K,D*20
$RDENS,1513,4569662,PC
$GPGGA,124138.40,4612.0598657,N,00607.4216501,E,4,07,1.1,368.582,M,49.479,M,13.89,0195*47
$GPVTG,180.8565,T,180.8565,M,1.350,N,2.502,K,D*24
$GPGGA,124138.60,4612.0597940,N,00607.4216499,E,4,07,1.1,368.573,M,49.479,M,14.09,0195*42
$GPVTG,178.3995,T,178.3995,M,1.352,N,2.506,K,D*22
$GPGGA,124139.00,4612.0596438,N,00607.4216538,E,4,07,1.1,368.547,M,49.479,M,14.49,0195*4F
$RDENS,1514,4569748,PC
$GPVTG,178.8029,T,178.8029,M,1.370,N,2.538,K,D*2F
$GPGGA,124139.20,4612.0595652,N,00607.4216616,E,2,07,1.1,368.541,M,49.479,M,14.69,0195*4D
$GPVTG,173.9417,T,173.9417,M,1.369,N,2.538,K,D*27
$GPGGA,124139.60,4612.0594118,N,00607.4216896,E,2,07,1.1,368.536,M,49.479,M,15.09,0195*40
$GPVTG,171.7292,T,171.7292,M,1.394,N,2.584,K,D*22
$GPGGA,124139.80,4612.0593342,N,00607.4217024,E,2,07,1.1,368.537,M,49.479,M,15.29,0195*47
$RDENS,1515,4569834,PC
$GPVTG,170.0281,T,170.0281,M,1.441,N,2.670,K,D*25
$GPGGA,124140.20,4612.0591753,N,00607.4217417,E,2,07,1.1,368.552,M,49.479,M,15.69,0195*46
$GPVTG,170.6475,T,170.6475,M,1.423,N,2.637,K,D*22
$GPGGA,124140.40,4612.0590970,N,00607.4217636,E,2,07,1.1,368.551,M,49.479,M,15.89,0195*42
$GPVTG,169.2112,T,169.2112,M,1.450,N,2.687,K,D*2D
$GPGGA,124140.80,4612.0589394,N,00607.4218069,E,2,07,1.1,368.558,M,49.479,M,16.29,0195*45
$RDENS,1516,4569920,PC
$GPVTG,168.2578,T,168.2578,M,1.433,N,2.655,K,D*27
$GPGGA,124141.00,4612.0588628,N,00607.4218279,E,2,07,1.1,368.542,M,49.479,M,16.49,0195*41
$GPVTG,166.2623,T,166.2623,M,1.460,N,2.705,K,D*25
$GPGGA,124141.40,4612.0587049,N,00607.4218757,E,2,07,1.1,368.521,M,49.479,M,16.89,0195*4B
$GPVTG,170.0562,T,170.0562,M,1.486,N,2.753,K,D*2E
$GPGGA,124141.60,4612.0586240,N,00607.4219078,E,2,07,1.1,368.508,M,49.479,M,17.09,0195*4A
$RDENS,1517,4570006,PC
$GPVTG,166.7534,T,166.7534,M,1.444,N,2.675,K,D*25
$GPGGA,124142.00,4612.0584605,N,00607.4219600,E,2,07,1.1,368.507,M,49.479,M,17.49,0195*4A
$GPVTG,168.3952,T,168.3952,M,1.556,N,2.883,K,D*20
$GPGGA,124142.20,4612.0583811,N,00607.4219868,E,2,07,1.1,368.524,M,49.479,M,17.69,0195*47
$GPVTG,163.9002,T,163.9002,M,1.491,N,2.763,K,D*2B
$RDENS,1518,4570092,PC
$GPGGA,124142.60,4612.0582139,N,00607.4220462,E,2,07,1.1,368.537,M,49.479,M,18.09,0195*46
$GPVTG,168.2413,T,168.2413,M,1.536,N,2.846,K,D*2F
$GPGGA,124142.80,4612.0581294,N,00607.4220741,E,4,07,1.1,368.558,M,49.479,M,0.06,0195*74
$GPVTG,167.0610,T,167.0610,M,1.628,N,3.018,K,D*21
$GPGGA,124143.20,4612.0579489,N,00607.4221413,E,4,08,0.9,368.584,M,49.479,M,0.34,0195*71
$GPVTG,164.2953,T,164.2953,M,1.612,N,2.987,K,D*26
$RDENS,1519,4570178,PC
$GPGGA,124143.40,4612.0578630,N,00607.4221731,E,4,08,0.9,368.573,M,49.479,M,0.08,0195*72
$GPVTG,166.5955,T,166.5955,M,1.633,N,3.027,K,D*27
$GPGGA,124143.60,4612.0577745,N,00607.4222025,E,4,08,0.9,368.560,M,49.479,M,0.01,0195*76
$GPVTG,163.8536,T,163.8536,M,1.664,N,3.084,K,D*2C
$GPGGA,124144.00,4612.0575969,N,00607.4222711,E,4,08,0.9,368.556,M,49.479,M,0.39,0195*7B
$GPVTG,166.1425,T,166.1425,M,1.658,N,3.072,K,D*2A
$RDENS,1520,4570263,PC
$GPGGA,124144.20,4612.0575056,N,00607.4223067,E,4,08,0.9,368.552,M,49.479,M,0.59,0195*79
$GPVTG,165.8322,T,165.8322,M,1.689,N,3.131,K,D*20
$GPGGA,124144.60,4612.0573248,N,00607.4223769,E,4,08,0.9,368.554,M,49.479,M,0.15,0195*71
$GPVTG,164.2710,T,164.2710,M,1.682,N,3.118,K,D*20
$GPGGA,124144.80,4612.0572368,N,00607.4224080,E,4,08,0.9,368.553,M,49.479,M,0.35,0195*7F
$GPVTG,166.8467,T,166.8467,M,1.708,N,3.165,K,D*29
$RDENS,1521,4570349,PC
$GPGGA,124145.20,4612.0570542,N,00607.4224666,E,4,08,0.9,368.577,M,49.479,M,0.75,0195*74
$GPVTG,167.9891,T,167.9891,M,1.658,N,3.072,K,D*2A
$GPGGA,124145.40,4612.0569608,N,00607.4224945,E,4,08,0.9,368.587,M,49.479,M,0.95,0195*78
$GPVTG,168.0735,T,168.0735,M,1.714,N,3.176,K,D*26
$GPGGA,124145.80,4612.0567691,N,00607.4225481,E,4,08,0.9,368.580,M,49.479,M,0.06,0195*73
$GPVTG,169.8170,T,169.8170,M,1.788,N,3.314,K,D*25
$RDENS,1522,4570435,PC
$GPGGA,124146.00,4612.0566688,N,00607.4225799,E,4,08,0.9,368.586,M,49.479,M,0.26,0195*7F
$GPVTG,168.5374,T,168.5374,M,1.836,N,3.403,K,D*2E
$GPGGA,124146.40,4612.0564696,N,00607.4226389,E,4,08,0.9,368.580,M,49.479,M,0.66,0195*72
$GPVTG,168.5988,T,168.5988,M,1.844,N,3.417,K,D*2E
$GPGGA,124146.60,4612.0563689,N,00607.4226616,E,4,08,0.9,368.569,M,49.479,M,0.10,0195*7C
$GPVTG,167.5304,T,167.5304,M,1.859,N,3.445,K,D*25
$RDENS,1523,4570521,PC
$GPGGA,124147.00,4612.0561646,N,00607.4227205,E,4,08,0.9,368.567,M,49.479,M,0.50,0195*77
$GPVTG,169.9003,T,169.9003,M,1.886,N,3.496,K,D*29
$GPGGA,124147.20,4612.0560571,N,00607.4227413,E,4,08,0.9,368.566,M,49.479,M,0.70,0195*71
$GPVTG,170.8924,T,170.8924,M,1.866,N,3.459,K,D*24
$GPGGA,124147.60,4612.0558509,N,00607.4227800,E,4,08,0.9,368.569,M,49.479,M,1.10,0195*77
$GPVTG,174.7401,T,174.7401,M,1.903,N,3.526,K,D*2F
$RDENS,1524,4570607,PC
$GPGGA,124147.80,4612.0557501,N,00607.4227967,E,4,08,0.9,368.562,M,49.479,M,1.30,0195*77
$GPVTG,175.0433,T,175.0433,M,1.786,N,3.310,K,D*2F
$GPGGA,124148.00,4612.0556522,N,00607.4228092,E,4,08,0.9,368.579,M,49.479,M,1.50,0195*70
$GPVTG,176.7083,T,176.7083,M,1.718,N,3.184,K,D*27
$GPGGA,124148.40,4612.0554594,N,00607.4228244,E,4,08,0.9,368.571,M,49.479,M,1.90,0195*76
$GPVTG,177.6438,T,177.6438,M,1.763,N,3.268,K,D*2A
$RDENS,1525,4570694,PC
$GPGGA,124148.60,4612.0553669,N,00607.4228287,E,4,08,0.9,368.576,M,49.479,M,2.10,0195*71
$GPVTG,181.6642,T,181.6642,M,1.674,N,3.102,K,D*22
$GPGGA,124149.00,4612.0551798,N,00607.4228226,E,4,08,0.9,368.569,M,49.479,M,2.50,0195*7A
$GPVTG,181.1671,T,181.1671,M,1.697,N,3.145,K,D*2C
$GPGGA,124149.20,4612.0550865,N,00607.4228158,E,4,08,0.9,368.572,M,49.479,M,2.70,0195*76
$GPVTG,183.8162,T,183.8162,M,1.636,N,3.032,K,D*26
$RDENS,1526,4570780,PC
$GPGGA,124149.60,4612.0549045,N,00607.4228014,E,4,08,0.9,368.573,M,49.479,M,3.10,0195*7F
$GPVTG,181.9906,T,181.9906,M,1.609,N,2.983,K,D*28
$GPGGA,124149.80,4612.0548112,N,00607.4227918,E,4,08,0.9,368.583,M,49.479,M,3.30,0195*74
$GPVTG,186.2518,T,186.2518,M,1.570,N,2.910,K,D*2F
$GPGGA,124150.20,4612.0546415,N,00607.4227641,E,4,08,0.9,368.580,M,49.479,M,3.70,0195*7E
$RDENS,1527,4570866,PC
$GPVTG,186.5181,T,186.5181,M,1.502,N,2.784,K,D*29
$GPGGA,124150.40,4612.0545561,N,00607.4227469,E,4,08,0.9,368.576,M,49.479,M,3.90,0195*76
$GPVTG,190.6638,T,190.6638,M,1.474,N,2.731,K,D*27
$GPGGA,124150.80,4612.0543955,N,00607.4226983,E,4,08,0.9,368.568,M,49.479,M,4.30,0195*7D
$GPVTG,192.7644,T,192.7644,M,1.474,N,2.731,K,D*27
$GPGGA,124151.00,4612.0543157,N,00607.4226784,E,4,08,0.9,368.580,M,49.479,M,4.50,0195*77
$RDENS,1528,4570952,PC
$GPVTG,191.6085,T,191.6085,M,1.425,N,2.641,K,D*25
$GPGGA,124151.40,4612.0541607,N,00607.4226313,E,4,08,0.9,368.569,M,49.479,M,4.90,0195*72
$GPVTG,192.7000,T,192.7000,M,1.415,N,2.622,K,D*23
$GPGGA,124151.60,4612.0540826,N,00607.4226014,E,4,08,0.9,368.561,M,49.479,M,5.10,0195*79
$GPVTG,196.9318,T,196.9318,M,1.422,N,2.635,K,D*21
$GPGGA,124152.00,4612.0539310,N,00607.4225376,E,4,08,0.9,368.570,M,49.479,M,5.50,0195*7C
$RDENS,1529,4571038,PC
$GPVTG,195.1795,T,195.1795,M,1.454,N,2.695,K,D*2A
$GPGGA,124152.20,4612.0538561,N,00607.4225065,E,4,08,0.9,368.573,M,49.479,M,5.70,0195*7F
$GPVTG,195.3462,T,195.3462,M,1.462,N,2.710,K,D*23
$GPGGA,124152.60,4612.0536961,N,00607.4224480,E,4,08,0.9,368.571,M,49.479,M,6.10,0195*70
$GPVTG,193.3248,T,193.3248,M,1.503,N,2.786,K,D*2A
$GPGGA,124152.80,4612.0536132,N,00607.4224186,E,4,08,0.9,368.567,M,49.479,M,6.30,0195*76
$RDENS,1530,4571124,PC
$GPVTG,194.3269,T,194.3269,M,1.557,N,2.886,K,D*24
$GPGGA,124153.00,4612.0535289,N,00607.4223888,E,4,08,0.9,368.573,M,49.479,M,6.50,0195*7C
$GPVTG,194.7723,T,194.7723,M,1.632,N,3.024,K,D*25
$GPGGA,124153.40,4612.0533539,N,00607.4223291,E,4,08,0.9,368.561,M,49.479,M,6.90,0195*7F
$GPVTG,191.8304,T,191.8304,M,1.601,N,2.966,K,D*2B
$GPGGA,124153.60,4612.0532677,N,00607.4222976,E,4,08,0.9,368.554,M,49.479,M,7.10,0195*79
$RDENS,1531,4571210,PC
$GPVTG,197.4179,T,197.4179,M,1.552,N,2.876,K,D*2E
$GPGGA,124154.00,4612.0531020,N,00607.4222266,E,4,08,0.9,368.547,M,49.479,M,7.50,0195*73
$GPVTG,196.4695,T,196.4695,M,1.552,N,2.876,K,D*2E
$GPGGA,124154.20,4612.0530228,N,00607.4221872,E,4,08,0.9,368.547,M,49.479,M,7.70,0195*74
$GPVTG,197.7467,T,197.7467,M,1.538,N,2.850,K,D*26
$GPGGA,124154.60,4612.0528616,N,00607.4221112,E,4,08,0.9,368.550,M,49.479,M,8.10,0195*70
$GPVTG,198.8140,T,198.8140,M,1.508,N,2.795,K,D*23
$RDENS,1532,4571307,PC
$GPGGA,124154.80,4612.0527818,N,00607.4220724,E,4,08,0.9,368.560,M,49.479,M,8.30,0195*72
$GPVTG,199.6969,T,199.6969,M,1.473,N,2.730,K,D*21
$GPGGA,124155.20,4612.0526253,N,00607.4219891,E,4,08,0.9,368.568,M,49.479,M,8.70,0195*7A
$GPVTG,201.7220,T,201.7220,M,1.477,N,2.737,K,D*22
$GPGGA,124155.40,4612.0525505,N,00607.4219505,E,4,08,0.9,368.565,M,49.479,M,8.90,0195*78
$GPVTG,204.1673,T,204.1673,M,1.442,N,2.673,K,D*25
$RDENS,1533,4571404,PC
$GPGGA,124155.80,4612.0524035,N,00607.4218575,E,4,08,0.9,368.561,M,49.479,M,9.30,0195*7A
$GPVTG,203.6511,T,203.6511,M,1.441,N,2.670,K,D*25
$GPGGA,124156.00,4612.0523287,N,00607.4218096,E,4,08,0.9,368.566,M,49.479,M,0.02,0195*7A
$GPVTG,205.7437,T,205.7437,M,1.364,N,2.527,K,D*24
$GPGGA,124156.40,4612.0521897,N,00607.4217167,E,4,08,0.9,368.548,M,49.479,M,0.42,0195*7F
$GPVTG,204.5464,T,204.5464,M,1.384,N,2.565,K,D*2C
$RDENS,1534,4571501,PC
$GPGGA,124156.60,4612.0521200,N,00607.4216717,E,4,08,0.9,368.564,M,49.479,M,0.12,0195*72
$GPVTG,205.6732,T,205.6732,M,1.368,N,2.535,K,D*2B
$GPGGA,124157.00,4612.0519837,N,00607.4215769,E,4,08,0.9,368.580,M,49.479,M,0.28,0195*79
$GPVTG,205.6769,T,205.6769,M,1.377,N,2.552,K,D*24
$GPGGA,124157.20,4612.0519174,N,00607.4215253,E,4,08,0.9,368.583,M,49.479,M,0.48,0195*7C
$GPVTG,208.0054,T,208.0054,M,1.318,N,2.443,K,D*2C
$GPGGA,124157.60,4612.0517897,N,00607.4214254,E,4,08,0.9,368.590,M,49.479,M,0.14,0195*7F
$RDENS,1535,4571598,PC
$GPVTG,208.3872,T,208.3872,M,1.324,N,2.453,K,D*22
$GPGGA,124157.80,4612.0517268,N,00607.4213750,E,4,08,0.9,368.589,M,49.479,M,0.34,0195*77
$GPVTG,208.2856,T,208.2856,M,1.309,N,2.426,K,D*2F
$GPGGA,124158.00,4612.0516649,N,00607.4213244,E,4,08,0.9,368.589,M,49.479,M,0.54,0195*70
$GPVTG,208.5577,T,208.5577,M,1.269,N,2.352,K,D*2C
$GPVTG,210.9285,T,210.9285,M,1.250,N,2.316,K,D*26
$RDENS,1536,4571695,PC
$GPGGA,124158.60,4612.0514813,N,00607.4211736,E,4,08,0.9,368.577,M,49.479,M,0.04,0195*73
$GPVTG,208.7855,T,208.7855,M,1.257,N,2.330,K,D*25
$GPGGA,124158.80,4612.0514190,N,00607.4211250,E,4,08,0.9,368.577,M,49.479,M,0.24,0195*78
$GPVTG,210.5639,T,210.5639,M,1.248,N,2.312,K,D*2B
$GPGGA,124159.20,4612.0513023,N,00607.4210183,E,4,08,0.9,368.588,M,49.479,M,0.64,0195*75
$GPVTG,213.2730,T,213.2730,M,1.269,N,2.352,K,D*2C
$GPGGA,124159.40,4612.0512419,N,00607.4209684,E,4,08,0.9,368.583,M,49.479,M,0.05,0195*7B
$RDENS,1537,4571792,PC
$GPVTG,212.2410,T,212.2410,M,1.214,N,2.250,K,D*25
$GPGGA,124159.80,4612.0511306,N,00607.4208648,E,4,08,0.9,368.578,M,49.479,M,0.45,0195*7C
$GPVTG,213.7204,T,213.7204,M,1.169,N,2.167,K,D*2B
$GPGGA,124200.00,4612.0510695,N,00607.4208135,E,4,08,0.9,368.575,M,49.479,M,0.65,0195*77
$GPVTG,208.3761,T,208.3761,M,1.252,N,2.320,K,D*21
$GPGGA,124200.40,4612.0509470,N,00607.4207204,E,4,08,0.9,368.566,M,49.479,M,1.05,0195*79
$RDENS,1538,4571881,PC
$GPVTG,207.6921,T,207.6921,M,1.284,N,2.379,K,D*26
$GPGGA,124200.60,4612.0508845,N,00607.4206700,E,4,08,0.9,368.564,M,49.479,M,1.25,0195*70
$GPVTG,209.5260,T,209.5260,M,1.298,N,2.405,K,D*27
$GPGGA,124201.00,4612.0507597,N,00607.4205675,E,4,08,0.9,368.570,M,49.479,M,1.65,0195*7B
$GPVTG,210.1635,T,210.1635,M,1.300,N,2.409,K,D*2B
$GPGGA,124201.20,4612.0507006,N,00607.4205154,E,4,08,0.9,368.587,M,49.479,M,1.85,0195*76
$RDENS,1539,4571971,PC
$GPVTG,209.2667,T,209.2667,M,1.256,N,2.329,K,D*2C
$GPGGA,124201.60,4612.0505796,N,00607.4204155,E,4,08,0.9,368.587,M,49.479,M,2.25,0195*77
$GPVTG,210.9589,T,210.9589,M,1.243,N,2.303,K,D*20
$GPGGA,124201.80,4612.0505212,N,00607.4203668,E,4,08,0.9,368.587,M,49.479,M,0.10,0195*7A
$GPVTG,209.5734,T,209.5734,M,1.200,N,2.223,K,D*24
$GPGGA,124202.20,4612.0504048,N,00607.4202722,E,4,08,0.9,368.582,M,49.479,M,0.50,0195*70
$RDENS,1540,4572060,PC
$GPVTG,210.3056,T,210.3056,M,1.176,N,2.180,K,D*2C
$GPGGA,124202.40,4612.0503506,N,00607.4202212,E,4,08,0.9,368.578,M,49.479,M,0.70,0195*7F
$GPVTG,211.9269,T,211.9269,M,1.182,N,2.191,K,D*27
$GPGGA,124202.80,4612.0502402,N,00607.4201164,E,4,08,0.9,368.579,M,49.479,M,0.23,0195*71
$GPVTG,214.1181,T,214.1181,M,1.202,N,2.228,K,D*2D
$GPGGA,124203.00,4612.0501844,N,00607.4200636,E,4,08,0.9,368.584,M,49.479,M,0.43,0195*70
$RDENS,1541,4572149,PC
$GPVTG,216.1411,T,216.1411,M,1.154,N,2.139,K,D*2E
$GPGGA,124203.20,4612.0501341,N,00607.4200101,E,4,08,0.9,368.582,M,49.479,M,0.63,0195*7B
$GPVTG,212.7245,T,212.7245,M,1.127,N,2.089,K,D*20
$GPGGA,124203.60,4612.0500229,N,00607.4199095,E,4,08,0.9,368.575,M,49.479,M,1.03,0195*71
$GPVTG,212.2617,T,212.2617,M,1.207,N,2.237,K,D*26
$GPGGA,124203.80,4612.0499625,N,00607.4198586,E,4,08,0.9,368.574,M,49.479,M,1.23,0195*73
$RDENS,1542,4572238,PC
$GPVTG,208.5502,T,208.5502,M,1.298,N,2.406,K,D*24
$GPGGA,124204.20,4612.0498345,N,00607.4197618,E,4,08,0.9,368.563,M,49.479,M,0.14,0195*74
$GPVTG,207.0111,T,207.0111,M,1.328,N,2.460,K,D*2E
$GPGGA,124204.40,4612.0497692,N,00607.4197105,E,4,08,0.9,368.571,M,49.479,M,0.11,0195*7F
$GPVTG,207.0502,T,207.0502,M,1.331,N,2.466,K,D*20
$GPGGA,124204.80,4612.0496362,N,00607.4196155,E,4,08,0.9,368.582,M,49.479,M,0.00,0195*70
$RDENS,1543,4572327,PC
$GPVTG,207.0221,T,207.0221,M,1.328,N,2.460,K,D*2E
$GPGGA,124205.00,4612.0495719,N,00607.4195658,E,4,08,0.9,368.578,M,49.479,M,0.20,0195*7C
$GPVTG,205.3023,T,205.3023,M,1.246,N,2.310,K,D*27
$GPGGA,124205.40,4612.0494425,N,00607.4194737,E,4,08,0.9,368.573,M,49.479,M,0.05,0195*70
$GPVTG,206.9935,T,206.9935,M,1.326,N,2.457,K,D*24
$GPGGA,124205.60,4612.0493810,N,00607.4194211,E,4,08,0.9,368.564,M,49.479,M,0.15,0195*79
$GPVTG,206.9613,T,206.9613,M,1.304,N,2.418,K,D*2F
$RDENS,1544,4572416,PC
$GPGGA,124206.00,4612.0492522,N,00607.4193204,E,4,08,0.9,368.564,M,49.479,M,0.55,0195*76
$GPVTG,209.6606,T,209.6606,M,1.297,N,2.404,K,D*29
$GPGGA,124206.20,4612.0491896,N,00607.4192668,E,4,08,0.9,368.584,M,49.479,M,0.75,0195*76
$GPVTG,211.7240,T,211.7240,M,1.243,N,2.304,K,D*27
$GPGGA,124206.60,4612.0490680,N,00607.4191618,E,4,08,0.9,368.587,M,49.479,M,1.15,0195*7A
$GPVTG,211.1425,T,211.1425,M,1.188,N,2.201,K,D*27
$RDENS,1545,4572506,PC
$GPGGA,124206.80,4612.0490101,N,00607.4191101,E,4,08,0.9,368.583,M,49.479,M,1.35,0195*73
$GPVTG,213.4444,T,213.4444,M,1.243,N,2.304,K,D*27
$GPGGA,124207.20,4612.0488928,N,00607.4190012,E,4,08,0.9,368.573,M,49.479,M,0.06,0195*7E
$GPVTG,212.5148,T,212.5148,M,1.267,N,2.348,K,D*29
$GPGGA,124207.40,4612.0488264,N,00607.4189494,E,4,08,0.9,368.553,M,49.479,M,0.05,0195*78
$GPVTG,208.3982,T,208.3982,M,1.400,N,2.595,K,D*28
$RDENS,1546,4572596,PC
$GPGGA,124207.60,4612.0487573,N,00607.4188966,E,4,08,0.9,368.551,M,49.479,M,0.15,0195*76
$GPVTG,207.2359,T,207.2359,M,1.368,N,2.534,K,D*2A
$GPGGA,124208.00,4612.0486173,N,00607.4187962,E,4,08,0.9,368.564,M,49.479,M,0.55,0195*73
$GPVTG,205.9582,T,205.9582,M,1.471,N,2.727,K,D*25
$GPGGA,124208.20,4612.0485445,N,00607.4187441,E,4,08,0.9,368.565,M,49.479,M,0.75,0195*7D
$GPVTG,205.1489,T,205.1489,M,1.389,N,2.574,K,D*21
$RDENS,1547,4572685,PC
$GPGGA,124208.60,4612.0484032,N,00607.4186423,E,4,08,0.9,368.580,M,49.479,M,1.15,0195*75
$GPVTG,208.0792,T,208.0792,M,1.469,N,2.722,K,D*29
$GPGGA,124208.80,4612.0483365,N,00607.4185890,E,4,08,0.9,368.576,M,49.479,M,1.35,0195*71
$GPVTG,208.0369,T,208.0369,M,1.339,N,2.481,K,D*21
$GPGGA,124209.20,4612.0482021,N,00607.4184837,E,4,08,0.9,368.577,M,49.479,M,1.75,0195*71
$GPVTG,208.8158,T,208.8158,M,1.391,N,2.578,K,D*24
$RDENS,1548,4572774,PC
$GPGGA,124209.40,4612.0481347,N,00607.4184277,E,4,08,0.9,368.561,M,49.479,M,1.95,0195*70
$GPVTG,207.9605,T,207.9605,M,1.352,N,2.506,K,D*22
$GPGGA,124209.80,4612.0480029,N,00607.4183253,E,4,08,0.9,368.555,M,49.479,M,0.15,0195*79
$GPVTG,208.9921,T,208.9921,M,1.355,N,2.511,K,D*23
$GPGGA,124210.00,4612.0479405,N,00607.4182703,E,4,08,0.9,368.564,M,49.479,M,0.35,0195*74
$GPVTG,210.7247,T,210.7247,M,1.349,N,2.500,K,D*2E
$RDENS,1549,4572864,PC
$GPGGA,124210.40,4612.0478139,N,00607.4181573,E,4,08,0.9,368.574,M,49.479,M,0.75,0195*78
$GPVTG,212.2924,T,212.2924,M,1.371,N,2.541,K,D*20
$GPGGA,124210.60,4612.0477533,N,00607.4180993,E,4,08,0.9,368.577,M,49.479,M,0.95,0195*75
$GPVTG,213.8261,T,213.8261,M,1.280,N,2.373,K,D*28
$GPGGA,124211.00,4612.0476354,N,00607.4179875,E,4,08,0.9,368.585,M,49.479,M,1.35,0195*7D
$GPVTG,213.1510,T,213.1510,M,1.238,N,2.295,K,D*22
$RDENS,1550,4572954,PC
$GPGGA,124211.20,4612.0475759,N,00607.4179329,E,4,08,0.9,368.576,M,49.479,M,1.55,0195*7D
$GPVTG,213.4602,T,213.4602,M,1.271,N,2.356,K,D*21
$GPGGA,124211.60,4612.0474634,N,00607.4178224,E,4,08,0.9,368.579,M,49.479,M,0.15,0195*75
$GPVTG,213.0983,T,213.0983,M,1.195,N,2.214,K,D*2F
$GPGGA,124211.80,4612.0474080,N,00607.4177652,E,4,08,0.9,368.562,M,49.479,M,0.35,0195*70
$GPVTG,215.9929,T,215.9929,M,1.263,N,2.340,K,D*25
$RDENS,1551,4573043,PC
$GPGGA,124212.20,4612.0472987,N,00607.4176525,E,4,08,0.9,368.569,M,49.479,M,0.22,0195*7E
$GPVTG,216.5791,T,216.5791,M,1.174,N,2.176,K,D*27
$GPGGA,124212.40,4612.0472439,N,00607.4175967,E,4,08,0.9,368.571,M,49.479,M,0.42,0195*76
$GPVTG,216.9755,T,216.9755,M,1.179,N,2.186,K,D*25
$GPGGA,124212.60,4612.0471905,N,00607.4175401,E,4,08,0.9,368.569,M,49.479,M,0.05,0195*72
$GPVTG,214.9412,T,214.9412,M,1.179,N,2.185,K,D*26
$RDENS,1552,4573133,PC
$GPGGA,124213.00,4612.0470764,N,00607.4174343,E,4,08,0.9,368.561,M,49.479,M,0.35,0195*76
$GPVTG,212.1404,T,212.1404,M,1.253,N,2.323,K,D*23
$GPGGA,124213.20,4612.0470122,N,00607.4173794,E,4,08,0.9,368.570,M,49.479,M,0.55,0195*7F
$GPVTG,210.9809,T,210.9809,M,1.219,N,2.260,K,D*2B
$GPGGA,124213.60,4612.0468915,N,00607.4172759,E,4,08,0.9,368.564,M,49.479,M,0.16,0195*7C
$GPVTG,211.4464,T,211.4464,M,1.296,N,2.403,K,D*2F
$RDENS,1553,4573222,PC
$GPGGA,124213.80,4612.0468288,N,00607.4172242,E,4,08,0.9,368.578,M,49.479,M,0.36,0195*7D
$GPVTG,213.2911,T,213.2911,M,1.264,N,2.342,K,D*20
$GPGGA,124214.20,4612.0467098,N,00607.4171194,E,4,08,0.9,368.573,M,49.479,M,0.76,0195*78
$GPVTG,210.4575,T,210.4575,M,1.238,N,2.294,K,D*23
$GPGGA,124214.40,4612.0466533,N,00607.4170707,E,4,08,0.9,368.584,M,49.479,M,0.96,0195*70
$GPVTG,208.7842,T,208.7842,M,1.249,N,2.315,K,D*2D
$RDENS,1554,4573311,PC
$GPGGA,124214.80,4612.0465353,N,00607.4169726,E,4,08,0.9,368.573,M,49.479,M,1.36,0195*77
$GPVTG,211.2223,T,211.2223,M,1.205,N,2.233,K,D*20
$GPGGA,124215.00,4612.0464764,N,00607.4169237,E,4,08,0.9,368.560,M,49.479,M,1.56,0195*7E
$GPVTG,208.6084,T,208.6084,M,1.166,N,2.161,K,D*22
$GPGGA,124215.40,4612.0463620,N,00607.4168288,E,4,08,0.9,368.570,M,49.479,M,1.96,0195*74
$GPVTG,211.1334,T,211.1334,M,1.211,N,2.245,K,D*24
$RDENS,1555,4573400,PC
$GPGGA,124215.60,4612.0463037,N,00607.4167812,E,4,08,0.9,368.577,M,49.479,M,0.07,0195*7E
$GPVTG,207.3614,T,207.3614,M,1.234,N,2.287,K,D*2D
$GPGGA,124216.00,4612.0461797,N,00607.4166956,E,4,08,0.9,368.558,M,49.479,M,0.33,0195*7E
$GPVTG,204.7804,T,204.7804,M,1.252,N,2.320,K,D*21
$GPGGA,124216.20,4612.0461170,N,00607.4166544,E,4,08,0.9,368.565,M,49.479,M,0.53,0195*74
$GPVTG,199.6493,T,199.6493,M,1.277,N,2.366,K,D*24
$RDENS,1556,4573489,PC
$GPGGA,124216.60,4612.0459826,N,00607.4165870,E,4,08,0.9,368.553,M,49.479,M,0.93,0195*71
$GPVTG,198.6205,T,198.6205,M,1.280,N,2.372,K,D*29
$GPGGA,124216.80,4612.0459133,N,00607.4165529,E,4,08,0.9,368.556,M,49.479,M,1.13,0195*7F
$GPVTG,194.7505,T,194.7505,M,1.314,N,2.435,K,D*21
$GPGGA,124217.00,4612.0458421,N,00607.4165256,E,4,08,0.9,368.560,M,49.479,M,1.33,0195*79
$GPVTG,193.9603,T,193.9603,M,1.325,N,2.456,K,D*26
$RDENS,1557,4573578,PC
$GPGGA,124217.40,4612.0457026,N,00607.4164710,E,4,08,0.9,368.562,M,49.479,M,0.08,0195*7C
$GPVTG,195.7620,T,195.7620,M,1.313,N,2.433,K,D*20
$GPGGA,124217.60,4612.0456352,N,00607.4164477,E,4,08,0.9,368.573,M,49.479,M,0.11,0195*75
$GPVTG,196.6522,T,196.6522,M,1.274,N,2.362,K,D*23
$GPGGA,124218.00,4612.0455023,N,00607.4163890,E,4,11,0.8,368.577,M,49.479,M,0.29,0195*7E
$GPVTG,196.8087,T,196.8087,M,1.250,N,2.316,K,D*26
$RDENS,1558,4573667,PC
$GPGGA,124218.20,4612.0454344,N,00607.4163636,E,4,11,0.8,368.575,M,49.479,M,0.49,0195*79
$GPVTG,196.0552,T,196.0552,M,1.282,N,2.377,K,D*2E
$GPGGA,124218.60,4612.0453001,N,00607.4163062,E,4,11,0.8,368.589,M,49.479,M,0.08,0195*79
$GPVTG,196.9586,T,196.9586,M,1.251,N,2.318,K,D*29
$GPGGA,124218.80,4612.0452370,N,00607.4162839,E,4,11,0.8,368.580,M,49.479,M,0.12,0195*76
$GPVTG,195.2650,T,195.2650,M,1.141,N,2.114,K,D*25
$RDENS,1559,4573757,PC
$GPGGA,124219.20,4612.0451143,N,00607.4162347,E,4,11,0.8,368.579,M,49.479,M,0.52,0195*7C
$GPVTG,194.7486,T,194.7486,M,1.150,N,2.131,K,D*22
$GPGGA,124219.40,4612.0450483,N,00607.4162119,E,4,11,0.8,368.581,M,49.479,M,0.72,0195*7E
$GPVTG,188.5207,T,188.5207,M,1.257,N,2.329,K,D*2D
$GPGGA,124219.80,4612.0449091,N,00607.4161748,E,4,11,0.8,368.589,M,49.479,M,0.15,0195*75
$GPVTG,192.4384,T,192.4384,M,1.308,N,2.425,K,D*2D
$GPGGA,124220.00,4612.0448397,N,00607.4161611,E,4,11,0.8,368.567,M,49.479,M,0.35,0195*7C
$RDENS,1560,4573846,PC
$GPVTG,184.6993,T,184.6993,M,1.309,N,2.425,K,D*2C
$GPGGA,124220.40,4612.0446926,N,00607.4161476,E,4,11,0.8,368.579,M,49.479,M,0.75,0195*7E
$GPVTG,182.4009,T,182.4009,M,1.319,N,2.444,K,D*2A
$GPVTG,185.5403,T,185.5403,M,1.287,N,2.385,K,D*26
$GPGGA,124220.80,4612.0445479,N,00607.4161263,E,4,11,0.8,368.592,M,49.479,M,1.15,0195*76
$GPVTG,188.3389,T,188.3389,M,1.326,N,2.458,K,D*2B
$RDENS,1561,4573936,PC
$GPGGA,124221.00,4612.0444754,N,00607.4161112,E,4,11,0.8,368.576,M,49.479,M,1.35,0195*7F
$GPVTG,184.9462,T,184.9462,M,1.248,N,2.313,K,D*2A
$GPGGA,124221.40,4612.0443362,N,00607.4160944,E,4,11,0.8,368.573,M,49.479,M,1.75,0195*76
$GPVTG,184.2968,T,184.2968,M,1.270,N,2.353,K,D*25
$GPGGA,124221.60,4612.0442654,N,00607.4160792,E,4,11,0.8,368.572,M,49.479,M,1.95,0195*7F
$GPVTG,185.2237,T,185.2237,M,1.282,N,2.375,K,D*2C
$RDENS,1562,4574026,PC
$GPGGA,124222.00,4612.0441268,N,00607.4160538,E,4,11,0.8,368.574,M,49.479,M,2.35,0195*7F
$GPVTG,189.2426,T,189.2426,M,1.226,N,2.273,K,D*25
$GPGGA,124222.20,4612.0440592,N,00607.4160396,E,4,11,0.8,368.570,M,49.479,M,2.55,0195*7E
$GPVTG,183.3774,T,183.3774,M,1.157,N,2.143,K,D*20
$GPGGA,124222.60,4612.0439266,N,00607.4160270,E,4,11,0.8,368.576,M,49.479,M,2.95,0195*7B
$GPVTG,184.2747,T,184.2747,M,1.242,N,2.301,K,D*23
$RDENS,1563,4574115,PC
$GPGGA,124222.80,4612.0438546,N,00607.4160240,E,4,11,0.8,368.589,M,49.479,M,3.15,0195*7B
$GPVTG,183.6307,T,183.6307,M,1.355,N,2.511,K,D*23
$GPGGA,124223.20,4612.0437025,N,00607.4160173,E,4,11,0.8,368.568,M,49.479,M,3.55,0195*77
$GPVTG,180.2088,T,180.2088,M,1.390,N,2.577,K,D*2A
$GPGGA,124223.40,4612.0436241,N,00607.4160196,E,4,11,0.8,368.578,M,49.479,M,3.75,0195*78
$GPVTG,180.6685,T,180.6685,M,1.333,N,2.470,K,D*25
$RDENS,1564,4574204,PC
$GPGGA,124223.80,4612.0434745,N,00607.4160196,E,4,11,0.8,368.573,M,49.479,M,4.15,0195*7D
$GPVTG,179.3140,T,179.3140,M,1.342,N,2.487,K,D*2B
$GPGGA,124224.00,4612.0434005,N,00607.4160124,E,4,11,0.8,368.561,M,49.479,M,4.35,0195*79
$GPVTG,180.9040,T,180.9040,M,1.299,N,2.407,K,D*24
$GPGGA,124224.40,4612.0432619,N,00607.4160103,E,4,11,0.8,368.569,M,49.479,M,4.75,0195*79
$GPVTG,180.3440,T,180.3440,M,1.189,N,2.204,K,D*23
$RDENS,1565,4574293,PC
$GPGGA,124224.60,4612.0431882,N,00607.4160064,E,4,11,0.8,368.577,M,49.479,M,4.95,0195*75
$GPVTG,179.2676,T,179.2676,M,1.243,N,2.304,K,D*27
$GPGGA,124224.80,4612.0431197,N,00607.4160080,E,4,11,0.8,368.572,M,49.479,M,5.15,0195*70
$GPVTG,181.4133,T,181.4133,M,1.284,N,2.380,K,D*20
$GPGGA,124225.20,4612.0429784,N,00607.4159993,E,4,11,0.8,368.560,M,49.479,M,5.55,0195*70
$GPVTG,181.0706,T,181.0706,M,1.182,N,2.190,K,D*26
$RDENS,1566,4574382,PC
$GPGGA,124225.40,4612.0429123,N,00607.4159975,E,4,11,0.8,368.564,M,49.479,M,5.75,0195*73
$GPVTG,184.8887,T,184.8887,M,1.167,N,2.162,K,D*20
$GPGGA,124225.80,4612.0427813,N,00607.4159816,E,4,11,0.8,368.557,M,49.479,M,6.15,0195*7A
$GPVTG,184.9268,T,184.9268,M,1.197,N,2.218,K,D*21
$GPGGA,124226.00,4612.0427172,N,00607.4159731,E,4,11,0.8,368.567,M,49.479,M,6.35,0195*74
$GPVTG,180.8201,T,180.8201,M,1.095,N,2.029,K,D*22
$RDENS,1567,4574471,PC
$GPGGA,124226.40,4612.0425930,N,00607.4159640,E,4,11,0.8,368.572,M,49.479,M,6.75,0195*7B
$GPVTG,184.9308,T,184.9308,M,1.128,N,2.091,K,D*26
$GPGGA,124226.60,4612.0425319,N,00607.4159553,E,4,11,0.8,368.585,M,49.479,M,6.95,0195*7F
$GPVTG,185.6323,T,185.6323,M,1.106,N,2.050,K,D*27
$GPGGA,124227.00,4612.0424115,N,00607.4159435,E,4,11,0.8,368.592,M,49.479,M,7.35,0195*7B
$GPVTG,182.1516,T,182.1516,M,1.050,N,1.946,K,D*28
$RDENS,1568,4574560,PC
$GPGGA,124227.20,4612.0423501,N,00607.4159327,E,4,11,0.8,368.568,M,49.479,M,7.55,0195*78
$GPVTG,186.1051,T,186.1051,M,1.060,N,1.964,K,D*2B
$GPGGA,124227.60,4612.0422311,N,00607.4159174,E,4,11,0.8,368.572,M,49.479,M,7.95,0195*79
$GPVTG,184.4602,T,184.4602,M,1.100,N,2.038,K,D*2F
$GPGGA,124227.80,4612.0421720,N,00607.4159063,E,4,11,0.8,368.582,M,49.479,M,8.15,0195*7D
$GPVTG,183.3676,T,183.3676,M,1.014,N,1.879,K,D*25
$RDENS,1569,4574649,PC
$GPGGA,124228.20,4612.0420598,N,00607.4158907,E,4,11,0.8,368.574,M,49.479,M,8.55,0195*7F
$GPVTG,187.8866,T,187.8866,M,1.014,N,1.880,K,D*23
$GPGGA,124228.40,4612.0420007,N,00607.4158842,E,4,11,0.8,368.574,M,49.479,M,8.75,0195*78
$GPVTG,193.8090,T,193.8090,M,1.002,N,1.857,K,D*2E
$GPGGA,124228.80,4612.0419633,N,00607.4157815,E,2,12,0.8,368.318,M,49.479,M,9.15,0195*7C
$GPVTG,152.2328,T,152.2328,M,0.902,N,1.672,K,D*2F
$RDENS,1570,4574738,PC
$GPGGA,124229.00,4612.0419159,N,00607.4158006,E,2,11,0.8,368.367,M,49.479,M,9.35,0195*72
$GPVTG,182.4896,T,182.4896,M,1.185,N,2.196,K,D*27
$GPGGA,124229.40,4612.0417739,N,00607.4158027,E,2,11,0.8,368.329,M,49.479,M,9.75,0195*75
$GPVTG,175.5464,T,175.5464,M,1.144,N,2.121,K,D*26
$GPGGA,124229.60,4612.0417182,N,00607.4158036,E,2,11,0.8,368.354,M,49.479,M,9.95,0195*75
$GPVTG,172.8846,T,172.8846,M,1.283,N,2.377,K,D*2F
$RDENS,1571,4574827,PC
$GPGGA,124230.00,4612.0415666,N,00607.4158211,E,2,11,0.8,368.346,M,49.479,M,10.35,0195*42
$GPVTG,180.5178,T,180.5178,M,1.391,N,2.578,K,D*24
$GPGGA,124230.20,4612.0414978,N,00607.4158383,E,2,11,0.8,368.362,M,49.479,M,10.55,0195*4B
$GPVTG,172.3861,T,172.3861,M,1.301,N,2.411,K,D*23
$GPGGA,124230.60,4612.0413641,N,00607.4158623,E,2,11,0.8,368.384,M,49.479,M,10.95,0195*46
$GPVTG,176.8969,T,176.8969,M,1.361,N,2.523,K,D*25
$RDENS,1572,4574916,PC
$GPGGA,124230.80,4612.0412974,N,00607.4158722,E,2,11,0.8,368.404,M,49.479,M,11.15,0195*46
$GPVTG,176.5975,T,176.5975,M,1.420,N,2.632,K,D*24
$GPGGA,124231.20,4612.0411490,N,00607.4158816,E,2,11,0.8,368.397,M,49.479,M,11.55,0195*48
$GPVTG,180.6145,T,180.6145,M,1.228,N,2.276,K,D*2E
$GPGGA,124231.40,4612.0410933,N,00607.4158856,E,2,11,0.8,368.432,M,49.479,M,11.75,0195*45
$GPVTG,183.6519,T,183.6519,M,1.224,N,2.268,K,D*2D
$RDENS,1573,4575005,PC
$GPGGA,124231.80,4612.0409711,N,00607.4158874,E,2,11,0.8,368.498,M,49.479,M,12.15,0195*4A
$GPVTG,177.6711,T,177.6711,M,1.173,N,2.175,K,D*23
$GPGGA,124232.00,4612.0408977,N,00607.4158883,E,2,10,0.9,368.478,M,49.479,M,12.35,0195*4A
$GPVTG,183.2202,T,183.2202,M,1.261,N,2.338,K,D*28
$GPGGA,124232.40,4612.0407619,N,00607.4158861,E,2,10,0.9,368.477,M,49.479,M,12.75,0195*41
$GPVTG,181.0128,T,181.0128,M,1.233,N,2.285,K,D*28
$RDENS,1574,4575095,PC
$GPGGA,124232.60,4612.0406899,N,00607.4158845,E,2,10,0.9,368.493,M,49.479,M,12.95,0195*46
$GPVTG,188.6705,T,188.6705,M,1.214,N,2.250,K,D*25
$GPGGA,124232.80,4612.0406194,N,00607.4158767,E,2,10,0.9,368.478,M,49.479,M,13.15,0195*4F
$GPVTG,185.4587,T,185.4587,M,1.142,N,2.116,K,D*24
$GPGGA,124233.20,4612.0404897,N,00607.4158649,E,2,10,0.9,368.482,M,49.479,M,13.55,0195*40
$GPVTG,187.3212,T,187.3212,M,1.312,N,2.431,K,D*23
$RDENS,1575,4575184,PC
$GPGGA,124233.60,4612.0403509,N,00607.4158473,E,2,10,0.9,368.475,M,49.479,M,13.95,0195*46
$GPVTG,184.9962,T,184.9962,M,1.218,N,2.257,K,D*2E
$GPGGA,124233.80,4612.0402874,N,00607.4158430,E,2,10,0.9,368.476,M,49.479,M,14.15,0195*45
$GPVTG,191.9947,T,191.9947,M,1.119,N,2.075,K,D*2E
$GPGGA,124234.20,4612.0401593,N,00607.4158028,E,2,10,0.9,368.483,M,49.479,M,14.55,0195*4C
$GPVTG,191.6947,T,191.6947,M,1.148,N,2.127,K,D*2C
$RDENS,1576,4575273,PC
$GPGGA,124234.40,4612.0401006,N,00607.4157846,E,2,10,0.9,368.495,M,49.479,M,14.75,0195*49
$GPVTG,196.2869,T,196.2869,M,1.083,N,2.007,K,D*29
$GPGGA,124234.80,4612.0399728,N,00607.4157297,E,2,10,0.9,368.488,M,49.479,M,0.10,0195*74
$GPVTG,192.7127,T,192.7127,M,1.169,N,2.166,K,D*2A
$GPGGA,124235.00,4612.0399095,N,00607.4157063,E,2,10,0.9,368.480,M,49.479,M,0.30,0195*7F
$GPVTG,192.0523,T,192.0523,M,1.160,N,2.149,K,D*2E
$RDENS,1577,4575362,PC
$GPGGA,124235.20,4612.0398455,N,00607.4156875,E,2,10,0.9,368.506,M,49.479,M,0.18,0195*7F
$GPVTG,195.3803,T,195.3803,M,1.189,N,2.203,K,D*24
$GPGGA,124235.60,4612.0397228,N,00607.4156245,E,2,10,0.9,368.523,M,49.479,M,0.11,0195*7F
$GPVTG,193.0529,T,193.0529,M,1.080,N,2.002,K,D*2F
$GPGGA,124235.80,4612.0396542,N,00607.4156071,E,2,10,0.9,368.523,M,49.479,M,0.08,0195*76
$GPVTG,207.1677,T,207.1677,M,1.025,N,1.900,K,D*28
$RDENS,1578,4575451,PC
$GPGGA,124236.20,4612.0395767,N,00607.4155288,E,2,11,0.8,368.606,M,49.479,M,0.48,0195*7E
$GPVTG,205.6572,T,205.6572,M,1.105,N,2.048,K,D*2D
$GPGGA,124236.40,4612.0397117,N,00607.4157045,E,2,12,0.8,369.252,M,49.479,M,0.05,0195*74
$GPVTG,193.3724,T,193.3724,M,1.055,N,1.955,K,D*2F
$GPGGA,124236.80,4612.0395626,N,00607.4155897,E,2,12,0.8,369.072,M,49.479,M,0.35,0195*79
$GPVTG,203.6766,T,203.6766,M,1.005,N,1.862,K,D*2F
$RDENS,1579,4575540,PC
$GPGGA,124237.00,4612.0394877,N,00607.4155186,E,2,12,0.8,369.000,M,49.479,M,0.55,0195*71
$GPVTG,197.3143,T,197.3143,M,0.896,N,1.661,K,D*21
$GPGGA,124237.40,4612.0393551,N,00607.4154683,E,2,12,0.8,368.955,M,49.479,M,0.95,0195*7C
$GPVTG,197.9753,T,197.9753,M,1.099,N,2.036,K,D*20
$GPGGA,124237.60,4612.0392993,N,00607.4154267,E,2,12,0.8,368.962,M,49.479,M,0.08,0195*73
$GPVTG,198.4934,T,198.4934,M,1.241,N,2.300,K,D*21
$GPVTG,204.2003,T,204.2003,M,1.220,N,2.260,K,D*21
$RDENS,1580,4575629,PC
$GPVTG,197.7807,T,197.7807,M,1.294,N,2.398,K,D*28
$GPVTG,207.0180,T,207.0180,M,1.156,N,2.143,K,D*21
$GPVTG,202.7863,T,202.7863,M,1.031,N,1.911,K,D*2D
$GPVTG,207.2372,T,207.2372,M,0.994,N,1.842,K,D*2D
$RDENS,1581,4575718,PC
$GPVTG,204.5604,T,204.5604,M,1.160,N,2.150,K,D*26
$GPVTG,204.9544,T,204.9544,M,1.095,N,2.030,K,D*2A
$GPGGA,124239.20,4612.0387953,N,00607.4150876,E,2,12,0.8,368.848,M,49.479,M,0.84,0195*72
$GPVTG,204.6067,T,204.6067,M,1.161,N,2.153,K,D*24
$GPVTG,207.7486,T,207.7486,M,1.047,N,1.940,K,D*28
$GPVTG,205.0981,T,205.0981,M,0.993,N,1.840,K,D*28
$RDENS,1582,4575807,PC
$GPVTG,210.2261,T,210.2261,M,1.035,N,1.919,K,D*21
$GPVTG,207.9042,T,207.9042,M,1.052,N,1.949,K,D*25
$GPVTG,211.0753,T,211.0753,M,1.090,N,2.020,K,D*2E
$GPVTG,209.9629,T,209.9629,M,1.086,N,2.013,K,D*29
$RDENS,1583,4575896,PC
$GPVTG,210.5533,T,210.5533,M,1.069,N,1.982,K,D*2A
$GPVTG,210.7781,T,210.7781,M,0.904,N,1.674,K,D*2F
$GPVTG,206.8454,T,206.8454,M,1.052,N,1.950,K,D*2D
$GPVTG,209.5162,T,209.5162,M,0.886,N,1.642,K,D*21
$GPVTG,216.8141,T,216.8141,M,0.893,N,1.655,K,D*23
$RDENS,1584,4575985,PC
$GPVTG,208.4943,T,208.4943,M,0.996,N,1.845,K,D*28
$GPGGA,124241.80,4612.0381614,N,00607.4145978,E,2,11,0.8,368.958,M,49.479,M,0.32,0195*78
$GPVTG,211.0712,T,211.0712,M,0.975,N,1.807,K,D*23
$GPGGA,124242.00,4612.0380954,N,00607.4145618,E,2,11,0.8,368.934,M,49.479,M,0.52,0195*7C
$GPVTG,213.4069,T,213.4069,M,0.931,N,1.726,K,D*2F
$RDENS,1585,4576074,PC
$GPGGA,124242.40,4612.0379183,N,00607.4143864,E,2,10,0.9,368.671,M,49.479,M,0.92,0195*7D
$GPVTG,215.6351,T,215.6351,M,0.952,N,1.764,K,D*2C
$GPGGA,124242.60,4612.0378699,N,00607.4143465,E,2,10,0.9,368.655,M,49.479,M,0.14,0195*77
$GPVTG,214.0073,T,214.0073,M,1.005,N,1.863,K,D*2E
$GPGGA,124243.00,4612.0377789,N,00607.4142718,E,2,10,0.9,368.630,M,49.479,M,0.26,0195*75
$GPVTG,209.1983,T,209.1983,M,0.864,N,1.602,K,D*29
$RDENS,1586,4576163,PC
$GPGGA,124243.20,4612.0377338,N,00607.4142327,E,2,10,0.9,368.626,M,49.479,M,0.46,0195*70
$GPVTG,212.9887,T,212.9887,M,0.749,N,1.387,K,D*21
$GPGGA,124243.60,4612.0376921,N,00607.4141934,E,2,11,0.8,368.693,M,49.479,M,0.86,0195*7E
$GPVTG,214.6303,T,214.6303,M,0.815,N,1.510,K,D*2F
$GPGGA,124243.80,4612.0376660,N,00607.4141608,E,2,11,0.8,368.716,M,49.479,M,1.06,0195*7F
$GPVTG,213.8916,T,213.8916,M,0.876,N,1.624,K,D*2E
$RDENS,1587,4576252,PC
$GPGGA,124244.20,4612.0375930,N,00607.4140867,E,2,11,0.8,368.744,M,49.479,M,1.46,0195*7E
$GPVTG,215.9619,T,215.9619,M,0.821,N,1.521,K,D*2A
$GPGGA,124244.40,4612.0375593,N,00607.4140543,E,2,11,0.8,368.730,M,49.479,M,0.14,0195*73
$GPVTG,220.1948,T,220.1948,M,0.809,N,1.500,K,D*23
$GPGGA,124244.80,4612.0375193,N,00607.4140019,E,2,11,0.8,368.802,M,49.479,M,0.26,0195*7E
$GPVTG,217.7640,T,217.7640,M,0.775,N,1.436,K,D*23
$RDENS,1588,4576341,PC
$GPGGA,124245.00,4612.0374857,N,00607.4139616,E,2,11,0.8,368.775,M,49.479,M,0.14,0195*7E
$GPVTG,215.1575,T,215.1575,M,0.710,N,1.315,K,D*26
$GPGGA,124245.40,4612.0374088,N,00607.4138671,E,2,11,0.8,368.741,M,49.479,M,0.54,0195*73
$GPVTG,212.4716,T,212.4716,M,0.889,N,1.648,K,D*24
$GPGGA,124245.60,4612.0373296,N,00607.4137970,E,2,10,0.9,368.591,M,49.479,M,0.10,0195*75
$GPVTG,206.3649,T,206.3649,M,1.044,N,1.935,K,D*29
$RDENS,1589,4576430,PC
$GPGGA,124246.00,4612.0373041,N,00607.4137171,E,2,10,0.9,368.644,M,49.479,M,0.30,0195*78
$GPVTG,212.3009,T,212.3009,M,0.601,N,1.113,K,D*23
$GPGGA,124246.20,4612.0372982,N,00607.4136603,E,2,10,0.9,368.652,M,49.479,M,0.50,0195*7F
$GPVTG,213.1195,T,213.1195,M,0.775,N,1.437,K,D*22
$GPGGA,124246.40,4612.0372659,N,00607.4136324,E,2,10,0.9,368.642,M,49.479,M,0.18,0195*7D
$GPVTG,206.0685,T,206.0685,M,0.662,N,1.228,K,D*2D
$GPGGA,124246.80,4612.0372328,N,00607.4135617,E,2,11,0.8,368.655,M,49.479,M,0.22,0195*7B
$RDENS,1590,4576519,PC
$GPVTG,209.0336,T,209.0336,M,0.749,N,1.387,K,D*21
$GPGGA,124247.00,4612.0371988,N,00607.4135471,E,2,11,0.8,368.672,M,49.479,M,0.42,0195*70
$GPVTG,209.7894,T,209.7894,M,0.768,N,1.423,K,D*2B
$GPGGA,124247.40,4612.0371007,N,00607.4135033,E,2,11,0.8,368.605,M,49.479,M,0.05,0195*7B
$GPVTG,197.8983,T,197.8983,M,0.637,N,1.180,K,D*2C
$RDENS,1591,4576609,PC
$GPGGA,124247.60,4612.0370440,N,00607.4134779,E,2,10,0.9,368.579,M,49.479,M,0.25,0195*7D
$GPVTG,195.2476,T,195.2476,M,0.693,N,1.284,K,D*25
$GPGGA,124248.00,4612.0369252,N,00607.4134641,E,2,09,1.1,368.470,M,49.479,M,0.65,0195*7E
$GPVTG,193.1055,T,193.1055,M,0.647,N,1.199,K,D*23
$GPGGA,124248.20,4612.0368794,N,00607.4134605,E,2,09,1.1,368.500,M,49.479,M,0.85,0195*7A
$GPVTG,183.1343,T,183.1343,M,0.802,N,1.487,K,D*26
$GPGGA,124248.60,4612.0367922,N,00607.4134472,E,2,09,1.1,368.459,M,49.479,M,0.05,0195*75
$RDENS,1592,4576697,PC
$GPVTG,186.4567,T,186.4567,M,0.795,N,1.474,K,D*2B
$GPGGA,124248.80,4612.0366567,N,00607.4133875,E,2,10,0.9,368.206,M,49.479,M,0.15,0195*77
$GPVTG,173.0776,T,173.0776,M,0.759,N,1.406,K,D*2E
$GPGGA,124249.20,4612.0367422,N,00607.4135504,E,2,10,0.9,368.628,M,49.479,M,0.55,0195*7C
$GPVTG,170.1572,T,170.1572,M,0.884,N,1.638,K,D*2E
$GPGGA,124249.40,4612.0367942,N,00607.4134441,E,2,10,0.9,368.853,M,49.479,M,0.06,0195*74
$RDENS,1593,4576786,PC
$GPVTG,170.3761,T,170.3761,M,0.646,N,1.196,K,D*2D
$GPGGA,124249.80,4612.0366689,N,00607.4134734,E,2,10,0.9,368.729,M,49.479,M,0.34,0195*73
$GPVTG,169.1300,T,169.1300,M,0.889,N,1.648,K,D*24
$GPGGA,124250.00,4612.0365968,N,00607.4134947,E,2,10,0.9,368.689,M,49.479,M,0.54,0195*77
$GPVTG,166.3354,T,166.3354,M,0.585,N,1.084,K,D*23
$GPGGA,124250.40,4612.0365694,N,00607.4135093,E,2,10,0.9,368.796,M,49.479,M,0.94,0195*7D
$RDENS,1594,4576875,PC
$GPVTG,167.3131,T,167.3131,M,0.567,N,1.050,K,D*26
$GPGGA,124250.60,4612.0365019,N,00607.4135200,E,2,10,0.9,368.676,M,49.479,M,1.14,0195*72
$GPVTG,170.8335,T,170.8335,M,0.568,N,1.053,K,D*2A
$GPGGA,124250.80,4612.0364726,N,00607.4135394,E,2,10,0.9,368.698,M,49.479,M,1.34,0195*78
$GPVTG,173.1514,T,173.1514,M,0.597,N,1.107,K,D*2A
$GPGGA,124251.20,4612.0364052,N,00607.4135500,E,2,10,0.9,368.680,M,49.479,M,0.12,0195*70
$RDENS,1595,4576964,PC
$GPVTG,172.0415,T,172.0415,M,0.502,N,0.931,K,D*2A
$GPGGA,124251.40,4612.0364051,N,00607.4135324,E,2,10,0.9,368.705,M,49.479,M,0.32,0195*7B
$GPVTG,164.0950,T,164.0950,M,0.789,N,1.463,K,D*20
$GPVTG,160.7740,T,160.7740,M,0.371,N,0.688,K,D*25
$GPVTG,167.6624,T,167.6624,M,0.461,N,0.855,K,D*2D
$GPVTG,165.1331,T,165.1331,M,0.512,N,0.949,K,D*24
$RDENS,1596,4577053,PC
$GPVTG,170.3625,T,170.3625,M,0.533,N,0.989,K,D*2B
$GPVTG,170.7584,T,170.7584,M,0.413,N,0.765,K,D*24
$GPGGA,124252.60,4612.0362705,N,00607.4135958,E,2,10,0.9,368.837,M,49.479,M,0.15,0195*70
$GPVTG,162.5733,T,162.5733,M,0.416,N,0.771,K,D*24
$GPGGA,124252.80,4612.0362473,N,00607.4136023,E,2,10,0.9,368.838,M,49.479,M,0.35,0195*77
$GPVTG,151.6975,T,151.6975,M,0.429,N,0.795,K,D*22
$RDENS,1597,4577142,PC
$GPGGA,124253.20,4612.0361868,N,00607.4136269,E,2,10,0.9,368.829,M,49.479,M,0.75,0195*71
$GPVTG,159.8600,T,159.8600,M,0.506,N,0.938,K,D*27
$GPGGA,124253.40,4612.0361031,N,00607.4136317,E,2,10,0.9,368.662,M,49.479,M,0.05,0195*7D
$GPVTG,161.5245,T,161.5245,M,0.331,N,0.613,K,D*23
$GPGGA,124253.80,4612.0360871,N,00607.4136606,E,2,10,0.9,368.837,M,49.479,M,0.35,0195*74
$GPVTG,149.5964,T,149.5964,M,0.360,N,0.667,K,D*24
$RDENS,1598,4577231,PC
$GPGGA,124254.00,4612.0360548,N,00607.4136708,E,2,10,0.9,368.824,M,49.479,M,0.55,0195*77
$GPVTG,152.2627,T,152.2627,M,0.442,N,0.820,K,D*2E
$GPGGA,124254.40,4612.0361133,N,00607.4139129,E,2,11,0.8,369.322,M,49.479,M,0.95,0195*70
$GPVTG,152.9444,T,152.9444,M,0.407,N,0.755,K,D*22
$GPGGA,124254.60,4612.0360624,N,00607.4139047,E,2,11,0.8,369.183,M,49.479,M,0.11,0195*7E
$GPVTG,170.3927,T,170.3927,M,0.288,N,0.534,K,D*26
$RDENS,1599,4577320,PC
$GPGGA,124255.00,4612.0359769,N,00607.4138501,E,2,11,0.8,369.074,M,49.479,M,0.51,0195*70
$GPVTG,161.4100,T,161.4100,M,0.300,N,0.556,K,D*23
$GPGGA,124255.20,4612.0359215,N,00607.4138215,E,2,11,0.8,368.964,M,49.479,M,0.71,0195*75
$GPVTG,149.1219,T,149.1219,M,0.307,N,0.568,K,D*29
$GPVTG,146.0960,T,146.0960,M,0.235,N,0.436,K,D*23
$GPVTG,133.0674,T,133.0674,M,0.316,N,0.585,K,D*2A
$RDENS,1600,4577409,PC
$GPVTG,155.9697,T,155.9697,M,0.284,N,0.526,K,D*29
$GPVTG,159.6912,T,159.6912,M,0.298,N,0.552,K,D*27
$GPVTG,175.6514,T,175.6514,M,0.200,N,0.371,K,D*21
$GPVTG,157.0116,T,157.0116,M,0.248,N,0.460,K,D*2A
$RDENS,1601,4577498,PC
$GPVTG,154.5475,T,154.5475,M,0.241,N,0.447,K,D*26
$GPVTG,147.6386,T,147.6386,M,0.308,N,0.571,K,D*2E
$GPVTG,137.2310,T,137.2310,M,0.213,N,0.395,K,D*29
$GPVTG,145.8033,T,145.8033,M,0.254,N,0.471,K,D*27
$GPVTG,137.8817,T,137.8817,M,0.192,N,0.357,K,D*2D
$RDENS,1602,4577587,PC
$GPVTG,143.1174,T,143.1174,M,0.160,N,0.296,K,D*2C
$GPVTG,74.3033,T,74.3033,M,0.192,N,0.357,K,D*2D
$GPVTG,123.2572,T,123.2572,M,0.145,N,0.269,K,D*2B
$GPVTG,128.5150,T,128.5150,M,0.356,N,0.659,K,D*2C
$RDENS,1603,4577676,PC
$GPVTG,153.8240,T,153.8240,M,0.164,N,0.304,K,D*22
$GPVTG,162.8783,T,162.8783,M,0.175,N,0.324,K,D*20
$GPVTG,156.1841,T,156.1841,M,0.184,N,0.341,K,D*2D
$GPVTG,164.7778,T,164.7778,M,0.145,N,0.268,K,D*2A
$GPVTG,167.8971,T,167.8971,M,0.225,N,0.417,K,D*21
$RDENS,1604,4577765,PC
$GPVTG,166.9530,T,166.9530,M,0.185,N,0.343,K,D*2E
$GPVTG,146.0630,T,146.0630,M,0.167,N,0.310,K,D*24
$GPVTG,169.9939,T,169.9939,M,0.234,N,0.434,K,D*20
$GPVTG,138.6581,T,138.6581,M,0.153,N,0.283,K,D*28
$RDENS,1605,4577854,PC
$GPVTG,167.0404,T,167.0404,M,0.183,N,0.339,K,D*25
$GPVTG,137.6261,T,137.6261,M,0.155,N,0.288,K,D*25
$GPGGA,124300.60,4612.0365813,N,00607.4145203,E,2,11,0.8,369.505,M,49.479,M,0.08,0195*7A
$GPVTG,159.8316,T,159.8316,M,0.190,N,0.352,K,D*2A
