$GPVTG,140.6501,T,140.6501,M,0.570,N,1.057,K,D*27
$GPGGA,130405.00,4612.0740804,N,00607.3054634,E,2,08,1.1,369.071,M,49.481,M,1.70,0195*77
$GPVTG,150.2990,T,150.2990,M,0.839,N,1.555,K,D*20
$GPGGA,130405.20,4612.0740530,N,00607.3054828,E,2,08,1.1,369.042,M,49.481,M,0.07,0195*7D
$GPVTG,153.4461,T,153.4461,M,0.810,N,1.501,K,D*2A
$GPGGA,130405.60,4612.0739819,N,00607.3055251,E,2,08,1.1,368.989,M,49.481,M,0.47,0195*7F
$GPVTG,155.6441,T,155.6441,M,0.764,N,1.416,K,D*21
$GPGGA,130405.80,4612.0739452,N,00607.3055473,E,2,08,1.1,368.954,M,49.481,M,0.67,0195*76
$GPVTG,159.3363,T,159.3363,M,0.786,N,1.457,K,D*28
$RDENS,3036,4704451,PC
$GPGGA,130406.20,4612.0738619,N,00607.3055851,E,2,08,1.1,368.936,M,49.481,M,1.07,0195*7C
$GPVTG,160.2838,T,160.2838,M,0.756,N,1.401,K,D*26
$GPGGA,130406.40,4612.0738893,N,00607.3055690,E,2,10,0.9,368.559,M,49.481,M,1.27,0195*72
$GPVTG,163.1778,T,163.1778,M,0.840,N,1.557,K,D*2C
$GPGGA,130406.80,4612.0737965,N,00607.3056050,E,2,10,0.9,368.545,M,49.481,M,1.67,0195*79
$GPVTG,161.9149,T,161.9149,M,0.909,N,1.685,K,D*2C
$RDENS,3037,4704534,PC
$GPGGA,130407.00,4612.0737523,N,00607.3056159,E,2,10,0.9,368.532,M,49.481,M,1.87,0195*78
$GPVTG,167.6363,T,167.6363,M,0.874,N,1.620,K,D*28
$GPGGA,130407.20,4612.0736951,N,00607.3056417,E,2,10,0.9,368.513,M,49.481,M,2.07,0195*75
$GPVTG,165.5613,T,165.5613,M,0.868,N,1.608,K,D*2F
$GPGGA,130407.60,4612.0736078,N,00607.3056616,E,2,10,0.9,368.544,M,49.481,M,2.47,0195*76
$GPVTG,169.5670,T,169.5670,M,0.931,N,1.725,K,D*2C
$RDENS,3038,4704620,PC
$GPGGA,130407.80,4612.0735555,N,00607.3056767,E,2,10,0.9,368.549,M,49.481,M,2.67,0195*79
$GPVTG,169.2981,T,169.2981,M,0.941,N,1.744,K,D*2C
$GPGGA,130408.20,4612.0734613,N,00607.3057047,E,2,10,0.9,368.569,M,49.481,M,3.07,0195*7D
$GPVTG,166.4798,T,166.4798,M,0.968,N,1.793,K,D*2D
$GPGGA,130408.40,4612.0734207,N,00607.3057178,E,2,10,0.9,368.581,M,49.481,M,3.27,0195*73
$GPVTG,162.9818,T,162.9818,M,0.862,N,1.597,K,D*20
$RDENS,3039,4704706,PC
$GPGGA,130408.80,4612.0733303,N,00607.3057596,E,2,10,0.9,368.569,M,49.481,M,3.67,0195*7B
$GPVTG,162.1989,T,162.1989,M,0.946,N,1.753,K,D*2D
$GPGGA,130409.00,4612.0732904,N,00607.3057845,E,2,10,0.9,368.571,M,49.481,M,3.87,0195*7A
$GPVTG,155.0865,T,155.0865,M,0.908,N,1.683,K,D*2B
$GPGGA,130409.40,4612.0731951,N,00607.3058516,E,2,10,0.9,368.575,M,49.481,M,4.27,0195*70
$GPVTG,155.1556,T,155.1556,M,0.920,N,1.705,K,D*2E
$RDENS,3040,4704792,PC
$GPGGA,130409.60,4612.0731499,N,00607.3058894,E,2,10,0.9,368.579,M,49.481,M,4.47,0195*76
$GPVTG,154.5408,T,154.5408,M,0.831,N,1.541,K,D*2D
$GPGGA,130410.00,4612.0730632,N,00607.3059666,E,2,10,0.9,368.550,M,49.481,M,4.87,0195*7F
$GPVTG,145.1551,T,145.1551,M,0.900,N,1.668,K,D*26
$GPGGA,130410.20,4612.0730156,N,00607.3060214,E,2,10,0.9,368.555,M,49.481,M,5.07,0195*7F
$GPVTG,147.2225,T,147.2225,M,0.834,N,1.545,K,D*2C
$RDENS,3041,4704878,PC
$GPGGA,130410.60,4612.0729422,N,00607.3061056,E,2,10,0.9,368.548,M,49.481,M,5.47,0195*78
$GPVTG,140.2397,T,140.2397,M,0.783,N,1.451,K,D*2B
$GPGGA,130410.80,4612.0729074,N,00607.3061514,E,2,10,0.9,368.552,M,49.481,M,5.67,0195*7B
$GPVTG,139.8069,T,139.8069,M,0.758,N,1.405,K,D*2C
$GPGGA,130411.20,4612.0728427,N,00607.3062501,E,2,10,0.9,368.583,M,49.481,M,6.07,0195*7D
$RDENS,3042,4704964,PC
$GPVTG,134.1768,T,134.1768,M,0.751,N,1.392,K,D*2C
$GPGGA,130411.40,4612.0728030,N,00607.3063089,E,2,10,0.9,368.572,M,49.481,M,6.27,0195*71
$GPVTG,130.7598,T,130.7598,M,0.588,N,1.089,K,D*23
$GPGGA,130411.80,4612.0727507,N,00607.3063934,E,2,10,0.9,368.565,M,49.481,M,6.67,0195*7E
$GPVTG,134.0124,T,134.0124,M,0.607,N,1.126,K,D*23
$GPGGA,130412.00,4612.0727264,N,00607.3064330,E,2,10,0.9,368.577,M,49.481,M,6.87,0195*73
$RDENS,3043,4705050,PC
$GPVTG,135.4580,T,135.4580,M,0.653,N,1.210,K,D*24
$GPGGA,130412.40,4612.0726835,N,00607.3064976,E,2,10,0.9,368.584,M,49.481,M,7.27,0195*77
$GPVTG,134.0531,T,134.0531,M,0.494,N,0.916,K,D*21
$GPGGA,130412.60,4612.0726759,N,00607.3065169,E,2,10,0.9,368.625,M,49.481,M,7.47,0195*79
$GPVTG,128.3823,T,128.3823,M,0.514,N,0.953,K,D*29
$GPGGA,130412.80,4612.0726529,N,00607.3065520,E,2,10,0.9,368.628,M,49.481,M,0.13,0195*70
$RDENS,3044,4705136,PC
$GPVTG,135.5730,T,135.5730,M,0.384,N,0.711,K,D*2E
$GPGGA,130413.20,4612.0726229,N,00607.3065950,E,2,10,0.9,368.639,M,49.481,M,0.03,0195*76
$GPVTG,136.2799,T,136.2799,M,0.388,N,0.719,K,D*2A
$GPGGA,130413.40,4612.0726013,N,00607.3066211,E,2,10,0.9,368.664,M,49.481,M,0.04,0195*79
$GPVTG,132.0841,T,132.0841,M,0.420,N,0.778,K,D*28
$GPGGA,130413.80,4612.0725699,N,00607.3066644,E,2,10,0.9,368.678,M,49.481,M,0.44,0195*7F
$RDENS,3045,4705222,PC
$GPVTG,135.4879,T,135.4879,M,0.356,N,0.659,K,D*2C
$GPGGA,130414.00,4612.0725533,N,00607.3066860,E,2,10,0.9,368.664,M,49.481,M,0.64,0195*74
$GPVTG,135.2960,T,135.2960,M,0.291,N,0.539,K,D*23
$GPGGA,130414.40,4612.0725264,N,00607.3067210,E,2,10,0.9,368.653,M,49.481,M,1.04,0195*7A
$GPVTG,137.7658,T,137.7658,M,0.304,N,0.564,K,D*26
$RDENS,3046,4705308,PC
$GPGGA,130414.60,4612.0725158,N,00607.3067359,E,2,10,0.9,368.652,M,49.481,M,0.07,0195*7B
$GPVTG,151.4139,T,151.4139,M,0.285,N,0.527,K,D*29
$GPGGA,130415.00,4612.0724981,N,00607.3067405,E,2,10,0.9,368.679,M,49.481,M,0.33,0195*71
$GPVTG,150.1448,T,150.1448,M,0.320,N,0.593,K,D*28
$GPGGA,130415.20,4612.0724900,N,00607.3067472,E,2,10,0.9,368.692,M,49.481,M,0.53,0195*79
$GPVTG,157.9083,T,157.9083,M,0.234,N,0.434,K,D*20
$RDENS,3047,4705394,PC
$GPGGA,130415.60,4612.0724520,N,00607.3067797,E,2,10,0.9,368.660,M,49.481,M,0.93,0195*7A
$GPVTG,147.1972,T,147.1972,M,0.255,N,0.473,K,D*24
$GPGGA,130415.80,4612.0724403,N,00607.3067906,E,2,10,0.9,368.669,M,49.481,M,1.13,0195*72
$GPVTG,147.1491,T,147.1491,M,0.255,N,0.473,K,D*24
$GPGGA,130416.20,4612.0724208,N,00607.3068038,E,2,10,0.9,368.685,M,49.481,M,1.53,0195*7B
$GPVTG,156.0906,T,156.0906,M,0.243,N,0.450,K,D*22
$RDENS,3048,4705480,PC
$GPGGA,130416.40,4612.0724142,N,00607.3068071,E,2,10,0.9,368.678,M,49.481,M,1.73,0195*7D
$GPVTG,156.4413,T,156.4413,M,0.233,N,0.433,K,D*20
$GPGGA,130416.80,4612.0723771,N,00607.3068393,E,2,10,0.9,368.678,M,49.481,M,2.13,0195*7A
$GPVTG,157.6652,T,157.6652,M,0.256,N,0.475,K,D*21
$GPGGA,130417.00,4612.0723649,N,00607.3068498,E,2,10,0.9,368.682,M,49.481,M,2.33,0195*72
$GPVTG,166.0018,T,166.0018,M,0.206,N,0.382,K,D*2B
$RDENS,3049,4705566,PC
$GPGGA,130417.40,4612.0723570,N,00607.3068462,E,2,10,0.9,368.725,M,49.481,M,2.73,0195*72
$GPVTG,169.2021,T,169.2021,M,0.205,N,0.379,K,D*2C
$GPGGA,130417.60,4612.0723319,N,00607.3068690,E,2,10,0.9,368.694,M,49.481,M,2.93,0195*73
$GPVTG,157.7129,T,157.7129,M,0.288,N,0.535,K,D*27
$GPGGA,130417.80,4612.0723286,N,00607.3068671,E,2,10,0.9,368.707,M,49.481,M,3.13,0195*77
$GPVTG,166.6770,T,166.6770,M,0.214,N,0.396,K,D*2D
$RDENS,3050,4705652,PC
$GPGGA,130418.20,4612.0723064,N,00607.3068737,E,2,10,0.9,368.703,M,49.481,M,3.53,0195*7F
$GPVTG,163.8124,T,163.8124,M,0.259,N,0.480,K,D*24
$GPGGA,130418.40,4612.0722912,N,00607.3068810,E,2,10,0.9,368.702,M,49.481,M,0.24,0195*78
$GPVTG,170.2773,T,170.2773,M,0.261,N,0.484,K,D*2B
$GPGGA,130418.80,4612.0722750,N,00607.3068729,E,2,10,0.9,368.681,M,49.481,M,0.08,0195*7D
$GPVTG,164.6672,T,164.6672,M,0.298,N,0.552,K,D*27
$RDENS,3051,4705738,PC
$GPGGA,130419.00,4612.0722583,N,00607.3068753,E,2,10,0.9,368.658,M,49.481,M,0.28,0195*73
$GPVTG,166.7015,T,166.7015,M,0.350,N,0.649,K,D*2B
$GPGGA,130419.40,4612.0722303,N,00607.3068708,E,2,10,0.9,368.627,M,49.481,M,0.68,0195*7B
$GPVTG,166.4382,T,166.4382,M,0.295,N,0.547,K,D*2E
$GPGGA,130419.60,4612.0722127,N,00607.3068704,E,2,10,0.9,368.620,M,49.481,M,0.12,0195*7B
$GPVTG,176.6675,T,176.6675,M,0.307,N,0.570,K,D*20
$RDENS,3052,4705824,PC
$GPGGA,130420.00,4612.0721876,N,00607.3068496,E,2,10,0.9,368.587,M,49.481,M,0.28,0195*76
$GPVTG,173.8560,T,173.8560,M,0.323,N,0.598,K,D*20
$GPGGA,130420.20,4612.0721566,N,00607.3068606,E,2,10,0.9,368.544,M,49.481,M,0.48,0195*7A
$GPVTG,165.6432,T,165.6432,M,0.367,N,0.681,K,D*2B
$GPGGA,130420.60,4612.0721096,N,00607.3068706,E,2,09,1.0,368.544,M,49.481,M,0.14,0195*7C
$GPVTG,167.5602,T,167.5602,M,0.397,N,0.736,K,D*29
$RDENS,3053,4705910,PC
$GPGGA,130420.80,4612.0720899,N,00607.3068680,E,2,09,1.0,368.539,M,49.481,M,0.34,0195*73
$GPVTG,172.6767,T,172.6767,M,0.386,N,0.715,K,D*28
$GPGGA,130421.20,4612.0720440,N,00607.3068746,E,2,09,1.0,368.540,M,49.481,M,0.74,0195*71
$GPVTG,168.5643,T,168.5643,M,0.437,N,0.810,K,D*2F
$GPGGA,130421.40,4612.0720209,N,00607.3068756,E,2,09,1.0,368.538,M,49.480,M,0.94,0195*7D
$RDENS,3054,4705996,PC
$GPVTG,165.2835,T,165.2835,M,0.460,N,0.852,K,D*2B
$GPGGA,130421.80,4612.0719715,N,00607.3068917,E,2,09,1.0,368.558,M,49.480,M,1.34,0195*75
$GPVTG,169.4018,T,169.4018,M,0.475,N,0.880,K,D*20
$GPGGA,130422.00,4612.0719452,N,00607.3068975,E,2,09,1.0,368.562,M,49.480,M,1.54,0195*75
$GPVTG,168.2287,T,168.2287,M,0.483,N,0.895,K,D*2D
$GPGGA,130422.40,4612.0718931,N,00607.3069124,E,2,09,1.0,368.569,M,49.480,M,1.94,0195*72
$RDENS,3055,4706081,PC
$GPVTG,165.9546,T,165.9546,M,0.498,N,0.923,K,D*2B
$GPGGA,130422.60,4612.0718672,N,00607.3069198,E,2,09,1.0,368.571,M,49.480,M,2.14,0195*7D
$GPVTG,169.7859,T,169.7859,M,0.467,N,0.865,K,D*28
$GPGGA,130423.00,4612.0718134,N,00607.3069277,E,2,09,1.0,368.557,M,49.480,M,2.54,0195*7D
$GPVTG,173.8634,T,173.8634,M,0.451,N,0.836,K,D*2B
$GPGGA,130423.20,4612.0717808,N,00607.3069351,E,2,09,1.0,368.551,M,49.480,M,2.74,0195*77
$RDENS,3056,4706167,PC
$GPVTG,168.8275,T,168.8275,M,0.537,N,0.994,K,D*23
$GPGGA,130423.40,4612.0717514,N,00607.3069407,E,2,09,1.0,368.538,M,49.480,M,2.94,0195*74
$GPVTG,172.1057,T,172.1057,M,0.544,N,1.008,K,D*2A
$GPVTG,168.1122,T,168.1122,M,0.622,N,1.152,K,D*27
$GPGGA,130424.00,4612.0716655,N,00607.3069547,E,2,09,1.0,368.498,M,49.480,M,3.54,0195*73
$GPVTG,174.9290,T,174.9290,M,0.586,N,1.086,K,D*22
$RDENS,3057,4706253,PC
$GPGGA,130424.20,4612.0716355,N,00607.3069572,E,2,09,1.0,368.482,M,49.480,M,3.74,0195*7B
$GPVTG,171.4896,T,171.4896,M,0.566,N,1.050,K,D*27
$GPGGA,130424.60,4612.0715664,N,00607.3069700,E,2,10,0.9,368.452,M,49.480,M,4.14,0195*70
$GPVTG,176.0444,T,176.0444,M,0.652,N,1.208,K,D*2C
$GPGGA,130424.80,4612.0715340,N,00607.3069738,E,2,09,1.0,368.458,M,49.480,M,4.34,0195*7E
$RDENS,3058,4706339,PC
$GPVTG,174.6075,T,174.6075,M,0.630,N,1.168,K,D*2D
$GPGGA,130425.20,4612.0714677,N,00607.3069889,E,2,09,1.0,368.452,M,49.480,M,4.74,0195*7E
$GPVTG,169.5708,T,169.5708,M,0.542,N,1.005,K,D*21
$GPGGA,130425.40,4612.0714304,N,00607.3070078,E,2,09,1.0,368.460,M,49.480,M,4.94,0195*78
$GPVTG,159.0601,T,159.0601,M,0.568,N,1.053,K,D*2A
$GPGGA,130425.80,4612.0713686,N,00607.3070431,E,2,09,1.0,368.473,M,49.480,M,5.34,0195*7C
$RDENS,3059,4706425,PC
$GPVTG,155.8289,T,155.8289,M,0.548,N,1.016,K,D*29
$GPGGA,130426.00,4612.0713383,N,00607.3070684,E,2,09,1.0,368.475,M,49.480,M,5.54,0195*7B
$GPVTG,147.8514,T,147.8514,M,0.605,N,1.121,K,D*26
$GPGGA,130426.40,4612.0712770,N,00607.3071319,E,2,09,1.0,368.499,M,49.480,M,5.94,0195*78
$GPVTG,143.9274,T,143.9274,M,0.560,N,1.038,K,D*2F
$GPGGA,130426.60,4612.0712520,N,00607.3071644,E,2,09,1.0,368.491,M,49.480,M,6.14,0195*73
$RDENS,3060,4706511,PC
$GPVTG,135.9565,T,135.9565,M,0.602,N,1.115,K,D*26
$GPGGA,130427.00,4612.0712009,N,00607.3072437,E,2,09,1.0,368.517,M,49.480,M,6.54,0195*74
$GPVTG,131.1825,T,131.1825,M,0.591,N,1.094,K,D*27
$GPGGA,130427.20,4612.0711803,N,00607.3072852,E,2,09,1.0,368.519,M,49.480,M,6.74,0195*74
$GPVTG,120.2081,T,120.2081,M,0.578,N,1.072,K,D*28
$GPGGA,130427.60,4612.0711394,N,00607.3073766,E,2,09,1.0,368.523,M,49.480,M,7.14,0195*72
$RDENS,3061,4706597,PC
$GPVTG,121.4672,T,121.4672,M,0.673,N,1.247,K,D*24
$GPGGA,130427.80,4612.0711245,N,00607.3074252,E,2,09,1.0,368.521,M,49.480,M,7.34,0195*74
$GPVTG,115.1713,T,115.1713,M,0.701,N,1.300,K,D*22
$GPGGA,130428.20,4612.0710884,N,00607.3075274,E,2,09,1.0,368.525,M,49.480,M,0.06,0195*70
$GPVTG,119.5609,T,119.5609,M,0.701,N,1.299,K,D*23
$GPGGA,130428.40,4612.0710636,N,00607.3075707,E,2,09,1.0,368.535,M,49.480,M,0.07,0195*70
$RDENS,3062,4706683,PC
$GPVTG,116.3509,T,116.3509,M,0.591,N,1.095,K,D*26
$GPGGA,130428.60,4612.0710469,N,00607.3076145,E,2,09,1.0,368.533,M,49.480,M,0.03,0195*7B
$GPVTG,122.2345,T,122.2345,M,0.541,N,1.002,K,D*25
$GPGGA,130429.00,4612.0710165,N,00607.3076870,E,2,09,1.0,368.525,M,49.480,M,0.04,0195*7A
$GPVTG,125.8157,T,125.8157,M,0.580,N,1.074,K,D*29
$RDENS,3063,4706769,PC
$GPGGA,130429.20,4612.0710027,N,00607.3077214,E,2,09,1.0,368.516,M,49.480,M,0.24,0195*74
$GPVTG,124.3897,T,124.3897,M,0.630,N,1.167,K,D*22
$GPGGA,130429.60,4612.0709714,N,00607.3077951,E,2,09,1.0,368.524,M,49.480,M,0.09,0195*7B
$GPVTG,122.1115,T,122.1115,M,0.544,N,1.007,K,D*25
$GPGGA,130429.80,4612.0709558,N,00607.3078239,E,2,09,1.0,368.534,M,49.480,M,0.29,0195*76
$GPVTG,128.4423,T,128.4423,M,0.555,N,1.029,K,D*29
$RDENS,3064,4706855,PC
$GPGGA,130430.20,4612.0709244,N,00607.3078847,E,2,09,1.0,368.541,M,49.480,M,0.69,0195*7B
$GPVTG,132.1339,T,132.1339,M,0.462,N,0.855,K,D*2E
$GPGGA,130430.40,4612.0709051,N,00607.3079119,E,2,09,1.0,368.528,M,49.480,M,0.89,0195*79
$GPVTG,132.3358,T,132.3358,M,0.563,N,1.044,K,D*27
$GPGGA,130430.80,4612.0708736,N,00607.3079637,E,2,09,1.0,368.520,M,49.480,M,1.29,0195*7A
$GPVTG,134.0055,T,134.0055,M,0.370,N,0.686,K,D*2A
$RDENS,3065,4706941,PC
$GPGGA,130431.00,4612.0708554,N,00607.3079865,E,2,09,1.0,368.513,M,49.480,M,1.49,0195*7A
$GPVTG,139.5632,T,139.5632,M,0.440,N,0.816,K,D*29
$GPGGA,130431.40,4612.0708177,N,00607.3080347,E,2,09,1.0,368.519,M,49.480,M,1.89,0195*70
$GPVTG,140.8911,T,140.8911,M,0.408,N,0.757,K,D*2F
$GPGGA,130431.60,4612.0707983,N,00607.3080533,E,2,09,1.0,368.518,M,49.480,M,2.09,0195*71
$GPVTG,147.6036,T,147.6036,M,0.336,N,0.623,K,D*27
$RDENS,3066,4707027,PC
$GPGGA,130432.00,4612.0707683,N,00607.3080848,E,2,09,1.0,368.513,M,49.480,M,2.49,0195*75
$GPVTG,142.6953,T,142.6953,M,0.392,N,0.726,K,D*2D
$GPGGA,130432.20,4612.0707514,N,00607.3081003,E,2,09,1.0,368.508,M,49.480,M,2.69,0195*74
$GPVTG,148.9364,T,148.9364,M,0.310,N,0.575,K,D*23
$GPGGA,130432.60,4612.0707173,N,00607.3081328,E,2,09,1.0,368.520,M,49.480,M,3.09,0195*72
$GPVTG,148.4701,T,148.4701,M,0.374,N,0.692,K,D*2B
$RDENS,3067,4707113,PC
$GPGGA,130432.80,4612.0707027,N,00607.3081406,E,2,09,1.0,368.514,M,49.480,M,3.29,0195*72
$GPVTG,155.9202,T,155.9202,M,0.312,N,0.579,K,D*2D
$GPGGA,130433.20,4612.0706702,N,00607.3081662,E,2,09,1.0,368.527,M,49.480,M,3.69,0195*7C
$GPVTG,149.6769,T,149.6769,M,0.346,N,0.642,K,D*27
$GPGGA,130433.40,4612.0706550,N,00607.3081739,E,2,09,1.0,368.511,M,49.480,M,3.89,0195*7B
$GPVTG,156.8055,T,156.8055,M,0.269,N,0.498,K,D*2E
$RDENS,3068,4707199,PC
$GPGGA,130433.60,4612.0706420,N,00607.3081804,E,2,09,1.0,368.508,M,49.480,M,4.09,0195*79
$GPVTG,158.5628,T,158.5628,M,0.293,N,0.544,K,D*2B
$GPGGA,130434.00,4612.0706131,N,00607.3081946,E,2,09,1.0,368.507,M,49.480,M,4.49,0195*71
$GPVTG,165.4262,T,165.4262,M,0.250,N,0.463,K,D*20
$GPGGA,130434.20,4612.0705971,N,00607.3082015,E,2,09,1.0,368.498,M,49.480,M,4.69,0195*75
$GPVTG,164.4273,T,164.4273,M,0.262,N,0.486,K,D*2A
$RDENS,3069,4707285,PC
$GPGGA,130434.60,4612.0705826,N,00607.3081989,E,2,10,0.9,368.474,M,49.480,M,5.09,0195*78
$GPVTG,168.7290,T,168.7290,M,0.254,N,0.470,K,D*26
$GPGGA,130434.80,4612.0705639,N,00607.3082058,E,2,10,0.9,368.476,M,49.480,M,5.29,0195*70
$GPVTG,179.0014,T,179.0014,M,0.218,N,0.405,K,D*2C
$GPGGA,130435.20,4612.0705324,N,00607.3082045,E,2,10,0.9,368.480,M,49.480,M,5.69,0195*73
$GPVTG,194.4953,T,194.4953,M,0.277,N,0.513,K,D*23
$RDENS,3070,4707371,PC
$GPGGA,130435.40,4612.0705169,N,00607.3081912,E,2,10,0.9,368.468,M,49.480,M,5.89,0195*7E
$GPVTG,213.6751,T,213.6751,M,0.354,N,0.655,K,D*22
$GPGGA,130435.80,4612.0704822,N,00607.3081507,E,2,10,0.9,368.455,M,49.480,M,6.29,0195*7A
$GPVTG,220.4322,T,220.4322,M,0.437,N,0.810,K,D*2F
$GPGGA,130436.00,4612.0704645,N,00607.3081234,E,2,10,0.9,368.457,M,49.480,M,6.49,0195*7D
$GPVTG,226.3076,T,226.3076,M,0.549,N,1.018,K,D*26
$RDENS,3071,4707457,PC
$GPGGA,130436.40,4612.0704232,N,00607.3080453,E,2,10,0.9,368.456,M,49.480,M,6.89,0195*76
$GPVTG,233.3637,T,233.3637,M,0.647,N,1.199,K,D*23
$GPGGA,130436.60,4612.0704002,N,00607.3080000,E,2,10,0.9,368.468,M,49.480,M,7.09,0195*73
$GPVTG,230.3667,T,230.3667,M,0.781,N,1.448,K,D*21
$GPVTG,238.5534,T,238.5534,M,0.879,N,1.628,K,D*2D
$RDENS,3072,4707543,PC
$GPVTG,235.7589,T,235.7589,M,0.947,N,1.755,K,D*2A
$GPGGA,130437.20,4612.0704719,N,00607.3075977,E,2,11,0.8,367.751,M,49.480,M,7.69,0195*78
$GPVTG,233.2877,T,233.2877,M,0.953,N,1.767,K,D*2E
$GPVTG,243.3088,T,243.3088,M,1.096,N,2.030,K,D*29
$GPVTG,240.3365,T,240.3365,M,1.139,N,2.111,K,D*2F
$GPGGA,130437.80,4612.0702292,N,00607.3076053,E,2,10,0.9,368.460,M,49.480,M,8.29,0195*7B
$RDENS,3073,4707629,PC
$GPVTG,240.1663,T,240.1663,M,1.191,N,2.207,K,D*29
$GPGGA,130438.20,4612.0701572,N,00607.3074368,E,2,10,0.9,368.478,M,49.480,M,8.69,0195*70
$GPVTG,242.0618,T,242.0618,M,1.270,N,2.353,K,D*25
$GPGGA,130438.40,4612.0701144,N,00607.3073492,E,2,10,0.9,368.499,M,49.480,M,8.89,0195*73
$GPVTG,239.4036,T,239.4036,M,1.366,N,2.531,K,D*21
$GPGGA,130438.60,4612.0700751,N,00607.3072521,E,2,10,0.9,368.503,M,49.480,M,9.09,0195*71
$RDENS,3074,4707715,PC
$GPVTG,239.7208,T,239.7208,M,1.409,N,2.611,K,D*2E
$GPGGA,130439.00,4612.0699927,N,00607.3070478,E,2,10,0.9,368.518,M,49.480,M,9.49,0195*79
$GPVTG,240.8413,T,240.8413,M,1.536,N,2.846,K,D*2F
$GPGGA,130439.20,4612.0699483,N,00607.3069425,E,2,10,0.9,368.529,M,49.480,M,9.69,0195*78
$GPVTG,238.5239,T,238.5239,M,1.629,N,3.019,K,D*21
$GPGGA,130439.60,4612.0698586,N,00607.3067112,E,2,10,0.9,368.508,M,49.480,M,10.09,0195*4B
$RDENS,3075,4707801,PC
$GPVTG,238.8667,T,238.8667,M,1.688,N,3.128,K,D*29
$GPGGA,130439.80,4612.0698125,N,00607.3065875,E,2,10,0.9,368.499,M,49.480,M,10.29,0195*49
$GPVTG,237.1182,T,237.1182,M,1.834,N,3.399,K,D*28
$GPGGA,130440.20,4612.0697071,N,00607.3063419,E,2,10,0.9,368.497,M,49.480,M,10.69,0195*48
$GPVTG,236.7830,T,236.7830,M,1.851,N,3.430,K,D*2F
$GPGGA,130440.40,4612.0696514,N,00607.3062162,E,2,10,0.9,368.494,M,49.480,M,10.89,0195*4C
$RDENS,3076,4707888,PC
$GPVTG,236.2138,T,236.2138,M,1.899,N,3.519,K,D*21
$GPGGA,130440.80,4612.0695338,N,00607.3059624,E,2,10,0.9,368.494,M,49.480,M,11.29,0195*4D
$GPVTG,233.0632,T,233.0632,M,1.945,N,3.605,K,D*2F
$GPGGA,130441.00,4612.0694712,N,00607.3058324,E,2,10,0.9,368.496,M,49.480,M,11.49,0195*49
$GPVTG,232.3501,T,232.3501,M,2.023,N,3.750,K,D*24
$RDENS,3077,4707974,PC
$GPGGA,130441.40,4612.0693377,N,00607.3055715,E,2,10,0.9,368.507,M,49.480,M,11.89,0195*43
$GPVTG,234.5243,T,234.5243,M,2.089,N,3.871,K,D*28
$GPGGA,130441.60,4612.0692638,N,00607.3054431,E,2,10,0.9,368.513,M,49.480,M,12.09,0195*44
$GPVTG,231.1082,T,231.1082,M,2.133,N,3.953,K,D*29
$GPGGA,130442.00,4612.0691218,N,00607.3051702,E,2,10,0.9,368.516,M,49.480,M,12.49,0195*43
$GPVTG,232.3745,T,232.3745,M,2.171,N,4.023,K,D*26
$RDENS,3078,4708061,PC
$GPGGA,130442.20,4612.0690416,N,00607.3050399,E,2,10,0.9,368.530,M,49.480,M,12.69,0195*49
$GPVTG,229.3088,T,229.3088,M,2.193,N,4.064,K,D*29
$GPGGA,130442.60,4612.0688878,N,00607.3047780,E,2,10,0.9,368.532,M,49.480,M,13.09,0195*4F
$GPVTG,227.2391,T,227.2391,M,2.118,N,3.925,K,D*21
$GPGGA,130442.80,4612.0688072,N,00607.3046552,E,2,10,0.9,368.541,M,49.480,M,13.29,0195*49
$GPVTG,229.0037,T,229.0037,M,2.116,N,3.921,K,D*2B
$RDENS,3079,4708148,PC
$GPGGA,130443.20,4612.0686513,N,00607.3044050,E,2,10,0.9,368.548,M,49.480,M,13.69,0195*46
$GPVTG,229.3505,T,229.3505,M,2.140,N,3.965,K,D*28
$GPGGA,130443.40,4612.0685718,N,00607.3042844,E,2,10,0.9,368.553,M,49.480,M,13.89,0195*45
$GPVTG,226.8670,T,226.8670,M,2.158,N,3.999,K,D*22
$GPGGA,130443.80,4612.0684022,N,00607.3040357,E,2,10,0.9,368.547,M,49.480,M,14.29,0195*45
$GPVTG,226.1553,T,226.1553,M,2.195,N,4.068,K,D*23
$RDENS,3080,4708234,PC
$GPGGA,130444.00,4612.0683134,N,00607.3039144,E,2,10,0.9,368.556,M,49.480,M,14.49,0195*43
$GPVTG,221.8194,T,221.8194,M,2.243,N,4.157,K,D*26
$GPGGA,130444.40,4612.0681237,N,00607.3036757,E,2,10,0.9,368.559,M,49.480,M,14.89,0195*4D
$GPVTG,222.9167,T,222.9167,M,2.224,N,4.121,K,D*26
$GPGGA,130444.60,4612.0680269,N,00607.3035600,E,2,10,0.9,368.560,M,49.480,M,15.09,0195*46
$GPVTG,218.2715,T,218.2715,M,2.336,N,4.328,K,D*2F
$RDENS,3081,4708321,PC
$GPGGA,130445.00,4612.0678299,N,00607.3033266,E,2,10,0.9,368.540,M,49.480,M,15.49,0195*4D
$GPVTG,223.7468,T,223.7468,M,2.184,N,4.047,K,D*2E
$GPGGA,130445.20,4612.0677313,N,00607.3032094,E,2,10,0.9,368.539,M,49.480,M,15.69,0195*41
$GPVTG,217.5129,T,217.5129,M,2.316,N,4.292,K,D*2D
$GPGGA,130445.60,4612.0675188,N,00607.3029953,E,2,10,0.9,368.568,M,49.480,M,16.09,0195*4E
$GPVTG,214.4980,T,214.4980,M,2.361,N,4.376,K,D*26
$RDENS,3082,4708407,PC
$GPGGA,130445.80,4612.0674144,N,00607.3028816,E,2,10,0.9,368.555,M,49.480,M,16.29,0195*4C
$GPVTG,212.1182,T,212.1182,M,2.342,N,4.341,K,D*23
$GPGGA,130446.20,4612.0671988,N,00607.3026734,E,2,10,0.9,368.538,M,49.480,M,16.69,0195*46
$GPVTG,213.1464,T,213.1464,M,2.376,N,4.404,K,D*22
$GPGGA,130446.40,4612.0670890,N,00607.3025741,E,2,09,1.0,368.535,M,49.480,M,16.89,0195*4B
$RDENS,3083,4708493,PC
$GPVTG,212.0049,T,212.0049,M,2.348,N,4.352,K,D*2B
$GPGGA,130446.80,4612.0668708,N,00607.3023737,E,2,09,1.0,368.525,M,49.480,M,17.29,0195*4D
$GPVTG,211.3334,T,211.3334,M,2.349,N,4.353,K,D*2B
$GPGGA,130447.00,4612.0667614,N,00607.3022772,E,2,09,1.0,368.512,M,49.480,M,17.49,0195*45
$GPVTG,209.2681,T,209.2681,M,2.286,N,4.237,K,D*2A
$GPGGA,130447.20,4612.0666511,N,00607.3021855,E,2,09,1.0,368.510,M,49.480,M,17.69,0195*49
$RDENS,3084,4708579,PC
$GPVTG,210.4230,T,210.4230,M,2.176,N,4.032,K,D*21
$GPGGA,130447.60,4612.0664436,N,00607.3019977,E,2,09,1.0,368.506,M,49.480,M,18.09,0195*4F
$GPVTG,209.7095,T,209.7095,M,2.095,N,3.882,K,D*29
$GPGGA,130447.80,4612.0663415,N,00607.3019081,E,2,09,1.0,368.487,M,49.480,M,18.29,0195*4D
$GPVTG,210.2680,T,210.2680,M,2.096,N,3.885,K,D*2D
$GPGGA,130448.20,4612.0661369,N,00607.3017262,E,2,09,1.0,368.461,M,49.480,M,18.69,0195*4B
$RDENS,3085,4708665,PC
$GPVTG,209.8192,T,209.8192,M,2.146,N,3.978,K,D*22
$GPGGA,130448.40,4612.0660296,N,00607.3016420,E,2,09,1.0,368.444,M,49.480,M,18.89,0195*45
$GPVTG,207.5248,T,207.5248,M,2.115,N,3.919,K,D*23
$GPGGA,130448.80,4612.0658137,N,00607.3014887,E,2,09,1.0,368.441,M,49.480,M,19.29,0195*47
$GPVTG,206.1891,T,206.1891,M,2.123,N,3.934,K,D*29
$GPGGA,130449.00,4612.0657077,N,00607.3014117,E,2,09,1.0,368.432,M,49.480,M,19.49,0195*46
$RDENS,3086,4708751,PC
$GPVTG,203.3210,T,203.3210,M,2.137,N,3.960,K,D*2D
$GPGGA,130449.40,4612.0654852,N,00607.3012759,E,2,09,1.0,368.429,M,49.480,M,19.89,0195*42
$GPVTG,201.7184,T,201.7184,M,2.179,N,4.038,K,D*24
$GPGGA,130449.60,4612.0653734,N,00607.3012159,E,2,09,1.0,368.439,M,49.480,M,20.09,0195*4D
$GPVTG,201.7506,T,201.7506,M,2.111,N,3.913,K,D*2D
$RDENS,3087,4708837,PC
$GPGGA,130450.00,4612.0651636,N,00607.3010963,E,2,09,1.0,368.425,M,49.480,M,20.49,0195*48
$GPVTG,200.6171,T,200.6171,M,2.033,N,3.768,K,D*2E
$GPGGA,130450.20,4612.0650596,N,00607.3010367,E,2,09,1.0,368.427,M,49.480,M,20.69,0195*4C
$GPVTG,201.9296,T,201.9296,M,1.996,N,3.700,K,D*25
$GPGGA,130450.60,4612.0648411,N,00607.3009746,E,2,10,0.9,368.447,M,49.480,M,21.09,0195*41
$GPVTG,200.1422,T,200.1422,M,1.969,N,3.649,K,D*29
$RDENS,3088,4708923,PC
$GPGGA,130450.80,4612.0647436,N,00607.3009015,E,2,10,0.9,368.425,M,49.480,M,21.29,0195*42
$GPVTG,202.8527,T,202.8527,M,1.868,N,3.462,K,D*22
$GPGGA,130451.20,4612.0645562,N,00607.3007912,E,2,10,0.9,368.427,M,49.480,M,21.69,0195*4D
$GPVTG,204.6461,T,204.6461,M,1.835,N,3.400,K,D*2E
$GPGGA,130451.40,4612.0644580,N,00607.3007444,E,2,10,0.9,368.438,M,49.480,M,21.89,0195*48
$GPVTG,201.8493,T,201.8493,M,1.827,N,3.385,K,D*27
$RDENS,3089,4709009,PC
$GPGGA,130451.80,4612.0642680,N,00607.3006499,E,2,10,0.9,368.446,M,49.480,M,22.29,0195*40
$GPVTG,197.6814,T,197.6814,M,1.780,N,3.299,K,D*29
$GPGGA,130452.00,4612.0641727,N,00607.3006070,E,2,10,0.9,368.440,M,49.480,M,22.49,0195*47
$GPVTG,201.3136,T,201.3136,M,1.759,N,3.261,K,D*2A
$GPGGA,130452.40,4612.0639804,N,00607.3005321,E,2,10,0.9,368.466,M,49.480,M,22.89,0195*4E
$GPVTG,194.6856,T,194.6856,M,1.781,N,3.300,K,D*29
$RDENS,3090,4709095,PC
$GPGGA,130452.60,4612.0638832,N,00607.3004991,E,2,10,0.9,368.487,M,49.480,M,23.09,0195*4E
$GPVTG,189.4131,T,189.4131,M,1.731,N,3.209,K,D*2A
$GPGGA,130453.00,4612.0637077,N,00607.3004091,E,2,09,1.0,368.448,M,49.480,M,23.49,0195*41
$GPVTG,188.4885,T,188.4885,M,1.704,N,3.157,K,D*24
$GPGGA,130453.20,4612.0636098,N,00607.3003964,E,2,09,1.0,368.465,M,49.480,M,23.69,0195*4A
$GPVTG,186.3961,T,186.3961,M,1.675,N,3.105,K,D*24
$RDENS,3091,4709181,PC
$GPGGA,130453.60,4612.0634280,N,00607.3003706,E,2,09,1.0,368.462,M,49.480,M,24.09,0195*4B
$GPVTG,183.0228,T,183.0228,M,1.660,N,3.077,K,D*24
$GPGGA,130453.80,4612.0633424,N,00607.3003552,E,2,09,1.0,368.425,M,49.480,M,24.29,0195*48
$GPVTG,182.0285,T,182.0285,M,1.618,N,2.999,K,D*23
$GPGGA,130454.20,4612.0631665,N,00607.3003528,E,2,09,1.0,368.422,M,49.480,M,24.69,0195*4E
$GPVTG,178.4242,T,178.4242,M,1.633,N,3.026,K,D*26
$RDENS,3092,4709267,PC
$GPGGA,130454.40,4612.0630867,N,00607.3003549,E,2,09,1.0,368.392,M,49.480,M,24.89,0195*40
$GPVTG,174.3620,T,174.3620,M,1.524,N,2.825,K,D*29
$GPGGA,130454.60,4612.0630079,N,00607.3003628,E,2,09,1.0,368.365,M,49.480,M,25.09,0195*40
$GPVTG,173.9024,T,173.9024,M,1.513,N,2.805,K,D*2F
$GPGGA,130455.00,4612.0628472,N,00607.3003926,E,2,09,1.0,368.357,M,49.480,M,25.49,0195*45
$RDENS,3093,4709353,PC
$GPVTG,169.4030,T,169.4030,M,1.416,N,2.624,K,D*26
$GPGGA,130455.20,4612.0627725,N,00607.3004123,E,2,09,1.0,368.356,M,49.480,M,25.69,0195*40
$GPVTG,166.4895,T,166.4895,M,1.460,N,2.705,K,D*25
$GPGGA,130455.60,4612.0626317,N,00607.3004637,E,2,09,1.0,368.333,M,49.480,M,26.09,0195*44
$GPVTG,158.7902,T,158.7902,M,1.253,N,2.323,K,D*23
$GPGGA,130455.80,4612.0625661,N,00607.3004958,E,2,09,1.0,368.303,M,49.480,M,26.29,0195*4A
$RDENS,3094,4709438,PC
$GPVTG,160.8364,T,160.8364,M,1.231,N,2.282,K,D*2D
$GPGGA,130456.20,4612.0624314,N,00607.3005650,E,2,09,1.0,368.299,M,49.480,M,26.69,0195*45
$GPVTG,157.1765,T,157.1765,M,1.322,N,2.451,K,D*26
$GPGGA,130456.40,4612.0623713,N,00607.3006072,E,2,09,1.0,368.284,M,49.480,M,26.89,0195*40
$GPVTG,150.6698,T,150.6698,M,1.182,N,2.191,K,D*27
$GPGGA,130456.80,4612.0622707,N,00607.3006930,E,2,09,1.0,368.281,M,49.480,M,27.29,0195*49
$RDENS,3095,4709524,PC
$GPVTG,149.8298,T,149.8298,M,0.980,N,1.817,K,D*28
$GPGGA,130457.00,4612.0622261,N,00607.3007351,E,2,09,1.0,368.286,M,49.480,M,27.49,0195*48
$GPVTG,146.4099,T,146.4099,M,0.972,N,1.802,K,D*21
$GPGGA,130457.40,4612.0621424,N,00607.3008261,E,2,09,1.0,368.265,M,49.480,M,27.89,0195*44
$GPVTG,140.9211,T,140.9211,M,0.922,N,1.709,K,D*20
$GPGGA,130457.60,4612.0621023,N,00607.3008811,E,2,09,1.0,368.292,M,49.480,M,28.09,0195*47
$RDENS,3096,4709610,PC
$GPVTG,142.5038,T,142.5038,M,0.796,N,1.475,K,D*29
$GPGGA,130458.00,4612.0620361,N,00607.3009548,E,2,09,1.0,368.280,M,49.480,M,28.49,0195*4D
$GPVTG,143.6948,T,143.6948,M,0.730,N,1.352,K,D*27
$GPGGA,130458.20,4612.0620018,N,00607.3009856,E,2,09,1.0,368.292,M,49.480,M,28.69,0195*41
$GPVTG,150.8997,T,150.8997,M,0.609,N,1.128,K,D*23
$GPGGA,130458.60,4612.0619499,N,00607.3010222,E,2,09,1.0,368.285,M,49.480,M,29.09,0195*42
$RDENS,3097,4709696,PC
$GPVTG,154.5137,T,154.5137,M,0.571,N,1.058,K,D*29
$GPGGA,130458.80,4612.0619238,N,00607.3010337,E,2,09,1.0,368.310,M,49.480,M,29.29,0195*4B
$GPVTG,176.9799,T,176.9799,M,0.505,N,0.937,K,D*2B
$GPGGA,130459.20,4612.0618630,N,00607.3010300,E,2,09,1.0,368.322,M,49.480,M,29.69,0195*4C
$GPVTG,181.8041,T,181.8041,M,0.585,N,1.084,K,D*23
$RDENS,3098,4709783,PC
$GPVTG,204.8142,T,204.8142,M,0.551,N,1.021,K,D*25
$GPGGA,130459.60,4612.0618078,N,00607.3009914,E,2,09,1.0,368.308,M,49.480,M,30.09,0195*43
$GPVTG,205.0471,T,205.0471,M,0.605,N,1.121,K,D*26
$GPGGA,130459.80,4612.0617747,N,00607.3009708,E,2,09,1.0,368.311,M,49.480,M,30.29,0195*40
$GPVTG,222.3717,T,222.3717,M,0.585,N,1.085,K,D*22
$GPGGA,130500.20,4612.0617264,N,00607.3009045,E,2,09,1.0,368.340,M,49.480,M,30.69,0195*4D
$RDENS,3099,4709869,PC
$GPVTG,224.6168,T,224.6168,M,0.584,N,1.083,K,D*25
$GPGGA,130500.40,4612.0617100,N,00607.3008693,E,2,09,1.0,368.369,M,49.480,M,30.89,0195*43
$GPVTG,229.2351,T,229.2351,M,0.621,N,1.151,K,D*27
$GPGGA,130500.80,4612.0616514,N,00607.3008088,E,2,09,1.0,368.353,M,49.480,M,31.29,0195*41
$GPVTG,240.2503,T,240.2503,M,0.662,N,1.227,K,D*22
$GPGGA,130501.20,4612.0616036,N,00607.3007283,E,2,09,1.0,368.360,M,49.480,M,31.69,0195*4D
$RDENS,3100,4709955,PC
$GPVTG,238.5598,T,238.5598,M,0.688,N,1.275,K,D*21
$GPGGA,130501.40,4612.0615761,N,00607.3006808,E,2,09,1.0,368.343,M,49.480,M,31.89,0195*4A
$GPVTG,244.4380,T,244.4380,M,0.796,N,1.476,K,D*2A
$GPGGA,130501.60,4612.0615657,N,00607.3006160,E,2,09,1.0,368.338,M,49.480,M,32.09,0195*4C
$GPVTG,243.7751,T,243.7751,M,0.809,N,1.500,K,D*23
$RDENS,3101,4710041,PC
$GPGGA,130502.00,4612.0615252,N,00607.3004912,E,2,09,1.0,368.314,M,49.480,M,32.49,0195*4D
$GPVTG,242.2720,T,242.2720,M,0.904,N,1.675,K,D*2E
$GPGGA,130502.20,4612.0615016,N,00607.3004204,E,2,09,1.0,368.285,M,49.480,M,32.69,0195*4A
$GPVTG,251.1505,T,251.1505,M,1.017,N,1.885,K,D*25
$GPGGA,130502.60,4612.0614707,N,00607.3002571,E,2,09,1.0,368.325,M,49.480,M,33.09,0195*47
$GPVTG,250.8009,T,250.8009,M,1.057,N,1.958,K,D*20
$RDENS,3102,4710127,PC
$GPGGA,130502.80,4612.0614441,N,00607.3001794,E,2,09,1.0,368.325,M,49.480,M,33.29,0195*40
$GPVTG,249.8574,T,249.8574,M,1.156,N,2.143,K,D*21
$GPGGA,130503.20,4612.0614087,N,00607.2999932,E,2,09,1.0,368.338,M,49.480,M,33.69,0195*46
$GPVTG,249.5736,T,249.5736,M,1.210,N,2.243,K,D*23
$GPGGA,130503.40,4612.0613822,N,00607.2998953,E,2,09,1.0,368.340,M,49.480,M,33.89,0195*47
$GPVTG,244.3775,T,244.3775,M,1.377,N,2.552,K,D*24
$RDENS,3103,4710213,PC
$GPGGA,130503.80,4612.0613271,N,00607.2996905,E,2,09,1.0,368.334,M,49.480,M,34.29,0195*44
$GPVTG,248.8607,T,248.8607,M,1.407,N,2.608,K,D*28
$GPGGA,130504.00,4612.0613067,N,00607.2995737,E,2,09,1.0,368.326,M,49.480,M,34.49,0195*47
$GPVTG,248.4079,T,248.4079,M,1.406,N,2.607,K,D*26
$GPVTG,242.2728,T,242.2728,M,1.563,N,2.896,K,D*22
$GPVTG,246.7851,T,246.7851,M,1.596,N,2.959,K,D*2A
$RDENS,3104,4710299,PC
$GPVTG,247.1946,T,247.1946,M,1.584,N,2.935,K,D*23
$GPVTG,246.9803,T,246.9803,M,1.725,N,3.196,K,D*2A
$GPVTG,245.4072,T,245.4072,M,1.773,N,3.286,K,D*2B
$GPVTG,239.4328,T,239.4328,M,1.799,N,3.334,K,D*27
$GPVTG,243.9490,T,243.9490,M,1.701,N,3.152,K,D*24
$RDENS,3105,4710385,PC
$GPVTG,242.9456,T,242.9456,M,1.882,N,3.488,K,D*22
$GPVTG,240.3558,T,240.3558,M,1.847,N,3.422,K,D*2B
$GPVTG,240.2179,T,240.2179,M,1.846,N,3.420,K,D*28
$GPVTG,239.3538,T,239.3538,M,1.916,N,3.551,K,D*2B
$RDENS,3106,4710471,PC
$GPVTG,236.5980,T,236.5980,M,1.945,N,3.605,K,D*2F
$GPVTG,240.7920,T,240.7920,M,1.892,N,3.506,K,D*24
$GPVTG,233.0033,T,233.0033,M,2.086,N,3.865,K,D*22
$GPVTG,236.0762,T,236.0762,M,1.934,N,3.584,K,D*23
$RDENS,3107,4710557,PC
$GPVTG,237.5979,T,237.5979,M,2.055,N,3.808,K,D*27
$GPVTG,233.3255,T,233.3255,M,2.047,N,3.794,K,D*2E
$GPVTG,234.2852,T,234.2852,M,2.055,N,3.809,K,D*26
$GPVTG,229.2014,T,229.2014,M,2.021,N,3.746,K,D*21
$RDENS,3108,4710642,PC
$GPVTG,231.2882,T,231.2882,M,2.155,N,3.993,K,D*25
$GPVTG,228.7921,T,228.7921,M,2.038,N,3.776,K,D*2A
$GPVTG,229.0566,T,229.0566,M,2.027,N,3.756,K,D*26
$GPVTG,227.5136,T,227.5136,M,2.094,N,3.881,K,D*2B
$GPGGA,130508.80,4612.0599979,N,00607.2965468,E,2,10,0.8,368.392,M,49.480,M,39.29,0195*47
$RDENS,3109,4710729,PC
$GPVTG,227.4846,T,227.4846,M,2.195,N,4.069,K,D*22
$GPVTG,224.9200,T,224.9200,M,1.997,N,3.701,K,D*25
$GPVTG,222.6164,T,222.6164,M,2.072,N,3.840,K,D*2E
$GPVTG,219.3454,T,219.3454,M,2.095,N,3.882,K,D*29
$GPVTG,220.1653,T,220.1653,M,2.024,N,3.751,K,D*22
$RDENS,3110,4710815,PC
$GPVTG,216.4595,T,216.4595,M,2.060,N,3.818,K,D*20
$GPVTG,215.1091,T,215.1091,M,2.031,N,3.764,K,D*20
$GPVTG,214.5753,T,214.5753,M,2.025,N,3.753,K,D*21
$GPVTG,214.2027,T,214.2027,M,2.054,N,3.806,K,D*28
$RDENS,3111,4710900,PC
$GPVTG,214.7729,T,214.7729,M,1.816,N,3.365,K,D*2B
$GPVTG,208.8800,T,208.8800,M,2.068,N,3.833,K,D*21
$GPVTG,209.3764,T,209.3764,M,1.997,N,3.701,K,D*25
$GPVTG,203.4438,T,203.4438,M,2.004,N,3.713,K,D*26
$GPVTG,204.2124,T,204.2124,M,1.819,N,3.371,K,D*21
$RDENS,3112,4710986,PC
$GPVTG,206.2802,T,206.2802,M,2.003,N,3.712,K,D*20
$GPVTG,194.0662,T,194.0662,M,1.905,N,3.531,K,D*2F
$GPVTG,196.6958,T,196.6958,M,1.969,N,3.649,K,D*29
$GPVTG,200.3837,T,200.3837,M,1.975,N,3.660,K,D*2F
$RDENS,3113,4711072,PC
$GPVTG,195.7431,T,195.7431,M,1.829,N,3.390,K,D*2D
$GPVTG,195.0040,T,195.0040,M,1.975,N,3.660,K,D*2F
$GPVTG,189.1404,T,189.1404,M,1.879,N,3.482,K,D*2C
$GPVTG,197.3172,T,197.3172,M,1.789,N,3.316,K,D*26
$RDENS,3114,4711158,PC
$GPVTG,184.5188,T,184.5188,M,1.999,N,3.705,K,D*2F
$GPVTG,187.3900,T,187.3900,M,1.784,N,3.306,K,D*2A
$GPVTG,185.7001,T,185.7001,M,1.924,N,3.566,K,D*2E
$GPVTG,185.6023,T,185.6023,M,1.891,N,3.504,K,D*25
$GPVTG,185.9311,T,185.9311,M,1.829,N,3.391,K,D*2C
$RDENS,3115,4711255,PC
$GPVTG,184.1134,T,184.1134,M,1.759,N,3.260,K,D*2B
$GPVTG,183.2408,T,183.2408,M,1.784,N,3.307,K,D*2B
$GPVTG,181.5365,T,181.5365,M,1.778,N,3.295,K,D*22
$GPVTG,179.6457,T,179.6457,M,1.977,N,3.664,K,D*29
$GPVTG,180.3943,T,180.3943,M,1.766,N,3.274,K,D*22
$RDENS,3116,4711353,PC
$GPVTG,177.1971,T,177.1971,M,1.974,N,3.657,K,D*2A
$GPVTG,178.0736,T,178.0736,M,1.811,N,3.355,K,D*2F
$GPVTG,175.5874,T,175.5874,M,1.839,N,3.408,K,D*2A
$GPVTG,179.5085,T,179.5085,M,1.817,N,3.368,K,D*27
$GPVTG,175.0160,T,175.0160,M,1.793,N,3.323,K,D*2B
$RDENS,3117,4711450,PC
$GPVTG,174.8704,T,174.8704,M,1.917,N,3.553,K,D*28
$GPVTG,175.5842,T,175.5842,M,1.933,N,3.583,K,D*23
$GPVTG,172.4969,T,172.4969,M,1.936,N,3.588,K,D*2D
$GPVTG,173.2960,T,173.2960,M,1.895,N,3.511,K,D*25
$GPVTG,172.4551,T,172.4551,M,1.910,N,3.539,K,D*23
$RDENS,3118,4711547,PC
$GPVTG,171.8771,T,171.8771,M,1.931,N,3.579,K,D*24
$GPVTG,174.7070,T,174.7070,M,1.824,N,3.381,K,D*20
$GPVTG,168.8123,T,168.8123,M,2.012,N,3.729,K,D*28
$GPVTG,169.2402,T,169.2402,M,1.791,N,3.319,K,D*20
$GPVTG,168.2928,T,168.2928,M,1.870,N,3.466,K,D*2F
$RDENS,3119,4711644,PC
$GPVTG,171.3797,T,171.3797,M,1.886,N,3.495,K,D*2A
$GPVTG,170.9829,T,170.9829,M,1.867,N,3.460,K,D*2F
$GPVTG,169.4606,T,169.4606,M,1.947,N,3.608,K,D*20
$GPVTG,167.9277,T,167.9277,M,1.922,N,3.561,K,D*2F
$RDENS,3120,4711741,PC
$GPVTG,165.5760,T,165.5760,M,1.847,N,3.423,K,D*2A
$GPVTG,168.4779,T,168.4779,M,1.975,N,3.660,K,D*2F
$GPVTG,169.4386,T,169.4386,M,2.014,N,3.732,K,D*24
$GPVTG,165.0090,T,165.0090,M,1.883,N,3.489,K,D*22
$GPVTG,166.1221,T,166.1221,M,1.959,N,3.630,K,D*24
$RDENS,3121,4711838,PC
$GPVTG,168.7571,T,168.7571,M,1.811,N,3.356,K,D*2C
$GPVTG,166.3447,T,166.3447,M,1.912,N,3.543,K,D*2C
$GPVTG,161.9058,T,161.9058,M,2.039,N,3.778,K,D*25
$GPVTG,167.0681,T,167.0681,M,1.921,N,3.559,K,D*27
$GPVTG,164.8809,T,164.8809,M,1.909,N,3.538,K,D*2A
$RDENS,3122,4711935,PC
$GPVTG,165.5729,T,165.5729,M,1.980,N,3.670,K,D*24
$GPVTG,160.7067,T,160.7067,M,1.900,N,3.520,K,D*2A
$GPVTG,165.3063,T,165.3063,M,2.009,N,3.722,K,D*29
$GPVTG,162.7960,T,162.7960,M,1.909,N,3.539,K,D*2B
$GPVTG,160.8138,T,160.8138,M,1.842,N,3.414,K,D*2B
$RDENS,3123,4712032,PC
$GPVTG,163.4895,T,163.4895,M,1.963,N,3.638,K,D*25
$GPVTG,158.0530,T,158.0530,M,1.870,N,3.466,K,D*2F
$GPVTG,162.5497,T,162.5497,M,1.960,N,3.632,K,D*2C
$GPVTG,160.8141,T,160.8141,M,1.854,N,3.436,K,D*2C
$GPVTG,158.4577,T,158.4577,M,1.905,N,3.530,K,D*2E
$RDENS,3124,4712129,PC
$GPVTG,162.3750,T,162.3750,M,1.942,N,3.599,K,D*2E
$GPVTG,157.7227,T,157.7227,M,1.933,N,3.583,K,D*23
$GPVTG,159.5881,T,159.5881,M,2.070,N,3.836,K,D*2D
$GPVTG,161.4116,T,161.4116,M,1.820,N,3.373,K,D*29
$GPVTG,156.0828,T,156.0828,M,1.975,N,3.661,K,D*2E
$RDENS,3125,4712226,PC
$GPVTG,158.4434,T,158.4434,M,1.946,N,3.607,K,D*2E
$GPVTG,159.8363,T,159.8363,M,1.954,N,3.621,K,D*29
$GPVTG,156.4361,T,156.4361,M,1.931,N,3.578,K,D*25
$GPVTG,156.8132,T,156.8132,M,1.892,N,3.505,K,D*27
$RDENS,3126,4712317,PC
$GPVTG,155.0153,T,155.0153,M,1.805,N,3.345,K,D*2B
$GPVTG,157.0298,T,157.0298,M,1.851,N,3.431,K,D*2E
$GPVTG,155.3723,T,155.3723,M,1.897,N,3.516,K,D*20
$GPVTG,157.6350,T,157.6350,M,2.013,N,3.731,K,D*20
$GPVTG,156.5911,T,156.5911,M,1.979,N,3.667,K,D*24
$RDENS,3127,4712407,PC
$GPVTG,156.7217,T,156.7217,M,1.968,N,3.648,K,D*29
$GPVTG,154.0487,T,154.0487,M,1.866,N,3.458,K,D*25
$GPVTG,158.8078,T,158.8078,M,1.870,N,3.466,K,D*2F
$GPVTG,156.3413,T,156.3413,M,2.025,N,3.753,K,D*21
$RDENS,3128,4712497,PC
$GPVTG,155.1512,T,155.1512,M,1.925,N,3.568,K,D*21
$GPVTG,155.4909,T,155.4909,M,2.049,N,3.798,K,D*2C
$GPVTG,156.4125,T,156.4125,M,1.904,N,3.528,K,D*26
$GPVTG,158.4518,T,158.4518,M,2.013,N,3.731,K,D*20
$GPVTG,154.0011,T,154.0011,M,1.929,N,3.575,K,D*21
$RDENS,3129,4712587,PC
$GPVTG,154.5631,T,154.5631,M,1.844,N,3.417,K,D*2E
$GPVTG,152.7305,T,152.7305,M,1.968,N,3.648,K,D*29
$GPVTG,158.2591,T,158.2591,M,2.028,N,3.759,K,D*26
$GPVTG,151.5301,T,151.5301,M,2.255,N,4.178,K,D*2C
$RDENS,3130,4712677,PC
$GPVTG,151.0720,T,151.0720,M,1.814,N,3.363,K,D*2F
$GPVTG,154.6769,T,154.6769,M,1.964,N,3.640,K,D*2D
$GPVTG,153.1344,T,153.1344,M,1.999,N,3.704,K,A*2B
$GPVTG,154.5172,T,154.5172,M,2.000,N,3.707,K,A*22
$GPVTG,154.7783,T,154.7783,M,1.919,N,3.556,K,A*26
$RDENS,3131,4712774,PC
$GPVTG,152.2707,T,152.2707,M,2.179,N,4.038,K,A*21
$GPVTG,157.7791,T,157.7791,M,2.148,N,3.980,K,A*2E
$GPVTG,154.5231,T,154.5231,M,2.055,N,3.808,K,A*22
$GPVTG,155.0914,T,155.0914,M,2.154,N,3.992,K,A*20
$GPVTG,157.0542,T,157.0542,M,2.016,N,3.736,K,A*27
$RDENS,3132,4712871,PC
$GPVTG,157.1792,T,157.1792,M,2.224,N,4.121,K,A*23
$GPVTG,156.6948,T,156.6948,M,2.024,N,3.750,K,A*26
$GPVTG,159.8347,T,159.8347,M,2.162,N,4.006,K,A*26
$GPVTG,162.6620,T,162.6620,M,2.140,N,3.966,K,A*2E
$GPVTG,161.7869,T,161.7869,M,2.004,N,3.714,K,A*24
$RDENS,3133,4712968,PC
$GPVTG,157.3796,T,157.3796,M,2.104,N,3.900,K,A*2E
$GPVTG,165.6280,T,165.6280,M,2.132,N,3.952,K,A*2C
$GPVTG,165.6038,T,165.6038,M,2.206,N,4.088,K,A*21
$GPVTG,162.1869,T,162.1869,M,2.364,N,4.381,K,A*2E
$GPVTG,165.4749,T,165.4749,M,2.193,N,4.065,K,A*2D
$RDENS,3134,4713065,PC
$GPVTG,169.8022,T,169.8022,M,2.035,N,3.772,K,A*26
$GPVTG,165.5414,T,165.5414,M,2.049,N,3.798,K,A*29
$GPVTG,172.2318,T,172.2318,M,2.142,N,3.970,K,A*2B
$GPVTG,168.7735,T,168.7735,M,2.009,N,3.724,K,A*2A
$GPVTG,174.0287,T,174.0287,M,2.162,N,4.007,K,A*27
$RDENS,3135,4713162,PC
$GPVTG,173.6812,T,173.6812,M,2.068,N,3.833,K,A*24
$GPVTG,170.8776,T,170.8776,M,1.924,N,3.566,K,A*2B
$GPVTG,180.0439,T,180.0439,M,1.948,N,3.611,K,A*22
$GPVTG,175.0816,T,175.0816,M,2.098,N,3.887,K,A*24
$RDENS,3136,4713259,PC
$GPVTG,176.9750,T,176.9750,M,1.885,N,3.493,K,A*2A
$GPVTG,183.3973,T,183.3973,M,1.703,N,3.156,K,A*27
$GPVTG,179.3202,T,179.3202,M,1.850,N,3.429,K,A*23
$GPVTG,184.1642,T,184.1642,M,1.656,N,3.068,K,A*2A
$GPVTG,180.3382,T,180.3382,M,1.785,N,3.309,K,A*21
$RDENS,3137,4713356,PC
$GPVTG,190.2603,T,190.2603,M,1.675,N,3.105,K,A*21
$GPVTG,181.0778,T,181.0778,M,1.747,N,3.238,K,A*2C
$GPVTG,183.2593,T,183.2593,M,1.726,N,3.198,K,A*22
$GPVTG,183.8448,T,183.8448,M,1.769,N,3.278,K,A*24
$GPVTG,186.6005,T,186.6005,M,1.675,N,3.104,K,A*20
$RDENS,3138,4713453,PC
$GPVTG,183.9678,T,183.9678,M,1.559,N,2.889,K,A*20
$GPVTG,196.9792,T,196.9792,M,1.529,N,2.833,K,A*26
$GPVTG,187.3366,T,187.3366,M,1.690,N,3.132,K,A*2E
$GPVTG,189.6889,T,189.6889,M,1.570,N,2.909,K,A*22
$GPVTG,189.3226,T,189.3226,M,1.421,N,2.633,K,A*21
$RDENS,3139,4713550,PC
$GPVTG,192.6400,T,192.6400,M,1.512,N,2.802,K,A*2C
$GPVTG,189.7340,T,189.7340,M,1.549,N,2.870,K,A*27
$GPVTG,207.3360,T,207.3360,M,1.399,N,2.592,K,A*2D
$GPVTG,202.5694,T,202.5694,M,1.440,N,2.668,K,A*28
$GPVTG,190.4535,T,190.4535,M,1.581,N,2.930,K,A*26
$RDENS,3140,4713647,PC
$GPVTG,191.5264,T,191.5264,M,1.491,N,2.763,K,A*2E
$GPVTG,193.9441,T,193.9441,M,1.540,N,2.855,K,A*29
$GPVTG,189.4172,T,189.4172,M,1.406,N,2.605,K,A*21
$GPVTG,188.7905,T,188.7905,M,1.516,N,2.809,K,A*23
$RDENS,3141,4713737,PC
$GPVTG,197.9165,T,197.9165,M,1.478,N,2.739,K,A*26
$GPVTG,199.2821,T,199.2821,M,1.446,N,2.679,K,A*2E
$GPVTG,192.6845,T,192.6845,M,1.440,N,2.668,K,A*28
$GPVTG,196.6678,T,196.6678,M,1.403,N,2.599,K,A*22
$GPVTG,188.3881,T,188.3881,M,1.523,N,2.822,K,A*2C
$RDENS,3142,4713827,PC
$GPVTG,189.7315,T,189.7315,M,1.328,N,2.461,K,A*2A
$GPVTG,190.4503,T,190.4503,M,1.304,N,2.416,K,A*24
$GPVTG,184.8626,T,184.8626,M,1.545,N,2.863,K,A*29
$GPVTG,194.1594,T,194.1594,M,1.358,N,2.517,K,A*2D
$RDENS,3143,4713916,PC
$GPVTG,192.0563,T,192.0563,M,1.161,N,2.151,K,A*23
$GPVTG,195.6397,T,195.6397,M,1.135,N,2.104,K,A*22
$GPVTG,186.9361,T,186.9361,M,1.271,N,2.356,K,A*24
$GPVTG,198.3724,T,198.3724,M,1.031,N,1.910,K,A*29
$GPVTG,192.3539,T,192.3539,M,1.196,N,2.217,K,A*2A
$RDENS,3144,4714006,PC
$GPVTG,197.5397,T,197.5397,M,0.959,N,1.778,K,A*2F
$GPVTG,194.4177,T,194.4177,M,0.955,N,1.769,K,A*23
$GPVTG,192.2415,T,192.2415,M,1.010,N,1.871,K,A*2C
$GPVTG,195.2746,T,195.2746,M,1.303,N,2.415,K,A*20
$RDENS,3145,4714095,PC
$GPVTG,188.1107,T,188.1107,M,0.880,N,1.632,K,A*25
$GPVTG,210.9562,T,210.9562,M,0.968,N,1.794,K,A*2F
$GPVTG,188.7402,T,188.7402,M,0.848,N,1.571,K,A*25
$GPVTG,208.6107,T,208.6107,M,0.622,N,1.153,K,A*23
$GPVTG,210.7147,T,210.7147,M,0.846,N,1.569,K,A*22
$RDENS,3146,4714184,PC
$GPVTG,199.7495,T,199.7495,M,0.760,N,1.408,K,A*2F
$GPVTG,200.8039,T,200.8039,M,0.907,N,1.680,K,A*22
$GPVTG,184.6306,T,184.6306,M,0.912,N,1.690,K,A*27
$GPVTG,221.7934,T,221.7934,M,0.720,N,1.334,K,A*23
$RDENS,3147,4714273,PC
$GPVTG,194.8876,T,194.8876,M,0.778,N,1.442,K,A*28
$GPVTG,210.7616,T,210.7616,M,0.695,N,1.287,K,A*25
$GPVTG,201.7176,T,201.7176,M,0.807,N,1.495,K,A*25
$GPVTG,216.2581,T,216.2581,M,0.606,N,1.123,K,A*22
$GPVTG,218.2439,T,218.2439,M,0.666,N,1.235,K,A*20
$RDENS,3148,4714362,PC
$GPVTG,204.1719,T,204.1719,M,0.459,N,0.851,K,A*27
$GPVTG,233.9190,T,233.9190,M,0.507,N,0.939,K,A*22
$GPVTG,198.4892,T,198.4892,M,0.695,N,1.287,K,A*25
$GPVTG,211.0783,T,211.0783,M,0.643,N,1.191,K,A*2A
$RDENS,3149,4714451,PC
$GPVTG,217.2948,T,217.2948,M,0.610,N,1.130,K,A*27
$GPVTG,211.6244,T,211.6244,M,0.602,N,1.116,K,A*20
$GPVTG,214.6910,T,214.6910,M,0.461,N,0.854,K,A*29
$GPVTG,215.4642,T,215.4642,M,0.486,N,0.901,K,A*21
$RDENS,3150,4714540,PC
$GPVTG,199.5766,T,199.5766,M,0.461,N,0.854,K,A*29
$GPVTG,175.4274,T,175.4274,M,0.466,N,0.864,K,A*2D
$GPVTG,195.7614,T,195.7614,M,0.328,N,0.607,K,A*2B
$GPVTG,185.1335,T,185.1335,M,0.295,N,0.547,K,A*2B
$GPVTG,163.0849,T,163.0849,M,0.318,N,0.589,K,A*2D
$RDENS,3151,4714628,PC
$GPVTG,146.0008,T,146.0008,M,0.354,N,0.656,K,A*24
$GPVTG,135.3549,T,135.3549,M,0.394,N,0.730,K,A*29
$GPVTG,125.5468,T,125.5468,M,0.424,N,0.785,K,A*2B
$GPVTG,126.4316,T,126.4316,M,0.399,N,0.740,K,A*23
$RDENS,3152,4714718,PC
$GPVTG,120.1369,T,120.1369,M,0.484,N,0.898,K,A*22
$GPVTG,101.7963,T,101.7963,M,0.437,N,0.811,K,A*2B
$GPVTG,103.9798,T,103.9798,M,0.496,N,0.919,K,A*29
$GPVTG,115.0373,T,115.0373,M,0.556,N,1.030,K,A*27
$GPVTG,113.7038,T,113.7038,M,0.481,N,0.891,K,A*2E
$RDENS,3153,4714807,PC
$GPVTG,119.2406,T,119.2406,M,0.440,N,0.816,K,A*2C
$GPVTG,118.9852,T,118.9852,M,0.372,N,0.690,K,A*2A
$GPVTG,123.2687,T,123.2687,M,0.303,N,0.561,K,A*21
$GPVTG,126.7825,T,126.7825,M,0.425,N,0.787,K,A*28
