$GPVTG,22.3310,T,22.3310,M,0.946,N,1.754,K,D*2A
$GPVTG,33.9425,T,33.9425,M,0.896,N,1.661,K,D*21
$GPVTG,34.4568,T,34.4568,M,0.834,N,1.546,K,D*2F
$GPVTG,22.4471,T,22.4471,M,0.984,N,1.824,K,D*2C
$GPVTG,42.1245,T,42.1245,M,1.072,N,1.987,K,D*25
$GPVTG,21.9142,T,21.9142,M,0.864,N,1.600,K,D*2B
$GPVTG,49.5554,T,49.5554,M,1.086,N,2.013,K,D*29
$GPVTG,50.0954,T,50.0954,M,0.996,N,1.846,K,D*2B
$GPGGA,125712.80,4612.0432649,N,00607.2988316,E,2,09,1.0,368.841,M,49.480,M,20.27,0195*49
$GPVTG,52.3519,T,52.3519,M,0.799,N,1.480,K,D*2C
$GPVTG,58.0130,T,58.0130,M,0.876,N,1.623,K,D*29
$GPVTG,33.6612,T,33.6612,M,1.174,N,2.176,K,D*27
$GPVTG,49.2741,T,49.2741,M,0.843,N,1.562,K,D*29
$GPGGA,125713.60,4612.0432757,N,00607.2993274,E,2,09,1.0,369.779,M,49.480,M,0.01,0195*74
$GPVTG,59.1898,T,59.1898,M,0.845,N,1.566,K,D*2B
$GPGGA,125713.80,4612.0434917,N,00607.2990822,E,2,09,1.0,369.053,M,49.480,M,0.11,0195*72
$RDENS,2570,4663240,PC
$GPVTG,75.5790,T,75.5790,M,1.139,N,2.111,K,D*2F
$GPGGA,125714.20,4612.0435087,N,00607.2992610,E,2,09,1.0,369.057,M,49.480,M,0.51,0195*73
$GPVTG,63.6155,T,63.6155,M,0.912,N,1.690,K,D*22
$GPGGA,125714.40,4612.0435146,N,00607.2993382,E,2,09,1.0,369.065,M,49.480,M,0.71,0195*75
$GPVTG,76.9097,T,76.9097,M,0.939,N,1.741,K,D*26
$GPGGA,125714.80,4612.0435214,N,00607.2994910,E,2,09,1.0,369.134,M,49.480,M,1.11,0195*79
$GPVTG,89.0369,T,89.0369,M,0.640,N,1.187,K,D*2B
$RDENS,2571,4663329,PC
$GPGGA,125715.00,4612.0435166,N,00607.2995820,E,2,09,1.0,369.102,M,49.480,M,1.31,0195*72
$GPVTG,78.7470,T,78.7470,M,0.731,N,1.355,K,D*21
$GPGGA,125715.40,4612.0435193,N,00607.2997127,E,2,09,1.0,369.124,M,49.480,M,1.71,0195*70
$GPVTG,91.2841,T,91.2841,M,0.675,N,1.251,K,D*25
$GPGGA,125715.60,4612.0435356,N,00607.2997437,E,2,09,1.0,369.119,M,49.480,M,1.91,0195*7D
$GPVTG,91.2417,T,91.2417,M,0.595,N,1.103,K,D*2C
$RDENS,2572,4663418,PC
$GPGGA,125715.80,4612.0435369,N,00607.2998054,E,2,09,1.0,369.148,M,49.480,M,0.19,0195*74
$GPVTG,100.8250,T,100.8250,M,0.624,N,1.156,K,D*25
$GPGGA,125716.20,4612.0435314,N,00607.2999018,E,2,09,1.0,369.139,M,49.480,M,0.06,0195*76
$GPVTG,109.4529,T,109.4529,M,0.441,N,0.818,K,D*26
$GPGGA,125716.60,4612.0434700,N,00607.2999920,E,2,09,1.0,369.152,M,49.480,M,0.04,0195*7F
$GPVTG,104.5254,T,104.5254,M,0.485,N,0.899,K,D*27
$RDENS,2573,4663507,PC
$GPGGA,125716.80,4612.0434706,N,00607.3000108,E,2,09,1.0,369.112,M,49.480,M,0.16,0195*7A
$GPVTG,117.0847,T,117.0847,M,0.401,N,0.743,K,D*23
$GPGGA,125717.20,4612.0434644,N,00607.3000472,E,2,09,1.0,369.095,M,49.480,M,0.56,0195*74
$GPVTG,123.3690,T,123.3690,M,0.363,N,0.672,K,D*23
$GPGGA,125717.40,4612.0434556,N,00607.3000621,E,2,09,1.0,369.030,M,49.480,M,0.76,0195*7B
$GPVTG,134.5746,T,134.5746,M,0.287,N,0.532,K,D*2F
$RDENS,2574,4663596,PC
$GPGGA,125717.80,4612.0434294,N,00607.3001130,E,2,08,1.1,368.962,M,49.480,M,1.16,0195*70
$GPVTG,136.1735,T,136.1735,M,0.270,N,0.500,K,D*26
$GPGGA,125718.00,4612.0434186,N,00607.3001268,E,2,08,1.1,368.962,M,49.480,M,1.36,0195*7B
$GPVTG,158.3583,T,158.3583,M,0.229,N,0.425,K,D*2C
$GPGGA,125718.40,4612.0433951,N,00607.3001569,E,2,08,1.1,369.003,M,49.480,M,1.76,0195*77
$GPVTG,170.0333,T,170.0333,M,0.225,N,0.417,K,D*21
$RDENS,2575,4663685,PC
$GPGGA,125718.60,4612.0433782,N,00607.3001688,E,2,08,1.1,369.018,M,49.480,M,1.96,0195*7D
$GPVTG,170.9111,T,170.9111,M,0.243,N,0.450,K,D*22
$GPGGA,125718.80,4612.0433638,N,00607.3001775,E,2,08,1.1,369.035,M,49.480,M,2.16,0195*74
$GPVTG,173.0937,T,173.0937,M,0.238,N,0.442,K,D*2D
$GPGGA,125719.20,4612.0433344,N,00607.3001889,E,2,08,1.1,369.062,M,49.480,M,2.56,0195*7B
$GPVTG,170.2312,T,170.2312,M,0.251,N,0.465,K,D*27
$RDENS,2576,4663774,PC
$GPGGA,125719.40,4612.0433240,N,00607.3001858,E,2,08,1.1,369.052,M,49.480,M,2.76,0195*75
$GPVTG,192.0874,T,192.0874,M,0.180,N,0.334,K,D*2B
$GPGGA,125719.80,4612.0433040,N,00607.3001798,E,2,08,1.1,369.059,M,49.480,M,3.16,0195*74
$GPVTG,203.5676,T,203.5676,M,0.201,N,0.373,K,D*22
$GPGGA,125720.00,4612.0432908,N,00607.3001759,E,2,08,1.1,369.055,M,49.480,M,3.36,0195*71
$GPVTG,182.8318,T,182.8318,M,0.378,N,0.700,K,D*2D
$RDENS,2577,4663863,PC
$GPGGA,125720.40,4612.0432568,N,00607.3001698,E,2,08,1.1,369.049,M,49.480,M,0.15,0195*7C
$GPVTG,183.0557,T,183.0557,M,0.387,N,0.717,K,D*2B
$GPGGA,125720.60,4612.0432488,N,00607.3001560,E,2,08,1.1,369.007,M,49.480,M,0.35,0195*7D
$GPVTG,217.8643,T,217.8643,M,0.353,N,0.654,K,D*24
$GPGGA,125721.00,4612.0432101,N,00607.3001250,E,2,08,1.1,369.018,M,49.480,M,0.75,0195*70
$GPVTG,205.6842,T,205.6842,M,0.509,N,0.943,K,D*24
$RDENS,2578,4663952,PC
$GPGGA,125721.20,4612.0431906,N,00607.3001196,E,2,08,1.1,369.008,M,49.480,M,0.95,0195*78
$GPVTG,172.4879,T,172.4879,M,0.465,N,0.861,K,D*2E
$GPGGA,125721.60,4612.0431479,N,00607.3001107,E,2,08,1.1,368.988,M,49.480,M,1.35,0195*7A
$GPVTG,180.4894,T,180.4894,M,0.434,N,0.805,K,D*28
$GPGGA,125721.80,4612.0431275,N,00607.3000999,E,2,08,1.1,368.987,M,49.480,M,1.55,0195*79
$GPVTG,182.3048,T,182.3048,M,0.378,N,0.700,K,D*2D
$RDENS,2579,4664041,PC
$GPGGA,125722.20,4612.0430803,N,00607.3000865,E,2,08,1.1,368.953,M,49.480,M,1.95,0195*7D
$GPVTG,179.0743,T,179.0743,M,0.563,N,1.043,K,D*20
$GPGGA,125722.40,4612.0430610,N,00607.3000825,E,2,08,1.1,368.945,M,49.480,M,2.15,0195*7F
$GPVTG,160.7382,T,160.7382,M,0.425,N,0.787,K,D*2D
$GPGGA,125722.80,4612.0430223,N,00607.3000696,E,2,08,1.1,368.915,M,49.480,M,2.55,0195*70
$GPVTG,181.3904,T,181.3904,M,0.454,N,0.841,K,D*2E
$RDENS,2580,4664130,PC
$GPGGA,125723.00,4612.0430759,N,00607.2997094,E,2,07,1.2,367.927,M,49.480,M,2.75,0195*73
$GPVTG,162.0462,T,162.0462,M,0.518,N,0.960,K,D*25
$GPGGA,125723.20,4612.0430577,N,00607.2997008,E,2,07,1.2,367.884,M,49.480,M,2.95,0195*7C
$GPVTG,172.4447,T,172.4447,M,0.424,N,0.786,K,D*2D
$GPGGA,125723.60,4612.0430191,N,00607.2997050,E,2,07,1.2,367.848,M,49.480,M,3.35,0195*72
$GPVTG,165.8044,T,165.8044,M,0.431,N,0.798,K,D*26
$RDENS,2581,4664219,PC
$GPGGA,125723.80,4612.0429992,N,00607.2997264,E,2,07,1.2,367.873,M,49.480,M,3.55,0195*74
$GPVTG,146.0939,T,146.0939,M,0.414,N,0.767,K,D*21
$GPGGA,125724.20,4612.0429446,N,00607.2998389,E,2,09,1.0,368.042,M,49.480,M,3.95,0195*75
$GPVTG,144.1930,T,144.1930,M,0.399,N,0.739,K,D*28
$GPGGA,125724.40,4612.0429408,N,00607.2998562,E,2,09,1.0,368.122,M,49.480,M,4.15,0195*72
$GPVTG,126.4941,T,126.4941,M,0.380,N,0.705,K,D*2F
$RDENS,2582,4664308,PC
$GPGGA,125724.80,4612.0429127,N,00607.2999148,E,2,09,1.0,368.181,M,49.480,M,4.55,0195*76
$GPVTG,128.1468,T,128.1468,M,0.494,N,0.916,K,D*21
$GPGGA,125725.00,4612.0428902,N,00607.2999450,E,2,08,1.1,368.160,M,49.480,M,4.75,0195*70
$GPVTG,107.7890,T,107.7890,M,0.175,N,0.324,K,D*20
$GPGGA,125725.40,4612.0428773,N,00607.3000066,E,2,08,1.1,368.201,M,49.480,M,5.15,0195*76
$GPVTG,105.2487,T,105.2487,M,0.255,N,0.473,K,D*24
$RDENS,2583,4664397,PC
$GPGGA,125725.60,4612.0428686,N,00607.3000564,E,2,08,1.1,368.279,M,49.480,M,5.35,0195*75
$GPVTG,86.3741,T,86.3741,M,0.275,N,0.510,K,D*22
$GPGGA,125726.00,4612.0428613,N,00607.3001320,E,2,08,1.1,368.367,M,49.480,M,5.75,0195*71
$GPVTG,93.7393,T,93.7393,M,0.233,N,0.431,K,D*22
$GPGGA,125726.20,4612.0428651,N,00607.3001609,E,2,08,1.1,368.379,M,49.480,M,5.95,0195*7A
$GPVTG,72.2446,T,72.2446,M,0.290,N,0.537,K,D*2C
$RDENS,2584,4664486,PC
$GPGGA,125726.60,4612.0428739,N,00607.3002081,E,2,08,1.1,368.391,M,49.480,M,0.23,0195*7A
$GPVTG,49.4419,T,49.4419,M,0.254,N,0.471,K,D*27
$GPGGA,125726.80,4612.0428805,N,00607.3002276,E,2,08,1.1,368.409,M,49.480,M,0.43,0195*7E
$GPVTG,27.6500,T,27.6500,M,0.181,N,0.336,K,D*28
$GPGGA,125727.20,4612.0428909,N,00607.3002675,E,2,08,1.1,368.525,M,49.480,M,0.00,0195*77
$GPVTG,14.7627,T,14.7627,M,0.209,N,0.388,K,D*2E
$RDENS,2585,4664575,PC
$GPGGA,125727.40,4612.0428997,N,00607.3002766,E,2,08,1.1,368.532,M,49.480,M,0.12,0195*70
$GPVTG,349.9702,T,349.9702,M,0.160,N,0.296,K,D*2C
$GPGGA,125727.60,4612.0429065,N,00607.3002726,E,2,08,1.1,368.544,M,49.480,M,0.04,0195*75
$GPVTG,339.4402,T,339.4402,M,0.198,N,0.367,K,D*24
$GPGGA,125728.00,4612.0429281,N,00607.3002467,E,2,08,1.1,368.549,M,49.480,M,0.44,0195*7B
$GPVTG,332.0695,T,332.0695,M,0.220,N,0.408,K,D*2A
$RDENS,2586,4664664,PC
$GPGGA,125728.20,4612.0429390,N,00607.3002191,E,2,08,1.1,368.522,M,49.480,M,0.64,0195*7B
$GPVTG,312.9410,T,312.9410,M,0.229,N,0.424,K,D*2D
$GPGGA,125728.60,4612.0429593,N,00607.3001567,E,2,08,1.1,368.444,M,49.480,M,0.12,0195*74
$GPVTG,319.1920,T,319.1920,M,0.293,N,0.543,K,D*2C
$GPGGA,125728.80,4612.0429657,N,00607.3001470,E,2,08,1.1,368.460,M,49.480,M,0.32,0195*72
$GPVTG,306.9878,T,306.9878,M,0.254,N,0.471,K,D*27
$RDENS,2587,4664753,PC
$GPGGA,125729.20,4612.0429930,N,00607.3000615,E,2,08,1.1,368.359,M,49.480,M,0.72,0195*7E
$GPVTG,306.9895,T,306.9895,M,0.319,N,0.592,K,D*23
$GPGGA,125729.40,4612.0430049,N,00607.3000139,E,2,08,1.1,368.276,M,49.480,M,0.92,0195*7C
$GPVTG,298.8238,T,298.8238,M,0.260,N,0.481,K,D*2F
$GPGGA,125729.80,4612.0430371,N,00607.2999200,E,2,08,1.1,368.181,M,49.480,M,1.32,0195*79
$GPVTG,300.2429,T,300.2429,M,0.475,N,0.881,K,D*21
$RDENS,2588,4664842,PC
$GPGGA,125730.00,4612.0430467,N,00607.2998724,E,2,08,1.1,368.150,M,49.480,M,0.13,0195*75
$GPVTG,292.0329,T,292.0329,M,0.430,N,0.797,K,D*28
$GPVTG,296.0673,T,296.0673,M,0.378,N,0.700,K,D*2D
$GPVTG,293.7427,T,293.7427,M,0.415,N,0.769,K,D*2E
$GPVTG,318.5022,T,318.5022,M,0.292,N,0.542,K,D*2C
$GPGGA,125730.80,4612.0430659,N,00607.2997964,E,2,08,1.0,368.301,M,49.480,M,0.93,0195*78
$GPVTG,298.9992,T,298.9992,M,0.495,N,0.917,K,D*21
$RDENS,2589,4664931,PC
$GPGGA,125731.00,4612.0431160,N,00607.2996194,E,2,07,1.2,367.868,M,49.480,M,0.14,0195*72
$GPVTG,292.6854,T,292.6854,M,0.467,N,0.865,K,D*28
$GPGGA,125731.40,4612.0431288,N,00607.2995427,E,2,07,1.2,367.826,M,49.480,M,0.26,0195*76
$GPVTG,284.4611,T,284.4611,M,0.493,N,0.913,K,D*23
$GPGGA,125731.60,4612.0431379,N,00607.2994958,E,2,08,1.1,367.804,M,49.480,M,0.12,0195*74
$GPVTG,260.3406,T,260.3406,M,0.497,N,0.921,K,D*26
$RDENS,2590,4665020,PC
$GPGGA,125732.00,4612.0431441,N,00607.2993942,E,2,07,1.2,367.761,M,49.480,M,0.28,0195*78
$GPVTG,270.6414,T,270.6414,M,0.628,N,1.164,K,D*28
$GPGGA,125732.20,4612.0431502,N,00607.2993239,E,2,07,1.2,367.715,M,49.480,M,0.48,0195*7E
$GPVTG,251.2458,T,251.2458,M,0.589,N,1.092,K,D*28
$GPGGA,125732.60,4612.0431371,N,00607.2992309,E,2,07,1.2,367.766,M,49.480,M,0.88,0195*73
$GPVTG,255.5966,T,255.5966,M,0.787,N,1.458,K,D*26
$RDENS,2591,4665109,PC
$GPGGA,125732.80,4612.0431300,N,00607.2991758,E,2,07,1.2,367.786,M,49.480,M,0.12,0195*75
$GPVTG,260.0140,T,260.0140,M,0.926,N,1.717,K,D*2B
$GPGGA,125733.20,4612.0431147,N,00607.2990451,E,2,07,1.2,367.773,M,49.480,M,0.52,0195*7A
$GPVTG,251.2685,T,251.2685,M,0.707,N,1.309,K,D*2D
$GPGGA,125733.40,4612.0431055,N,00607.2989927,E,2,07,1.2,367.823,M,49.480,M,0.72,0195*72
$GPVTG,250.7850,T,250.7850,M,0.760,N,1.408,K,D*2A
$RDENS,2592,4665198,PC
$GPGGA,125733.80,4612.0430949,N,00607.2988571,E,2,07,1.2,367.763,M,49.480,M,0.20,0195*79
$GPVTG,268.1231,T,268.1231,M,0.910,N,1.686,K,D*27
$GPGGA,125734.00,4612.0430752,N,00607.2988174,E,2,07,1.2,367.838,M,49.480,M,0.40,0195*74
$GPVTG,252.2583,T,252.2583,M,1.030,N,1.910,K,D*2D
$GPGGA,125734.40,4612.0430430,N,00607.2986986,E,2,07,1.2,367.871,M,49.480,M,0.80,0195*7D
$GPVTG,250.2006,T,250.2006,M,0.829,N,1.536,K,D*24
$RDENS,2593,4665287,PC
$GPGGA,125734.60,4612.0430447,N,00607.2986314,E,2,07,1.2,367.839,M,49.480,M,0.15,0195*7E
$GPVTG,254.5234,T,254.5234,M,0.869,N,1.610,K,D*27
$GPGGA,125735.00,4612.0430253,N,00607.2985319,E,2,07,1.2,367.961,M,49.480,M,0.55,0195*7C
$GPVTG,265.4425,T,265.4425,M,1.016,N,1.883,K,D*22
$GPGGA,125735.20,4612.0430199,N,00607.2984766,E,2,07,1.2,367.970,M,49.480,M,0.75,0195*74
$GPVTG,238.8378,T,238.8378,M,0.838,N,1.553,K,D*27
$RDENS,2594,4665376,PC
$GPGGA,125735.40,4612.0429954,N,00607.2984452,E,2,07,1.2,368.069,M,49.480,M,0.02,0195*79
$GPVTG,254.9890,T,254.9890,M,0.959,N,1.776,K,D*24
$GPGGA,125735.80,4612.0429702,N,00607.2983051,E,2,07,1.2,368.030,M,49.480,M,0.42,0195*70
$GPVTG,250.7762,T,250.7762,M,0.833,N,1.544,K,D*2A
$GPGGA,125736.00,4612.0429639,N,00607.2982516,E,2,07,1.2,368.089,M,49.480,M,0.62,0195*75
$GPVTG,254.2267,T,254.2267,M,0.726,N,1.345,K,D*26
$RDENS,2595,4665465,PC
$GPVTG,261.3065,T,261.3065,M,0.673,N,1.247,K,D*24
$GPVTG,245.6684,T,245.6684,M,0.759,N,1.408,K,D*20
$GPVTG,247.1622,T,247.1622,M,0.901,N,1.670,K,D*2E
$GPGGA,125736.80,4612.0429059,N,00607.2979392,E,2,08,1.1,367.990,M,49.480,M,1.42,0195*72
$GPVTG,249.4987,T,249.4987,M,0.722,N,1.339,K,D*29
$GPGGA,125737.00,4612.0428853,N,00607.2978805,E,2,08,1.1,367.996,M,49.480,M,0.10,0195*7C
$RDENS,2596,4665554,PC
$GPVTG,269.8387,T,269.8387,M,0.694,N,1.286,K,D*20
$GPGGA,125737.40,4612.0428382,N,00607.2977988,E,2,08,1.1,368.133,M,49.480,M,0.50,0195*78
$GPVTG,223.2393,T,223.2393,M,1.056,N,1.958,K,D*21
$GPGGA,125737.60,4612.0428554,N,00607.2977039,E,2,08,1.1,368.086,M,49.480,M,0.02,0195*7C
$GPVTG,284.2360,T,284.2360,M,0.189,N,0.351,K,D*21
$GPVTG,277.3606,T,277.3606,M,0.321,N,0.595,K,D*2F
$GPVTG,274.8528,T,274.8528,M,0.405,N,0.751,K,D*24
$RDENS,2597,4665643,PC
$GPVTG,292.2711,T,292.2711,M,0.668,N,1.237,K,D*29
$GPVTG,293.9091,T,293.9091,M,0.612,N,1.134,K,D*24
$GPVTG,305.6707,T,305.6707,M,0.561,N,1.040,K,D*21
$GPVTG,301.7188,T,301.7188,M,0.625,N,1.159,K,D*2B
$RDENS,2598,4665732,PC
$GPVTG,324.3642,T,324.3642,M,0.706,N,1.309,K,D*2C
$GPVTG,333.1394,T,333.1394,M,0.728,N,1.350,K,D*2C
$GPGGA,125739.40,4612.0428600,N,00607.2979026,E,2,08,1.1,369.638,M,49.480,M,1.02,0195*71
$GPVTG,336.4272,T,336.4272,M,0.762,N,1.413,K,D*22
$GPGGA,125739.60,4612.0429077,N,00607.2978442,E,2,08,1.1,369.515,M,49.480,M,0.11,0195*7C
$GPVTG,347.3477,T,347.3477,M,0.465,N,0.862,K,D*2D
$RDENS,2599,4665821,PC
$GPGGA,125740.00,4612.0429856,N,00607.2976815,E,2,08,1.1,369.166,M,49.480,M,0.51,0195*7B
$GPVTG,340.6685,T,340.6685,M,0.688,N,1.275,K,D*21
$GPGGA,125740.20,4612.0430354,N,00607.2975556,E,2,08,1.1,368.826,M,49.480,M,0.71,0195*7F
$GPVTG,353.7017,T,353.7017,M,0.732,N,1.357,K,D*20
$GPGGA,125740.60,4612.0431371,N,00607.2974371,E,2,08,1.1,368.558,M,49.480,M,1.11,0195*7C
$GPVTG,346.8690,T,346.8690,M,0.746,N,1.382,K,D*2B
$RDENS,2600,4665911,PC
$GPGGA,125740.80,4612.0431779,N,00607.2974120,E,2,08,1.1,368.456,M,49.480,M,0.06,0195*70
$GPVTG,8.1827,T,8.1827,M,0.679,N,1.259,K,D*21
$GPGGA,125741.00,4612.0432229,N,00607.2974025,E,2,08,1.1,368.372,M,49.480,M,0.14,0195*7C
$GPVTG,352.7789,T,352.7789,M,0.707,N,1.310,K,D*25
$GPGGA,125741.40,4612.0433110,N,00607.2973827,E,2,08,1.1,368.287,M,49.480,M,0.08,0195*7B
$GPVTG,2.3707,T,2.3707,M,0.603,N,1.118,K,D*2A
$RDENS,2601,4666000,PC
$GPGGA,125741.60,4612.0433509,N,00607.2973878,E,2,08,1.1,368.276,M,49.480,M,0.12,0195*7A
$GPVTG,14.7682,T,14.7682,M,0.572,N,1.060,K,D*21
$GPGGA,125742.00,4612.0434350,N,00607.2974034,E,2,08,1.1,368.243,M,49.480,M,0.52,0195*77
$GPVTG,19.2834,T,19.2834,M,0.564,N,1.045,K,D*21
$GPGGA,125742.40,4612.0435535,N,00607.2973949,E,2,09,1.0,368.307,M,49.480,M,0.92,0195*7E
$GPVTG,356.2999,T,356.2999,M,0.857,N,1.589,K,D*29
$RDENS,2602,4666089,PC
$GPGGA,125742.60,4612.0436086,N,00607.2973899,E,2,09,1.0,368.314,M,49.480,M,0.05,0195*72
$GPVTG,19.9916,T,19.9916,M,0.763,N,1.413,K,D*23
$GPGGA,125742.80,4612.0436524,N,00607.2973887,E,2,09,1.0,368.237,M,49.480,M,0.15,0195*7F
$GPVTG,6.6039,T,6.6039,M,0.872,N,1.616,K,D*2B
$GPVTG,22.0366,T,22.0366,M,0.888,N,1.646,K,D*2B
$GPGGA,125743.20,4612.0437398,N,00607.2973864,E,2,09,1.0,368.069,M,49.480,M,0.55,0195*74
$RDENS,2603,4666177,PC
$GPVTG,30.3585,T,30.3585,M,0.961,N,1.781,K,D*27
$GPGGA,125743.60,4612.0438284,N,00607.2974100,E,2,09,1.0,368.048,M,49.480,M,0.14,0195*79
$GPVTG,7.1985,T,7.1985,M,0.867,N,1.607,K,D*2F
$GPGGA,125743.80,4612.0438823,N,00607.2974537,E,2,09,1.0,368.133,M,49.480,M,0.34,0195*7F
$GPVTG,8.3051,T,8.3051,M,1.165,N,2.160,K,D*20
$GPGGA,125744.00,4612.0439493,N,00607.2974758,E,2,09,1.0,368.103,M,49.480,M,0.54,0195*78
$GPVTG,28.7941,T,28.7941,M,0.796,N,1.475,K,D*29
$RDENS,2604,4666266,PC
$GPGGA,125744.40,4612.0440434,N,00607.2975592,E,2,09,1.0,368.269,M,49.480,M,0.94,0195*79
$GPVTG,21.7783,T,21.7783,M,1.077,N,1.996,K,D*20
$GPGGA,125744.80,4612.0441653,N,00607.2976318,E,2,09,1.0,368.338,M,49.480,M,1.34,0195*7E
$GPVTG,14.6043,T,14.6043,M,1.199,N,2.222,K,D*26
$GPGGA,125745.00,4612.0442637,N,00607.2976516,E,2,07,1.3,368.205,M,49.480,M,0.09,0195*73
$GPVTG,18.3637,T,18.3637,M,1.329,N,2.464,K,D*2B
$RDENS,2605,4666355,PC
$GPGGA,125745.20,4612.0443367,N,00607.2976944,E,2,07,1.3,368.257,M,49.480,M,0.11,0195*75
$GPVTG,13.7169,T,13.7169,M,1.298,N,2.406,K,D*24
$GPGGA,125745.60,4612.0444920,N,00607.2977654,E,2,07,1.3,368.299,M,49.480,M,0.51,0195*76
$GPVTG,13.3044,T,13.3044,M,1.464,N,2.713,K,D*26
$GPGGA,125745.80,4612.0445840,N,00607.2977850,E,2,07,1.3,368.280,M,49.480,M,0.71,0195*7E
$GPVTG,18.8492,T,18.8492,M,1.340,N,2.484,K,D*2A
$RDENS,2606,4666444,PC
$GPGGA,125746.20,4612.0447373,N,00607.2978690,E,2,07,1.3,368.320,M,49.480,M,0.04,0195*7A
$GPVTG,14.1894,T,14.1894,M,1.646,N,3.051,K,D*24
$GPGGA,125746.40,4612.0448124,N,00607.2978939,E,2,07,1.3,368.329,M,49.480,M,0.24,0195*74
$GPVTG,18.7647,T,18.7647,M,1.556,N,2.884,K,D*27
$GPGGA,125746.80,4612.0449861,N,00607.2979551,E,2,07,1.3,368.267,M,49.480,M,0.22,0195*7F
$GPVTG,13.0041,T,13.0041,M,1.750,N,3.244,K,D*24
$RDENS,2607,4666534,PC
$GPGGA,125747.00,4612.0450761,N,00607.2979984,E,2,07,1.3,368.233,M,49.480,M,0.42,0195*72
$GPVTG,15.5672,T,15.5672,M,1.687,N,3.126,K,D*28
$GPGGA,125747.40,4612.0452525,N,00607.2981185,E,2,07,1.3,368.377,M,49.480,M,0.82,0195*75
$GPVTG,18.5062,T,18.5062,M,1.545,N,2.863,K,D*2C
$GPGGA,125747.60,4612.0453276,N,00607.2981622,E,2,07,1.3,368.360,M,49.480,M,0.01,0195*70
$GPVTG,15.8516,T,15.8516,M,1.675,N,3.104,K,D*25
$RDENS,2608,4666625,PC
$GPGGA,125747.80,4612.0454242,N,00607.2982015,E,2,07,1.3,368.360,M,49.480,M,0.21,0195*7D
$GPVTG,19.1868,T,19.1868,M,1.658,N,3.073,K,D*2B
$GPGGA,125748.20,4612.0457179,N,00607.2982446,E,2,08,1.0,368.411,M,49.480,M,0.61,0195*7B
$GPVTG,18.5611,T,18.5611,M,1.544,N,2.861,K,D*2F
$GPGGA,125748.40,4612.0457589,N,00607.2983201,E,2,09,1.0,368.471,M,49.480,M,0.81,0195*7B
$GPVTG,15.5354,T,15.5354,M,1.551,N,2.874,K,D*2F
$RDENS,2609,4666715,PC
$GPGGA,125748.80,4612.0458888,N,00607.2984186,E,2,09,1.0,368.449,M,49.480,M,0.12,0195*7E
$GPVTG,22.4054,T,22.4054,M,1.537,N,2.849,K,D*21
$GPGGA,125749.00,4612.0459576,N,00607.2984762,E,2,09,1.0,368.460,M,49.480,M,0.32,0195*7F
$GPVTG,19.5023,T,19.5023,M,1.577,N,2.922,K,D*29
$GPGGA,125749.40,4612.0462085,N,00607.2985312,E,2,08,1.0,368.413,M,49.480,M,0.72,0195*79
$GPVTG,23.8856,T,23.8856,M,1.507,N,2.793,K,D*2A
$RDENS,2610,4666804,PC
$GPGGA,125749.60,4612.0463280,N,00607.2985557,E,2,08,1.0,368.385,M,49.480,M,0.92,0195*7C
$GPVTG,24.4770,T,24.4770,M,1.359,N,2.518,K,D*26
$GPGGA,125750.00,4612.0463544,N,00607.2986903,E,2,07,1.3,368.346,M,49.480,M,0.17,0195*7D
$GPVTG,19.4102,T,19.4102,M,1.458,N,2.702,K,D*29
$GPGGA,125750.20,4612.0464354,N,00607.2987250,E,2,07,1.3,368.375,M,49.480,M,0.37,0195*71
$GPVTG,30.9295,T,30.9295,M,1.305,N,2.419,K,D*2F
$GPGGA,125750.60,4612.0465747,N,00607.2988089,E,2,07,1.3,368.396,M,49.480,M,0.08,0195*7A
$RDENS,2611,4666894,PC
$GPVTG,14.3097,T,14.3097,M,1.412,N,2.617,K,D*22
$GPGGA,125750.80,4612.0466492,N,00607.2988368,E,2,07,1.3,368.369,M,49.480,M,0.28,0195*72
$GPVTG,17.5845,T,17.5845,M,1.430,N,2.649,K,D*29
$GPGGA,125751.00,4612.0467239,N,00607.2988633,E,2,07,1.3,368.363,M,49.480,M,0.48,0195*7A
$GPVTG,12.0231,T,12.0231,M,1.468,N,2.721,K,D*2B
$GPGGA,125751.40,4612.0468721,N,00607.2989014,E,2,07,1.3,368.328,M,49.480,M,0.88,0195*7C
$GPVTG,15.0145,T,15.0145,M,1.364,N,2.528,K,D*2B
$RDENS,2612,4666991,PC
$GPGGA,125751.60,4612.0469307,N,00607.2989216,E,2,07,1.3,368.301,M,49.480,M,1.08,0195*7D
$GPVTG,9.7696,T,9.7696,M,1.296,N,2.401,K,D*2D
$GPGGA,125751.80,4612.0470107,N,00607.2989287,E,2,07,1.3,368.311,M,49.480,M,0.00,0195*79
$GPVTG,10.7289,T,10.7289,M,1.289,N,2.389,K,D*24
$GPGGA,125752.20,4612.0471317,N,00607.2989696,E,2,07,1.3,368.356,M,49.480,M,0.40,0195*71
$GPVTG,2.9286,T,2.9286,M,1.259,N,2.333,K,D*28
$RDENS,2613,4667088,PC
$GPGGA,125752.40,4612.0472080,N,00607.2989725,E,2,07,1.3,368.352,M,49.480,M,0.60,0195*76
$GPVTG,2.4826,T,2.4826,M,1.161,N,2.152,K,D*25
$GPGGA,125752.80,4612.0473435,N,00607.2990034,E,2,07,1.3,368.395,M,49.480,M,0.04,0195*77
$GPVTG,1.2304,T,1.2304,M,1.155,N,2.141,K,D*20
$GPGGA,125753.00,4612.0474201,N,00607.2989978,E,2,07,1.3,368.347,M,49.480,M,0.24,0195*7C
$GPVTG,354.0278,T,354.0278,M,1.037,N,1.921,K,D*28
$GPGGA,125753.40,4612.0475490,N,00607.2989985,E,2,07,1.3,368.406,M,49.480,M,0.64,0195*73
$RDENS,2614,4667185,PC
$GPVTG,358.4252,T,358.4252,M,1.267,N,2.347,K,D*26
$GPGGA,125753.60,4612.0476221,N,00607.2989927,E,2,07,1.3,368.373,M,49.480,M,0.84,0195*7D
$GPVTG,349.8636,T,349.8636,M,1.102,N,2.043,K,D*21
$GPGGA,125754.00,4612.0477429,N,00607.2989766,E,2,07,1.3,368.417,M,49.480,M,0.15,0195*75
$GPVTG,351.5433,T,351.5433,M,1.122,N,2.080,K,D*2C
$GPGGA,125754.20,4612.0478022,N,00607.2989648,E,2,07,1.3,368.411,M,49.480,M,0.35,0195*7E
$GPVTG,344.5326,T,344.5326,M,1.196,N,2.217,K,D*2F
$RDENS,2615,4667282,PC
$GPGGA,125754.60,4612.0477583,N,00607.2989915,E,2,08,1.1,368.501,M,49.480,M,0.75,0195*75
$GPVTG,353.0123,T,353.0123,M,1.078,N,1.998,K,D*21
$GPGGA,125754.80,4612.0478208,N,00607.2989676,E,2,08,1.1,368.500,M,49.480,M,0.95,0195*75
$GPVTG,347.2500,T,347.2500,M,1.062,N,1.968,K,D*25
$GPGGA,125755.20,4612.0479360,N,00607.2989165,E,2,08,1.1,368.480,M,49.480,M,1.35,0195*77
$GPVTG,341.3170,T,341.3170,M,1.263,N,2.340,K,D*25
$RDENS,2616,4667379,PC
$GPGGA,125755.40,4612.0480107,N,00607.2988745,E,2,08,1.1,368.451,M,49.480,M,0.00,0195*7A
$GPVTG,344.7061,T,344.7061,M,1.129,N,2.093,K,D*25
$GPGGA,125755.80,4612.0481150,N,00607.2988419,E,2,08,1.1,368.489,M,49.480,M,0.10,0195*7B
$GPVTG,346.9014,T,346.9014,M,1.237,N,2.292,K,D*2A
$GPGGA,125756.00,4612.0481857,N,00607.2988147,E,2,08,1.1,368.498,M,49.480,M,0.30,0195*72
$GPVTG,342.3354,T,342.3354,M,1.289,N,2.389,K,D*24
$GPGGA,125756.40,4612.0483290,N,00607.2987671,E,2,08,1.1,368.521,M,49.480,M,0.70,0195*7F
$RDENS,2617,4667476,PC
$GPVTG,349.6720,T,349.6720,M,1.383,N,2.562,K,D*2C
$GPGGA,125756.60,4612.0484079,N,00607.2984474,E,2,07,1.2,367.690,M,49.480,M,0.90,0195*7F
$GPVTG,340.1469,T,340.1469,M,1.467,N,2.718,K,D*2E
$GPGGA,125757.00,4612.0485696,N,00607.2983746,E,2,07,1.2,367.702,M,49.480,M,1.30,0195*7A
$GPVTG,345.8517,T,345.8517,M,1.439,N,2.667,K,D*2C
$GPGGA,125757.20,4612.0486593,N,00607.2983368,E,2,07,1.2,367.691,M,49.480,M,1.50,0195*78
$GPVTG,351.5784,T,351.5784,M,1.565,N,2.900,K,D*2A
$RDENS,2618,4667573,PC
$GPGGA,125757.40,4612.0487490,N,00607.2983200,E,2,07,1.2,367.681,M,49.480,M,0.02,0195*75
$GPVTG,338.7883,T,338.7883,M,1.583,N,2.935,K,D*24
$GPGGA,125757.80,4612.0489207,N,00607.2982217,E,2,07,1.2,367.600,M,49.480,M,0.08,0195*7B
$GPVTG,344.5781,T,344.5781,M,1.644,N,3.047,K,D*21
$GPGGA,125758.00,4612.0490086,N,00607.2981906,E,2,07,1.2,367.610,M,49.480,M,0.28,0195*74
$GPVTG,346.1133,T,346.1133,M,1.765,N,3.270,K,D*25
$RDENS,2619,4667670,PC
$GPGGA,125758.40,4612.0492029,N,00607.2981094,E,2,07,1.2,367.599,M,49.480,M,0.04,0195*79
$GPVTG,344.4092,T,344.4092,M,1.747,N,3.238,K,D*29
$GPGGA,125758.60,4612.0492935,N,00607.2980664,E,2,07,1.2,367.592,M,49.480,M,0.16,0195*7F
$GPVTG,341.8234,T,341.8234,M,1.848,N,3.424,K,D*22
$GPGGA,125759.00,4612.0494913,N,00607.2979656,E,2,07,1.2,367.521,M,49.480,M,0.56,0195*71
$GPVTG,345.7760,T,345.7760,M,1.781,N,3.301,K,D*28
$GPGGA,125759.20,4612.0495880,N,00607.2979079,E,2,07,1.2,367.501,M,49.480,M,0.17,0195*75
$RDENS,2620,4667767,PC
$GPVTG,343.3579,T,343.3579,M,1.783,N,3.305,K,D*2E
$GPGGA,125759.60,4612.0497660,N,00607.2978336,E,2,07,1.2,367.538,M,49.480,M,0.23,0195*77
$GPVTG,344.6461,T,344.6461,M,1.667,N,3.090,K,D*2A
$GPGGA,125759.80,4612.0498568,N,00607.2977770,E,2,07,1.2,367.523,M,49.480,M,0.43,0195*78
$GPVTG,336.3544,T,336.3544,M,1.762,N,3.265,K,D*26
$GPGGA,125800.20,4612.0500341,N,00607.2979520,E,2,08,1.1,368.269,M,49.480,M,0.83,0195*73
$RDENS,2621,4667864,PC
$GPVTG,343.0305,T,343.0305,M,1.619,N,3.000,K,D*2A
$GPGGA,125800.40,4612.0501097,N,00607.2979033,E,2,09,1.0,368.221,M,49.480,M,1.03,0195*7E
$GPVTG,337.0011,T,337.0011,M,1.663,N,3.082,K,D*2D
$GPGGA,125800.80,4612.0502896,N,00607.2977949,E,2,09,1.0,368.207,M,49.480,M,0.14,0195*71
$GPVTG,334.9297,T,334.9297,M,1.692,N,3.136,K,D*2D
$GPGGA,125801.00,4612.0503809,N,00607.2977535,E,2,09,1.0,368.260,M,49.480,M,0.34,0195*7B
$GPVTG,332.9726,T,332.9726,M,1.771,N,3.281,K,D*2E
$RDENS,2622,4667961,PC
$GPGGA,125801.40,4612.0505466,N,00607.2976457,E,2,09,1.0,368.257,M,49.480,M,0.74,0195*78
$GPVTG,335.5587,T,335.5587,M,1.574,N,2.917,K,D*2C
$GPGGA,125801.60,4612.0506317,N,00607.2975867,E,2,09,1.0,368.257,M,49.480,M,0.94,0195*7A
$GPVTG,337.0781,T,337.0781,M,1.669,N,3.094,K,D*20
$GPGGA,125802.00,4612.0508075,N,00607.2974788,E,2,09,1.0,368.265,M,49.480,M,1.34,0195*73
$GPVTG,337.4271,T,337.4271,M,1.660,N,3.077,K,D*24
$RDENS,2623,4668058,PC
$GPGGA,125802.20,4612.0508953,N,00607.2974184,E,2,09,1.0,368.244,M,49.480,M,1.54,0195*73
$GPVTG,339.2459,T,339.2459,M,1.790,N,3.318,K,D*20
$GPGGA,125802.40,4612.0509892,N,00607.2973610,E,2,09,1.0,368.213,M,49.480,M,0.01,0195*76
$GPVTG,337.5303,T,337.5303,M,1.924,N,3.566,K,D*2E
$GPGGA,125802.80,4612.0511707,N,00607.2972603,E,2,09,1.0,368.222,M,49.480,M,0.15,0195*74
$GPVTG,339.2472,T,339.2472,M,1.755,N,3.252,K,D*26
$GPGGA,125803.00,4612.0512596,N,00607.2972067,E,2,09,1.0,368.209,M,49.480,M,0.35,0195*7B
$RDENS,2624,4668155,PC
$GPVTG,336.5961,T,336.5961,M,1.609,N,2.982,K,D*29
$GPGGA,125803.40,4612.0514224,N,00607.2971128,E,2,09,1.0,368.206,M,49.480,M,0.75,0195*75
$GPVTG,338.9048,T,338.9048,M,1.708,N,3.166,K,D*2A
$GPGGA,125803.60,4612.0515024,N,00607.2970629,E,2,09,1.0,368.193,M,49.480,M,0.02,0195*7C
$GPVTG,338.9062,T,338.9062,M,1.619,N,3.001,K,D*2B
$GPGGA,125804.00,4612.0516748,N,00607.2969648,E,2,09,1.0,368.235,M,49.480,M,0.42,0195*77
$GPVTG,337.2306,T,337.2306,M,1.792,N,3.321,K,D*28
$RDENS,2625,4668252,PC
$GPGGA,125804.20,4612.0517418,N,00607.2969324,E,2,09,1.0,368.260,M,49.480,M,0.62,0195*7F
$GPVTG,340.1698,T,340.1698,M,1.958,N,3.629,K,D*2D
$GPGGA,125804.60,4612.0519140,N,00607.2968462,E,2,09,1.0,368.306,M,49.480,M,1.02,0195*7F
$GPVTG,340.3275,T,340.3275,M,1.530,N,2.836,K,D*2E
$GPGGA,125804.80,4612.0520554,N,00607.2968323,E,4,07,1.6,368.582,M,49.480,M,0.10,0195*7E
$GPVTG,343.7993,T,343.7993,M,1.740,N,3.224,K,D*23
$RDENS,2626,4668343,PC
$GPGGA,125805.20,4612.0522461,N,00607.2967431,E,4,07,1.6,368.548,M,49.480,M,0.50,0195*79
$GPVTG,340.9488,T,340.9488,M,1.815,N,3.363,K,D*2E
$GPVTG,345.0532,T,345.0532,M,1.690,N,3.131,K,D*28
$GPGGA,125805.60,4612.0524296,N,00607.2966704,E,4,07,1.6,368.548,M,49.480,M,0.90,0195*7D
$GPVTG,342.3486,T,342.3486,M,1.698,N,3.147,K,D*21
$GPGGA,125805.80,4612.0525180,N,00607.2966302,E,4,07,1.6,368.541,M,49.480,M,1.10,0195*74
$RDENS,2627,4668433,PC
$GPVTG,343.2048,T,343.2048,M,1.637,N,3.034,K,D*21
$GPGGA,125806.20,4612.0526868,N,00607.2965615,E,4,07,1.6,368.570,M,49.480,M,0.02,0195*71
$GPVTG,342.4980,T,342.4980,M,1.556,N,2.884,K,D*27
$GPGGA,125806.40,4612.0527765,N,00607.2965168,E,4,07,1.6,368.561,M,49.480,M,0.22,0195*7B
$GPVTG,344.9168,T,344.9168,M,1.653,N,3.063,K,D*21
$GPGGA,125806.80,4612.0529507,N,00607.2964426,E,4,07,1.6,368.548,M,49.480,M,0.62,0195*7E
$RDENS,2628,4668523,PC
$GPVTG,340.9050,T,340.9050,M,1.639,N,3.037,K,D*2C
$GPGGA,125807.00,4612.0530316,N,00607.2964041,E,4,07,1.6,368.539,M,49.480,M,0.05,0195*7B
$GPVTG,341.6811,T,341.6811,M,1.548,N,2.868,K,D*2A
$GPGGA,125807.40,4612.0531945,N,00607.2963267,E,4,07,1.6,368.502,M,49.480,M,0.45,0195*7F
$GPVTG,343.8632,T,343.8632,M,1.481,N,2.744,K,D*2F
$GPGGA,125807.60,4612.0532650,N,00607.2962847,E,4,07,1.6,368.521,M,49.480,M,0.12,0195*7F
$RDENS,2629,4668612,PC
$GPVTG,339.3971,T,339.3971,M,1.520,N,2.817,K,D*2C
$GPGGA,125808.00,4612.0534166,N,00607.2962077,E,4,07,1.6,368.536,M,49.480,M,0.52,0195*7B
$GPVTG,339.6381,T,339.6381,M,1.449,N,2.686,K,D*24
$GPGGA,125808.20,4612.0534867,N,00607.2961611,E,4,07,1.6,368.529,M,49.480,M,0.72,0195*78
$GPVTG,339.1415,T,339.1415,M,1.329,N,2.464,K,D*2B
$GPGGA,125808.60,4612.0536330,N,00607.2960797,E,4,07,1.6,368.511,M,49.480,M,0.24,0195*71
$RDENS,2630,4668701,PC
$GPVTG,341.1657,T,341.1657,M,1.425,N,2.640,K,D*24
$GPGGA,125808.80,4612.0536901,N,00607.2960473,E,4,07,1.6,368.553,M,49.480,M,0.44,0195*7E
$GPVTG,337.4070,T,337.4070,M,1.378,N,2.553,K,D*2A
$GPGGA,125809.20,4612.0538353,N,00607.2959630,E,4,07,1.6,368.526,M,49.480,M,0.84,0195*77
$GPVTG,340.1022,T,340.1022,M,1.397,N,2.589,K,D*2C
$GPGGA,125809.40,4612.0539033,N,00607.2959327,E,4,07,1.6,368.530,M,49.480,M,1.04,0195*78
$GPVTG,341.8228,T,341.8228,M,1.388,N,2.573,K,D*27
$RDENS,2631,4668798,PC
$GPGGA,125809.80,4612.0540463,N,00607.2958696,E,4,07,1.6,368.541,M,49.480,M,1.44,0195*77
$GPVTG,341.8972,T,341.8972,M,1.322,N,2.451,K,D*26
$GPGGA,125810.00,4612.0541214,N,00607.2958334,E,4,07,1.6,368.540,M,49.480,M,0.11,0195*7D
$GPVTG,346.0605,T,346.0605,M,1.389,N,2.575,K,D*20
$GPGGA,125810.20,4612.0541973,N,00607.2958014,E,4,07,1.6,368.530,M,49.480,M,0.31,0195*71
$GPVTG,342.6375,T,342.6375,M,1.461,N,2.707,K,D*26
$RDENS,2632,4668895,PC
$GPGGA,125810.60,4612.0543495,N,00607.2957428,E,4,07,1.6,368.525,M,49.480,M,0.15,0195*74
$GPVTG,347.2050,T,347.2050,M,1.342,N,2.488,K,D*24
$GPGGA,125810.80,4612.0544151,N,00607.2957144,E,4,07,1.6,368.578,M,49.480,M,0.35,0195*75
$GPVTG,341.9177,T,341.9177,M,1.511,N,2.800,K,D*28
$GPGGA,125811.20,4612.0545749,N,00607.2956297,E,4,07,1.6,368.531,M,49.480,M,0.75,0195*75
$GPVTG,339.7829,T,339.7829,M,1.459,N,2.705,K,D*2F
$GPGGA,125811.40,4612.0546485,N,00607.2955967,E,4,07,1.6,368.526,M,49.480,M,0.95,0195*7C
$RDENS,2633,4668992,PC
$GPVTG,338.9792,T,338.9792,M,1.329,N,2.463,K,D*2C
$GPGGA,125811.80,4612.0547876,N,00607.2955234,E,4,07,1.6,368.523,M,49.480,M,1.35,0195*72
$GPVTG,341.0415,T,341.0415,M,1.339,N,2.482,K,D*22
$GPGGA,125812.00,4612.0548517,N,00607.2954891,E,4,07,1.6,368.563,M,49.480,M,0.06,0195*7D
$GPVTG,336.0023,T,336.0023,M,1.365,N,2.531,K,D*22
$GPGGA,125812.40,4612.0549931,N,00607.2953976,E,4,07,1.6,368.516,M,49.480,M,0.46,0195*79
$GPVTG,337.3774,T,337.3774,M,1.363,N,2.527,K,D*23
$RDENS,2634,4669089,PC
$GPGGA,125812.60,4612.0550612,N,00607.2953555,E,4,07,1.6,368.532,M,49.480,M,0.14,0195*71
$GPVTG,334.2719,T,334.2719,M,1.375,N,2.549,K,D*2C
$GPGGA,125813.00,4612.0551962,N,00607.2952601,E,4,07,1.6,368.532,M,49.480,M,0.26,0195*7D
$GPVTG,333.0875,T,333.0875,M,1.313,N,2.434,K,D*27
$GPGGA,125813.20,4612.0552559,N,00607.2952168,E,4,07,1.6,368.554,M,49.480,M,0.46,0195*76
$GPVTG,332.0247,T,332.0247,M,1.378,N,2.554,K,D*2D
$RDENS,2635,4669186,PC
$GPGGA,125813.60,4612.0553780,N,00607.2951203,E,4,07,1.6,368.548,M,49.480,M,0.16,0195*70
$GPVTG,332.6231,T,332.6231,M,1.132,N,2.097,K,D*2B
$GPGGA,125813.80,4612.0554465,N,00607.2950677,E,4,07,1.6,368.558,M,49.480,M,0.36,0195*74
$GPVTG,330.4849,T,330.4849,M,1.202,N,2.227,K,D*22
$GPGGA,125814.20,4612.0555709,N,00607.2949607,E,4,07,1.6,368.538,M,49.480,M,0.76,0195*7C
$GPVTG,328.8555,T,328.8555,M,1.347,N,2.496,K,D*2E
$GPGGA,125814.40,4612.0556239,N,00607.2949160,E,4,07,1.6,368.569,M,49.480,M,0.03,0195*7F
$RDENS,2636,4669283,PC
$GPVTG,331.2810,T,331.2810,M,1.310,N,2.427,K,D*26
$GPGGA,125814.60,4612.0556874,N,00607.2948635,E,4,07,1.6,368.550,M,49.480,M,0.17,0195*77
$GPVTG,326.9627,T,326.9627,M,1.207,N,2.237,K,D*26
$GPGGA,125815.00,4612.0558030,N,00607.2947514,E,4,07,1.6,368.532,M,49.480,M,0.57,0195*79
$GPVTG,328.1934,T,328.1934,M,1.252,N,2.321,K,D*20
$GPGGA,125815.20,4612.0558561,N,00607.2947032,E,4,07,1.6,368.559,M,49.480,M,0.77,0195*74
$RDENS,2637,4669380,PC
$GPVTG,327.0089,T,327.0089,M,1.334,N,2.471,K,D*23
$GPGGA,125815.60,4612.0559727,N,00607.2945787,E,4,07,1.6,368.557,M,49.480,M,1.17,0195*73
$GPVTG,321.7985,T,321.7985,M,1.245,N,2.307,K,D*22
$GPGGA,125815.80,4612.0560281,N,00607.2945278,E,4,07,1.6,368.556,M,49.480,M,1.37,0195*78
$GPVTG,324.5558,T,324.5558,M,1.184,N,2.193,K,D*23
$GPGGA,125816.20,4612.0561421,N,00607.2944120,E,4,07,1.6,368.548,M,49.480,M,1.77,0195*78
$GPVTG,325.3761,T,325.3761,M,1.300,N,2.409,K,D*2B
$RDENS,2638,4669477,PC
$GPGGA,125816.40,4612.0561904,N,00607.2943534,E,4,07,1.6,368.560,M,49.480,M,1.97,0195*76
$GPVTG,325.2846,T,325.2846,M,1.219,N,2.258,K,D*20
$GPGGA,125816.80,4612.0562995,N,00607.2942349,E,4,07,1.6,368.569,M,49.480,M,0.05,0195*7F
$GPVTG,319.7107,T,319.7107,M,1.256,N,2.328,K,D*2D
$GPGGA,125817.00,4612.0563573,N,00607.2941740,E,4,07,1.6,368.557,M,49.480,M,0.25,0195*72
$GPVTG,319.7253,T,319.7253,M,1.204,N,2.231,K,D*23
$RDENS,2639,4669574,PC
$GPGGA,125817.40,4612.0564612,N,00607.2940523,E,4,07,1.6,368.547,M,49.480,M,0.00,0195*75
$GPVTG,321.5262,T,321.5262,M,1.180,N,2.186,K,D*23
$GPGGA,125817.60,4612.0565077,N,00607.2939941,E,4,07,1.6,368.546,M,49.480,M,0.20,0195*76
$GPVTG,320.6731,T,320.6731,M,1.194,N,2.212,K,D*28
$GPGGA,125818.00,4612.0566124,N,00607.2938710,E,4,07,1.6,368.539,M,49.480,M,0.60,0195*7C
$GPVTG,321.7414,T,321.7414,M,1.225,N,2.271,K,D*24
$GPGGA,125818.20,4612.0566549,N,00607.2938171,E,4,07,1.6,368.561,M,49.480,M,0.80,0195*73
$RDENS,2640,4669671,PC
$GPVTG,323.1958,T,323.1958,M,1.246,N,2.310,K,D*27
$GPGGA,125818.60,4612.0567566,N,00607.2937022,E,4,07,1.6,368.568,M,49.480,M,0.14,0195*77
$GPVTG,321.9544,T,321.9544,M,1.054,N,1.954,K,D*2F
$GPGGA,125818.80,4612.0568192,N,00607.2936454,E,4,07,1.6,368.530,M,49.480,M,0.34,0195*72
$GPVTG,325.4088,T,325.4088,M,1.216,N,2.253,K,D*24
$GPGGA,125819.00,4612.0568722,N,00607.2935959,E,4,07,1.6,368.562,M,49.480,M,0.54,0195*74
$GPVTG,332.0317,T,332.0317,M,1.424,N,2.639,K,D*2B
$RDENS,2641,4669768,PC
$GPGGA,125819.40,4612.0570059,N,00607.2934925,E,4,07,1.6,368.567,M,49.480,M,0.94,0195*71
$GPVTG,329.1431,T,329.1431,M,1.349,N,2.501,K,D*2F
$GPGGA,125819.60,4612.0570703,N,00607.2934439,E,4,07,1.6,368.577,M,49.480,M,1.14,0195*73
$GPVTG,335.0593,T,335.0593,M,1.387,N,2.571,K,D*2A
$GPGGA,125820.00,4612.0571989,N,00607.2933552,E,4,07,1.6,368.550,M,49.480,M,1.54,0195*78
$GPVTG,332.6055,T,332.6055,M,1.236,N,2.290,K,D*29
$RDENS,2642,4669865,PC
$GPGGA,125820.20,4612.0572700,N,00607.2933175,E,4,07,1.6,368.537,M,49.480,M,1.74,0195*74
$GPVTG,338.3990,T,338.3990,M,1.336,N,2.476,K,D*26
$GPGGA,125820.60,4612.0574090,N,00607.2932399,E,4,07,1.6,368.528,M,49.480,M,0.19,0195*7D
$GPVTG,342.5965,T,342.5965,M,1.255,N,2.326,K,D*20
$GPGGA,125820.80,4612.0574784,N,00607.2932112,E,4,07,1.6,368.533,M,49.480,M,0.39,0195*78
$GPVTG,346.4496,T,346.4496,M,1.236,N,2.290,K,D*29
$GPGGA,125821.20,4612.0576169,N,00607.2931518,E,4,07,1.6,368.519,M,49.480,M,0.79,0195*75
$RDENS,2643,4669962,PC
$GPVTG,342.1122,T,342.1122,M,1.287,N,2.385,K,D*26
$GPGGA,125821.40,4612.0576796,N,00607.2931284,E,4,07,1.6,368.542,M,49.480,M,0.99,0195*77
$GPVTG,346.0804,T,346.0804,M,1.335,N,2.474,K,D*27
$GPGGA,125821.80,4612.0578206,N,00607.2930766,E,4,07,1.6,368.506,M,49.480,M,1.39,0195*7A
$GPVTG,343.8148,T,343.8148,M,1.291,N,2.392,K,D*27
$GPGGA,125822.00,4612.0578928,N,00607.2930460,E,4,07,1.6,368.497,M,49.480,M,0.01,0195*70
$GPVTG,348.4510,T,348.4510,M,1.247,N,2.311,K,D*27
$RDENS,2644,4670059,PC
$GPGGA,125822.40,4612.0580230,N,00607.2930060,E,4,07,1.6,368.517,M,49.480,M,0.39,0195*77
$GPVTG,344.7360,T,344.7360,M,1.250,N,2.317,K,D*27
$GPGGA,125822.60,4612.0580892,N,00607.2929843,E,4,07,1.6,368.528,M,49.480,M,0.07,0195*77
$GPVTG,345.7600,T,345.7600,M,1.276,N,2.365,K,D*26
$GPGGA,125823.00,4612.0582257,N,00607.2929478,E,4,07,1.6,368.549,M,49.480,M,0.47,0195*76
$GPVTG,350.4273,T,350.4273,M,1.308,N,2.425,K,D*2D
$RDENS,2645,4670156,PC
$GPGGA,125823.20,4612.0583011,N,00607.2929225,E,4,07,1.6,368.518,M,49.480,M,0.67,0195*7D
$GPVTG,348.5153,T,348.5153,M,1.358,N,2.518,K,D*27
$GPGGA,125823.60,4612.0584493,N,00607.2928896,E,4,07,1.6,368.538,M,49.480,M,1.07,0195*76
$GPVTG,352.1466,T,352.1466,M,1.317,N,2.441,K,D*21
$GPGGA,125823.80,4612.0585257,N,00607.2928690,E,4,07,1.6,368.533,M,49.480,M,1.27,0195*76
$GPVTG,350.7892,T,350.7892,M,1.436,N,2.662,K,D*26
$GPGGA,125824.00,4612.0586033,N,00607.2928516,E,4,07,1.6,368.538,M,49.480,M,1.47,0195*7A
$RDENS,2646,4670253,PC
$GPVTG,350.7592,T,350.7592,M,1.454,N,2.694,K,D*2B
$GPGGA,125824.40,4612.0587614,N,00607.2928147,E,4,07,1.6,368.531,M,49.480,M,1.87,0195*79
$GPVTG,349.6404,T,349.6404,M,1.430,N,2.650,K,D*21
$GPGGA,125824.60,4612.0588389,N,00607.2927972,E,4,07,1.6,368.520,M,49.480,M,0.13,0195*78
$GPVTG,347.7863,T,347.7863,M,1.480,N,2.743,K,D*29
$GPGGA,125825.00,4612.0589927,N,00607.2927515,E,4,07,1.6,368.515,M,49.480,M,0.27,0195*7C
$RDENS,2647,4670339,PC
$GPVTG,348.8674,T,348.8674,M,1.376,N,2.550,K,D*27
$GPGGA,125825.20,4612.0590635,N,00607.2927277,E,4,07,1.6,368.538,M,49.480,M,0.47,0195*70
$GPVTG,345.0726,T,345.0726,M,1.415,N,2.623,K,D*22
$GPGGA,125825.60,4612.0592177,N,00607.2926690,E,4,07,1.6,368.517,M,49.480,M,0.87,0195*7A
$GPVTG,347.1664,T,347.1664,M,1.381,N,2.560,K,D*2C
$RDENS,2648,4670425,PC
$GPGGA,125825.80,4612.0592950,N,00607.2926384,E,4,07,1.6,368.527,M,49.480,M,0.02,0195*77
$GPVTG,343.1597,T,343.1597,M,1.351,N,2.505,K,D*22
$GPGGA,125826.20,4612.0594374,N,00607.2925829,E,4,07,1.6,368.551,M,49.480,M,0.42,0195*7E
$GPVTG,340.3582,T,340.3582,M,1.428,N,2.647,K,D*2E
$GPGGA,125826.40,4612.0595156,N,00607.2925404,E,4,07,1.6,368.536,M,49.480,M,0.12,0195*7C
$GPVTG,341.9098,T,341.9098,M,1.324,N,2.453,K,D*22
$RDENS,2649,4670511,PC
$GPGGA,125826.80,4612.0596519,N,00607.2924793,E,4,07,1.6,368.575,M,49.480,M,0.28,0195*7E
$GPVTG,336.7924,T,336.7924,M,1.350,N,2.503,K,D*25
$GPGGA,125827.00,4612.0597248,N,00607.2924380,E,4,07,1.6,368.558,M,49.480,M,0.48,0195*7A
$GPVTG,340.6040,T,340.6040,M,1.309,N,2.426,K,D*2F
$GPGGA,125827.40,4612.0598648,N,00607.2923645,E,4,07,1.6,368.550,M,49.480,M,0.88,0195*7A
$GPVTG,340.9353,T,340.9353,M,1.322,N,2.451,K,D*26
$RDENS,2650,4670597,PC
$GPVTG,337.9826,T,337.9826,M,1.290,N,2.391,K,D*25
$GPGGA,125827.80,4612.0599942,N,00607.2922897,E,4,07,1.6,368.561,M,49.480,M,0.25,0195*77
$GPVTG,335.9234,T,335.9234,M,1.210,N,2.243,K,D*23
$GPGGA,125828.00,4612.0600532,N,00607.2922535,E,4,07,1.6,368.578,M,49.480,M,0.45,0195*73
$GPVTG,339.3258,T,339.3258,M,1.182,N,2.191,K,D*27
$GPGGA,125828.40,4612.0601825,N,00607.2921715,E,4,07,1.6,368.554,M,49.480,M,0.85,0195*7C
$RDENS,2651,4670682,PC
$GPVTG,337.9877,T,337.9877,M,1.266,N,2.346,K,D*26
$GPGGA,125828.60,4612.0602483,N,00607.2921308,E,4,07,1.6,368.546,M,49.480,M,0.01,0195*7A
$GPVTG,335.9826,T,335.9826,M,1.270,N,2.354,K,D*22
$GPGGA,125829.00,4612.0603820,N,00607.2920640,E,4,07,1.6,368.540,M,49.480,M,0.41,0195*73
$GPVTG,345.9260,T,345.9260,M,1.240,N,2.298,K,D*20
$GPGGA,125829.20,4612.0604497,N,00607.2920257,E,4,07,1.6,368.518,M,49.480,M,0.61,0195*7B
$RDENS,2652,4670769,PC
$GPVTG,337.9562,T,337.9562,M,1.155,N,2.140,K,D*21
$GPGGA,125829.60,4612.0605661,N,00607.2919625,E,4,07,1.6,368.541,M,49.480,M,0.10,0195*74
$GPVTG,337.6866,T,337.6866,M,1.188,N,2.202,K,D*24
$GPGGA,125829.80,4612.0606361,N,00607.2919194,E,4,07,1.6,368.504,M,49.480,M,0.30,0195*72
$GPVTG,333.3689,T,333.3689,M,1.144,N,2.121,K,D*26
$GPGGA,125830.20,4612.0607435,N,00607.2918533,E,4,07,1.6,368.533,M,49.480,M,0.70,0195*7F
$RDENS,2653,4670855,PC
$GPVTG,341.7155,T,341.7155,M,1.040,N,1.927,K,D*2E
$GPGGA,125830.40,4612.0608015,N,00607.2918132,E,4,07,1.6,368.519,M,49.480,M,0.90,0195*73
$GPVTG,333.7698,T,333.7698,M,1.055,N,1.954,K,D*2E
$GPGGA,125830.80,4612.0609020,N,00607.2917429,E,4,07,1.6,368.549,M,49.480,M,1.30,0195*76
$GPVTG,329.9011,T,329.9011,M,1.076,N,1.993,K,D*24
$RDENS,2654,4670940,PC
$GPGGA,125831.00,4612.0609570,N,00607.2917013,E,4,07,1.6,368.519,M,49.480,M,1.50,0195*71
$GPVTG,327.0093,T,327.0093,M,1.066,N,1.976,K,D*2E
$GPGGA,125831.40,4612.0610526,N,00607.2916226,E,4,07,1.6,368.531,M,49.480,M,1.90,0195*7D
$GPVTG,329.4541,T,329.4541,M,1.050,N,1.945,K,D*2B
$GPGGA,125831.60,4612.0611047,N,00607.2915780,E,4,07,1.6,368.507,M,49.480,M,2.10,0195*78
$GPVTG,332.7796,T,332.7796,M,0.834,N,1.546,K,D*2F
$RDENS,2655,4671026,PC
$GPGGA,125831.80,4612.0611454,N,00607.2915451,E,4,07,1.6,368.542,M,49.480,M,0.08,0195*75
$GPVTG,329.0478,T,329.0478,M,0.950,N,1.760,K,D*2A
$GPGGA,125832.20,4612.0612366,N,00607.2914621,E,4,07,1.6,368.524,M,49.480,M,0.32,0195*74
$GPVTG,329.8637,T,329.8637,M,0.801,N,1.484,K,D*26
$GPGGA,125832.40,4612.0612748,N,00607.2914222,E,4,07,1.6,368.548,M,49.480,M,0.52,0195*71
$GPVTG,327.4493,T,327.4493,M,0.953,N,1.765,K,D*2C
$RDENS,2656,4671113,PC
$GPGGA,125832.80,4612.0613586,N,00607.2913354,E,4,07,1.6,368.552,M,49.480,M,0.16,0195*70
$GPVTG,318.2202,T,318.2202,M,0.869,N,1.610,K,D*27
$GPGGA,125833.00,4612.0614016,N,00607.2912913,E,4,07,1.6,368.546,M,49.480,M,0.36,0195*7D
$GPVTG,321.6807,T,321.6807,M,0.943,N,1.748,K,D*22
$GPGGA,125833.40,4612.0614780,N,00607.2912007,E,4,07,1.6,368.547,M,49.480,M,0.06,0195*7F
$GPVTG,318.2338,T,318.2338,M,0.925,N,1.715,K,D*2A
$RDENS,2657,4671198,PC
$GPGGA,125833.60,4612.0615203,N,00607.2911561,E,4,07,1.6,368.520,M,49.480,M,0.14,0195*76
$GPVTG,322.4219,T,322.4219,M,0.861,N,1.596,K,D*22
$GPGGA,125834.00,4612.0615979,N,00607.2910798,E,4,07,1.6,368.516,M,49.480,M,0.54,0195*75
$GPVTG,327.2758,T,327.2758,M,0.898,N,1.664,K,D*2A
$GPGGA,125834.20,4612.0616401,N,00607.2910400,E,4,07,1.6,368.504,M,49.480,M,0.74,0195*75
$GPVTG,329.7065,T,329.7065,M,0.831,N,1.540,K,D*2C
$RDENS,2658,4671284,PC
$GPGGA,125834.60,4612.0617128,N,00607.2909743,E,4,07,1.6,368.535,M,49.480,M,1.14,0195*77
$GPVTG,321.5220,T,321.5220,M,0.788,N,1.460,K,D*22
$GPGGA,125834.80,4612.0617567,N,00607.2909328,E,4,07,1.6,368.515,M,49.480,M,0.03,0195*7A
$GPVTG,316.9162,T,316.9162,M,0.747,N,1.384,K,D*2C
$GPGGA,125835.20,4612.0618236,N,00607.2908564,E,4,07,1.6,368.549,M,49.480,M,0.37,0195*7C
$GPVTG,322.4188,T,322.4188,M,0.886,N,1.642,K,D*21
$RDENS,2659,4671370,PC
$GPGGA,125835.40,4612.0618679,N,00607.2908015,E,4,07,1.6,368.503,M,49.480,M,0.10,0195*7D
$GPVTG,313.9093,T,313.9093,M,0.890,N,1.648,K,D*2C
$GPGGA,125835.80,4612.0619375,N,00607.2907179,E,4,07,1.6,368.515,M,49.480,M,0.30,0195*78
$GPVTG,320.3468,T,320.3468,M,0.870,N,1.612,K,D*2D
$GPGGA,125836.00,4612.0619702,N,00607.2906708,E,4,07,1.6,368.509,M,49.480,M,0.50,0195*7D
$GPVTG,316.6457,T,316.6457,M,0.901,N,1.669,K,D*26
$RDENS,2660,4671456,PC
$GPGGA,125836.40,4612.0620412,N,00607.2905804,E,4,07,1.6,368.490,M,49.480,M,0.90,0195*7C
$GPVTG,318.4460,T,318.4460,M,0.867,N,1.606,K,D*2E
$GPGGA,125836.60,4612.0620654,N,00607.2905420,E,4,07,1.6,368.544,M,49.480,M,0.06,0195*73
$GPVTG,316.7722,T,316.7722,M,0.847,N,1.570,K,D*2E
$GPGGA,125836.80,4612.0621029,N,00607.2904888,E,4,07,1.6,368.506,M,49.480,M,0.26,0195*7B
$GPVTG,311.1019,T,311.1019,M,0.761,N,1.411,K,D*23
$RDENS,2661,4671542,PC
$GPGGA,125837.20,4612.0621634,N,00607.2903950,E,4,07,1.6,368.537,M,49.480,M,0.66,0195*7F
$GPVTG,312.3484,T,312.3484,M,0.902,N,1.672,K,D*2F
$GPGGA,125837.40,4612.0621904,N,00607.2903507,E,4,07,1.6,368.559,M,49.480,M,0.11,0195*73
$GPVTG,319.8706,T,319.8706,M,0.909,N,1.685,K,D*2C
$GPGGA,125837.80,4612.0622723,N,00607.2902436,E,4,07,1.6,368.502,M,49.480,M,0.29,0195*70
$RDENS,2662,4671628,PC
$GPVTG,320.8412,T,320.8412,M,0.847,N,1.570,K,D*2E
$GPGGA,125838.00,4612.0623084,N,00607.2902006,E,4,07,1.6,368.528,M,49.480,M,0.49,0195*75
$GPVTG,327.6173,T,327.6173,M,0.972,N,1.801,K,D*22
$GPGGA,125838.40,4612.0623924,N,00607.2901175,E,4,07,1.6,368.548,M,49.480,M,0.89,0195*7E
$GPVTG,321.4477,T,321.4477,M,0.953,N,1.766,K,D*2F
$GPGGA,125838.60,4612.0624487,N,00607.2900670,E,4,07,1.6,368.510,M,49.480,M,0.10,0195*71
$RDENS,2663,4671714,PC
$GPVTG,324.8546,T,324.8546,M,1.046,N,1.938,K,D*26
$GPGGA,125839.00,4612.0625494,N,00607.2899832,E,4,07,1.6,368.510,M,49.480,M,0.50,0195*78
$GPVTG,335.4281,T,335.4281,M,1.097,N,2.033,K,D*2B
$GPGGA,125839.20,4612.0626027,N,00607.2899444,E,4,07,1.6,368.520,M,49.480,M,0.70,0195*79
$GPVTG,334.1541,T,334.1541,M,1.109,N,2.056,K,D*2E
$GPGGA,125839.60,4612.0627205,N,00607.2898634,E,4,07,1.6,368.514,M,49.480,M,1.10,0195*7A
$RDENS,2664,4671800,PC
$GPVTG,338.8172,T,338.8172,M,1.160,N,2.150,K,D*26
$GPGGA,125839.80,4612.0627843,N,00607.2898263,E,4,07,1.6,368.493,M,49.480,M,1.30,0195*76
$GPVTG,336.9777,T,336.9777,M,1.177,N,2.181,K,D*2C
$GPGGA,125840.20,4612.0629121,N,00607.2897574,E,4,07,1.6,368.517,M,49.480,M,1.70,0195*76
$GPVTG,340.9878,T,340.9878,M,1.312,N,2.432,K,D*20
$GPGGA,125840.40,4612.0629838,N,00607.2897244,E,4,07,1.6,368.505,M,49.480,M,1.90,0195*78
$RDENS,2665,4671886,PC
$GPVTG,339.3803,T,339.3803,M,1.399,N,2.593,K,D*29
$GPGGA,125840.80,4612.0631204,N,00607.2896647,E,4,07,1.6,368.531,M,49.480,M,2.30,0195*70
$GPVTG,344.7441,T,344.7441,M,1.263,N,2.341,K,D*24
$GPGGA,125841.00,4612.0631998,N,00607.2896271,E,4,07,1.6,368.500,M,49.480,M,2.50,0195*72
$GPVTG,342.5351,T,342.5351,M,1.389,N,2.575,K,D*20
$GPGGA,125841.40,4612.0633450,N,00607.2895615,E,4,07,1.6,368.476,M,49.480,M,2.90,0195*74
$RDENS,2666,4671972,PC
$GPVTG,341.3320,T,341.3320,M,1.327,N,2.460,K,D*21
$GPGGA,125841.60,4612.0634082,N,00607.2895345,E,4,07,1.6,368.497,M,49.480,M,3.10,0195*7C
$GPVTG,338.4376,T,338.4376,M,1.307,N,2.423,K,D*24
$GPGGA,125841.80,4612.0634738,N,00607.2895010,E,4,07,1.6,368.515,M,49.480,M,3.30,0195*7E
$GPVTG,338.7763,T,338.7763,M,1.309,N,2.426,K,D*2F
$RDENS,2667,4672058,PC
$GPGGA,125842.20,4612.0636088,N,00607.2894225,E,4,07,1.6,368.481,M,49.480,M,3.70,0195*74
$GPVTG,343.9086,T,343.9086,M,1.159,N,2.147,K,D*2A
$GPGGA,125842.40,4612.0636611,N,00607.2893913,E,4,07,1.6,368.503,M,49.480,M,0.15,0195*76
$GPVTG,338.1517,T,338.1517,M,1.183,N,2.192,K,D*25
$GPGGA,125842.80,4612.0637852,N,00607.2893115,E,4,07,1.6,368.478,M,49.480,M,0.08,0195*7D
$GPVTG,335.9896,T,335.9896,M,1.172,N,2.173,K,D*24
$RDENS,2668,4672144,PC
$GPGGA,125843.00,4612.0638312,N,00607.2892795,E,4,07,1.6,368.522,M,49.480,M,0.06,0195*7B
$GPVTG,337.2227,T,337.2227,M,1.155,N,2.141,K,D*20
$GPGGA,125843.40,4612.0639540,N,00607.2892007,E,4,07,1.6,368.495,M,49.480,M,0.34,0195*7F
$GPVTG,338.2283,T,338.2283,M,1.143,N,2.119,K,D*2A
$GPGGA,125843.60,4612.0640084,N,00607.2891678,E,4,07,1.6,368.506,M,49.480,M,0.06,0195*79
$GPVTG,337.6480,T,337.6480,M,1.212,N,2.246,K,D*24
$RDENS,2669,4672230,PC
$GPGGA,125844.00,4612.0641338,N,00607.2890979,E,4,07,1.6,368.487,M,49.480,M,0.34,0195*7B
$GPVTG,336.0877,T,336.0877,M,1.228,N,2.276,K,D*2E
$GPGGA,125844.20,4612.0641888,N,00607.2890651,E,4,07,1.6,368.496,M,49.480,M,0.54,0195*7A
$GPVTG,337.6722,T,337.6722,M,1.118,N,2.072,K,D*28
$GPGGA,125844.60,4612.0643016,N,00607.2890029,E,4,07,1.6,368.501,M,49.480,M,0.94,0195*79
$GPVTG,334.0017,T,334.0017,M,1.149,N,2.130,K,D*2B
$RDENS,2670,4672316,PC
$GPGGA,125844.80,4612.0643584,N,00607.2889615,E,4,07,1.6,368.480,M,49.480,M,1.14,0195*79
$GPVTG,328.6892,T,328.6892,M,1.077,N,1.996,K,D*20
$GPGGA,125845.20,4612.0644558,N,00607.2888972,E,4,07,1.6,368.498,M,49.480,M,1.54,0195*76
$GPVTG,331.1093,T,331.1093,M,1.066,N,1.975,K,D*2D
$GPGGA,125845.40,4612.0645098,N,00607.2888605,E,4,07,1.6,368.476,M,49.480,M,1.74,0195*75
$GPVTG,330.8396,T,330.8396,M,0.972,N,1.802,K,D*21
$RDENS,2671,4672402,PC
$GPGGA,125845.80,4612.0646057,N,00607.2887917,E,4,07,1.6,368.491,M,49.480,M,0.21,0195*72
$GPVTG,333.9823,T,333.9823,M,1.022,N,1.894,K,D*23
$GPGGA,125846.00,4612.0646523,N,00607.2887555,E,4,07,1.6,368.496,M,49.480,M,0.41,0195*74
$GPVTG,333.7513,T,333.7513,M,0.946,N,1.752,K,D*2C
$GPGGA,125846.20,4612.0647001,N,00607.2887201,E,4,07,1.6,368.480,M,49.480,M,0.61,0195*71
$GPVTG,328.6570,T,328.6570,M,0.904,N,1.676,K,D*2D
$RDENS,2672,4672488,PC
$GPGGA,125846.60,4612.0647905,N,00607.2886523,E,4,07,1.6,368.475,M,49.480,M,1.01,0195*73
$GPVTG,336.1931,T,336.1931,M,0.931,N,1.725,K,D*2C
$GPGGA,125846.80,4612.0648340,N,00607.2886240,E,4,07,1.6,368.483,M,49.480,M,1.21,0195*70
$GPVTG,333.7840,T,333.7840,M,0.945,N,1.751,K,D*2C
$GPGGA,125847.20,4612.0649220,N,00607.2885650,E,4,07,1.6,368.490,M,49.480,M,0.06,0195*7D
$GPVTG,332.9001,T,332.9001,M,0.913,N,1.693,K,D*20
$RDENS,2673,4672574,PC
$GPGGA,125847.40,4612.0649728,N,00607.2885306,E,4,07,1.6,368.470,M,49.480,M,0.26,0195*7C
$GPVTG,339.5116,T,339.5116,M,0.914,N,1.693,K,D*27
$GPGGA,125847.80,4612.0650648,N,00607.2884812,E,4,07,1.6,368.476,M,49.480,M,0.66,0195*72
$GPVTG,338.3644,T,338.3644,M,0.907,N,1.681,K,D*26
$GPGGA,125848.00,4612.0651091,N,00607.2884605,E,4,07,1.6,368.491,M,49.480,M,0.86,0195*79
$GPVTG,343.5856,T,343.5856,M,0.914,N,1.694,K,D*20
$RDENS,2674,4672661,PC
$GPGGA,125848.40,4612.0652052,N,00607.2884195,E,4,07,1.6,368.505,M,49.481,M,1.26,0195*79
$GPVTG,342.9520,T,342.9520,M,0.879,N,1.629,K,D*2C
$GPGGA,125848.60,4612.0652496,N,00607.2883957,E,4,07,1.6,368.495,M,49.481,M,0.10,0195*7A
$GPVTG,338.7277,T,338.7277,M,0.845,N,1.566,K,D*2B
$GPGGA,125849.00,4612.0653284,N,00607.2883535,E,4,07,1.6,368.505,M,49.481,M,0.21,0195*7B
$GPVTG,338.2590,T,338.2590,M,0.733,N,1.359,K,D*2F
$RDENS,2675,4672747,PC
$GPGGA,125849.20,4612.0653690,N,00607.2883309,E,4,07,1.6,368.508,M,49.481,M,0.03,0195*7C
$GPVTG,334.6591,T,334.6591,M,0.710,N,1.315,K,D*26
$GPGGA,125849.60,4612.0654398,N,00607.2882795,E,4,07,1.6,368.499,M,49.481,M,0.12,0195*7B
$GPVTG,332.3171,T,332.3171,M,0.738,N,1.368,K,D*26
$GPVTG,327.5768,T,327.5768,M,0.620,N,1.150,K,D*27
$RDENS,2676,4672833,PC
$GPGGA,125850.00,4612.0655046,N,00607.2882252,E,4,07,1.6,368.528,M,49.481,M,0.52,0195*75
$GPVTG,329.1757,T,329.1757,M,0.711,N,1.317,K,D*25
$GPGGA,125850.20,4612.0655379,N,00607.2881963,E,4,07,1.6,368.515,M,49.481,M,0.72,0195*7E
$GPVTG,336.5141,T,336.5141,M,0.653,N,1.211,K,D*25
$GPGGA,125850.60,4612.0656052,N,00607.2881536,E,4,07,1.6,368.512,M,49.481,M,1.12,0195*7F
$GPVTG,338.0960,T,338.0960,M,0.631,N,1.169,K,D*2D
$RDENS,2677,4672919,PC
$GPGGA,125850.80,4612.0656417,N,00607.2881348,E,4,07,1.6,368.510,M,49.481,M,1.32,0195*7B
$GPVTG,344.3437,T,344.3437,M,0.609,N,1.129,K,D*22
$GPGGA,125851.20,4612.0657135,N,00607.2881080,E,4,07,1.6,368.504,M,49.481,M,1.72,0195*72
$GPVTG,346.4375,T,346.4375,M,0.714,N,1.323,K,D*27
$GPGGA,125851.40,4612.0657505,N,00607.2881014,E,4,07,1.6,368.509,M,49.481,M,1.92,0195*7D
$GPVTG,351.8370,T,351.8370,M,0.663,N,1.230,K,D*25
$RDENS,2678,4673005,PC
$GPGGA,125851.80,4612.0658230,N,00607.2880863,E,4,07,1.6,368.499,M,49.481,M,2.32,0195*77
$GPVTG,350.6961,T,350.6961,M,0.628,N,1.165,K,D*29
$GPGGA,125852.00,4612.0658579,N,00607.2880791,E,4,07,1.6,368.494,M,49.481,M,2.52,0195*7F
$GPVTG,355.7141,T,355.7141,M,0.555,N,1.028,K,D*28
$GPGGA,125852.40,4612.0659172,N,00607.2880688,E,4,07,1.6,368.494,M,49.481,M,2.92,0195*70
$GPVTG,351.3499,T,351.3499,M,0.545,N,1.009,K,D*2A
$RDENS,2679,4673091,PC
$GPGGA,125852.60,4612.0659433,N,00607.2880622,E,4,07,1.6,368.493,M,49.481,M,3.12,0195*7C
$GPVTG,351.5786,T,351.5786,M,0.473,N,0.877,K,D*2E
$GPGGA,125853.00,4612.0659973,N,00607.2880436,E,4,07,1.6,368.489,M,49.481,M,3.52,0195*7A
$GPVTG,350.7072,T,350.7072,M,0.448,N,0.829,K,D*2D
$GPGGA,125853.20,4612.0660198,N,00607.2880352,E,4,07,1.6,368.500,M,49.481,M,3.72,0195*78
$GPVTG,350.4605,T,350.4605,M,0.354,N,0.656,K,D*21
$RDENS,2680,4673177,PC
$GPGGA,125853.60,4612.0660600,N,00607.2880182,E,4,07,1.6,368.492,M,49.481,M,4.12,0195*7E
$GPVTG,341.7434,T,341.7434,M,0.343,N,0.635,K,D*22
$GPGGA,125853.80,4612.0660776,N,00607.2880076,E,4,07,1.6,368.494,M,49.481,M,4.32,0195*7E
$GPVTG,332.4187,T,332.4187,M,0.328,N,0.608,K,D*21
$GPGGA,125854.20,4612.0661039,N,00607.2879837,E,4,07,1.6,368.495,M,49.481,M,4.72,0195*70
$GPVTG,326.0310,T,326.0310,M,0.261,N,0.483,K,D*2C
$RDENS,2681,4673263,PC
$GPGGA,125854.40,4612.0661166,N,00607.2879694,E,4,07,1.6,368.501,M,49.481,M,4.92,0195*78
$GPVTG,315.0901,T,315.0901,M,0.330,N,0.612,K,D*23
$GPGGA,125854.60,4612.0661281,N,00607.2879562,E,4,07,1.6,368.508,M,49.481,M,5.12,0195*7A
$GPVTG,311.7846,T,311.7846,M,0.230,N,0.427,K,D*26
$GPGGA,125855.00,4612.0661499,N,00607.2879181,E,4,07,1.6,368.492,M,49.481,M,5.52,0195*7D
$RDENS,2682,4673349,PC
$GPVTG,299.8718,T,299.8718,M,0.233,N,0.431,K,D*22
$GPGGA,125855.20,4612.0661576,N,00607.2878986,E,4,07,1.6,368.491,M,49.481,M,5.72,0195*70
$GPVTG,286.7399,T,286.7399,M,0.301,N,0.559,K,D*2D
$GPGGA,125855.60,4612.0661706,N,00607.2878569,E,4,07,1.6,368.492,M,49.481,M,6.12,0195*7A
$GPVTG,292.5134,T,292.5134,M,0.281,N,0.521,K,D*2B
$GPGGA,125855.80,4612.0661748,N,00607.2878351,E,4,07,1.6,368.484,M,49.481,M,6.32,0195*76
$RDENS,2683,4673435,PC
$GPVTG,281.1467,T,281.1467,M,0.265,N,0.492,K,D*28
$GPGGA,125856.20,4612.0661793,N,00607.2877871,E,4,07,1.6,368.480,M,49.481,M,6.72,0195*7F
$GPVTG,274.8589,T,274.8589,M,0.314,N,0.581,K,D*2C
$GPGGA,125856.40,4612.0661819,N,00607.2877601,E,4,07,1.6,368.483,M,49.481,M,6.92,0195*70
$GPVTG,275.1993,T,275.1993,M,0.277,N,0.513,K,D*23
$GPGGA,125856.80,4612.0661895,N,00607.2877074,E,4,07,1.6,368.472,M,49.481,M,0.07,0195*78
$RDENS,2684,4673521,PC
$GPVTG,273.1020,T,273.1020,M,0.356,N,0.660,K,D*26
$GPGGA,125857.00,4612.0661996,N,00607.2876832,E,4,07,1.6,368.486,M,49.481,M,0.11,0195*74
$GPVTG,283.7622,T,283.7622,M,0.319,N,0.591,K,D*20
$GPGGA,125857.40,4612.0662083,N,00607.2876414,E,4,07,1.6,368.502,M,49.481,M,0.20,0195*79
$GPVTG,289.3369,T,289.3369,M,0.275,N,0.510,K,D*22
$GPGGA,125857.60,4612.0662126,N,00607.2876188,E,4,07,1.6,368.510,M,49.481,M,0.01,0195*75
$RDENS,2685,4673607,PC
$GPVTG,279.9204,T,279.9204,M,0.309,N,0.572,K,D*2C
$GPGGA,125858.00,4612.0662146,N,00607.2875696,E,4,07,1.6,368.534,M,49.481,M,0.39,0195*7C
$GPVTG,273.2784,T,273.2784,M,0.352,N,0.652,K,D*23
$GPGGA,125858.20,4612.0662219,N,00607.2875361,E,4,07,1.6,368.528,M,49.481,M,0.59,0195*71
$GPVTG,282.7525,T,282.7525,M,0.433,N,0.802,K,D*28
$RDENS,2686,4673693,PC
$GPGGA,125858.60,4612.0662306,N,00607.2874764,E,4,07,1.6,368.550,M,49.481,M,0.16,0195*7E
$GPVTG,280.6996,T,280.6996,M,0.419,N,0.776,K,D*2C
$GPGGA,125858.80,4612.0662391,N,00607.2874456,E,4,07,1.6,368.540,M,49.481,M,0.36,0195*7F
$GPVTG,307.8753,T,307.8753,M,0.433,N,0.802,K,D*28
$GPGGA,125859.20,4612.0662694,N,00607.2873885,E,4,07,1.6,368.540,M,49.481,M,0.76,0195*75
$GPVTG,307.5246,T,307.5246,M,0.424,N,0.786,K,D*2D
$RDENS,2687,4673779,PC
$GPGGA,125859.40,4612.0662866,N,00607.2873556,E,4,07,1.6,368.540,M,49.481,M,0.05,0195*77
$GPVTG,319.1989,T,319.1989,M,0.420,N,0.779,K,D*29
$GPGGA,125859.60,4612.0663033,N,00607.2873330,E,4,07,1.6,368.554,M,49.481,M,0.15,0195*7E
$GPVTG,320.4618,T,320.4618,M,0.508,N,0.941,K,D*27
$GPGGA,125900.00,4612.0663444,N,00607.2872812,E,4,07,1.6,368.559,M,49.481,M,0.55,0195*72
$GPVTG,315.6526,T,315.6526,M,0.510,N,0.945,K,D*2A
$RDENS,2688,4673865,PC
$GPGGA,125900.20,4612.0663636,N,00607.2872486,E,4,07,1.6,368.548,M,49.481,M,0.75,0195*74
$GPVTG,311.9706,T,311.9706,M,0.501,N,0.928,K,D*21
$GPGGA,125900.60,4612.0664010,N,00607.2871881,E,4,07,1.6,368.528,M,49.481,M,1.15,0195*7C
$GPVTG,312.0107,T,312.0107,M,0.519,N,0.962,K,D*26
$GPGGA,125900.80,4612.0664183,N,00607.2871543,E,4,07,1.6,368.507,M,49.481,M,0.07,0195*75
$GPVTG,311.9019,T,311.9019,M,0.498,N,0.923,K,D*2B
$RDENS,2689,4673951,PC
$GPGGA,125901.20,4612.0664577,N,00607.2871022,E,4,07,1.6,368.525,M,49.481,M,0.33,0195*74
$GPVTG,318.5377,T,318.5377,M,0.516,N,0.957,K,D*2F
$GPGGA,125901.40,4612.0664809,N,00607.2870795,E,4,07,1.6,368.537,M,49.481,M,0.07,0195*78
$GPVTG,325.8531,T,325.8531,M,0.491,N,0.910,K,D*22
$GPGGA,125901.80,4612.0665275,N,00607.2870313,E,4,07,1.6,368.559,M,49.481,M,0.33,0195*71
$GPVTG,326.0651,T,326.0651,M,0.537,N,0.995,K,D*22
$RDENS,2690,4674037,PC
$GPGGA,125902.00,4612.0665483,N,00607.2870158,E,4,07,1.6,368.579,M,49.481,M,0.53,0195*7C
$GPVTG,332.1447,T,332.1447,M,0.570,N,1.057,K,D*27
$GPGGA,125902.40,4612.0666020,N,00607.2869779,E,4,07,1.6,368.547,M,49.481,M,0.93,0195*7A
$GPVTG,334.9304,T,334.9304,M,0.545,N,1.011,K,D*23
$GPGGA,125902.60,4612.0666322,N,00607.2869559,E,4,07,1.6,368.514,M,49.481,M,1.13,0195*76
$GPVTG,339.4498,T,339.4498,M,0.451,N,0.835,K,D*28
$RDENS,2691,4674123,PC
$GPGGA,125903.00,4612.0666848,N,00607.2869276,E,4,07,1.6,368.488,M,49.481,M,0.25,0195*7C
$GPVTG,341.9477,T,341.9477,M,0.477,N,0.884,K,D*26
$GPGGA,125903.20,4612.0667115,N,00607.2869186,E,4,07,1.6,368.487,M,49.481,M,0.45,0195*7B
$GPVTG,346.9298,T,346.9298,M,0.434,N,0.804,K,D*29
$GPGGA,125903.60,4612.0667557,N,00607.2869096,E,4,07,1.6,368.525,M,49.481,M,0.15,0195*71
$GPVTG,349.4701,T,349.4701,M,0.450,N,0.834,K,D*28
$RDENS,2692,4674209,PC
$GPGGA,125903.80,4612.0667797,N,00607.2869005,E,4,07,1.6,368.516,M,49.481,M,0.35,0195*79
$GPVTG,352.9654,T,352.9654,M,0.403,N,0.746,K,D*24
$GPGGA,125904.00,4612.0668021,N,00607.2868926,E,4,07,1.6,368.515,M,49.481,M,0.55,0195*7F
$GPVTG,349.7963,T,349.7963,M,0.405,N,0.751,K,D*24
$GPGGA,125904.40,4612.0668428,N,00607.2868842,E,4,07,1.6,368.515,M,49.481,M,0.95,0195*79
$GPVTG,350.2632,T,350.2632,M,0.353,N,0.653,K,D*23
$RDENS,2693,4674295,PC
$GPGGA,125904.60,4612.0668634,N,00607.2868842,E,4,07,1.6,368.517,M,49.481,M,0.00,0195*7A
$GPVTG,355.3274,T,355.3274,M,0.330,N,0.611,K,D*20
$GPGGA,125905.00,4612.0668991,N,00607.2868817,E,4,07,1.6,368.529,M,49.481,M,0.40,0195*74
$GPVTG,355.1375,T,355.1375,M,0.314,N,0.582,K,D*2F
$GPGGA,125905.20,4612.0669198,N,00607.2868783,E,4,07,1.6,368.517,M,49.481,M,0.60,0195*7B
$GPVTG,6.4224,T,6.4224,M,0.339,N,0.629,K,D*22
$RDENS,2694,4674381,PC
$GPGGA,125905.40,4612.0669396,N,00607.2868785,E,4,07,1.6,368.508,M,49.481,M,0.80,0195*77
$GPVTG,3.8355,T,3.8355,M,0.327,N,0.606,K,D*20
$GPGGA,125905.80,4612.0669771,N,00607.2868823,E,4,07,1.6,368.506,M,49.481,M,0.05,0195*76
$GPVTG,5.8734,T,5.8734,M,0.381,N,0.707,K,D*2C
$GPGGA,125906.00,4612.0669979,N,00607.2868893,E,4,07,1.6,368.509,M,49.481,M,0.15,0195*7E
$GPVTG,1.7813,T,1.7813,M,0.394,N,0.731,K,D*2D
$RDENS,2695,4674467,PC
$GPGGA,125906.40,4612.0670440,N,00607.2869008,E,4,07,1.6,368.517,M,49.481,M,0.55,0195*75
$GPVTG,17.1538,T,17.1538,M,0.387,N,0.718,K,D*24
$GPGGA,125906.80,4612.0670894,N,00607.2869254,E,4,07,1.6,368.524,M,49.481,M,0.95,0195*7B
$GPVTG,16.8767,T,16.8767,M,0.479,N,0.889,K,D*25
$GPGGA,125907.00,4612.0671153,N,00607.2869396,E,4,07,1.6,368.533,M,49.481,M,1.15,0195*71
$GPVTG,15.9992,T,15.9992,M,0.492,N,0.912,K,D*23
$RDENS,2696,4674553,PC
$GPGGA,125907.20,4612.0671413,N,00607.2869531,E,4,07,1.6,368.522,M,49.481,M,1.35,0195*7B
$GPVTG,23.3461,T,23.3461,M,0.547,N,1.014,K,D*24
$GPGGA,125907.60,4612.0671994,N,00607.2869873,E,4,07,1.6,368.508,M,49.481,M,0.09,0195*70
$GPVTG,25.2300,T,25.2300,M,0.543,N,1.006,K,D*23
$GPGGA,125907.80,4612.0672279,N,00607.2870095,E,4,07,1.6,368.507,M,49.481,M,0.11,0195*7B
$GPVTG,33.9137,T,33.9137,M,0.530,N,0.983,K,D*22
$RDENS,2697,4674639,PC
$GPGGA,125908.20,4612.0672777,N,00607.2870579,E,4,07,1.6,368.512,M,49.481,M,0.51,0195*72
$GPVTG,31.6243,T,31.6243,M,0.559,N,1.037,K,D*2A
$GPGGA,125908.40,4612.0673056,N,00607.2870820,E,4,07,1.6,368.499,M,49.481,M,0.71,0195*70
$GPVTG,33.5803,T,33.5803,M,0.567,N,1.051,K,D*27
$GPGGA,125908.80,4612.0673530,N,00607.2871377,E,4,07,1.6,368.521,M,49.481,M,0.04,0195*71
$RDENS,2698,4674725,PC
$GPVTG,35.9078,T,35.9078,M,0.554,N,1.027,K,D*26
$GPGGA,125909.00,4612.0673802,N,00607.2871599,E,4,07,1.6,368.512,M,49.481,M,0.16,0195*71
$GPVTG,37.0046,T,37.0046,M,0.558,N,1.033,K,D*2F
$GPGGA,125909.40,4612.0674251,N,00607.2872157,E,4,07,1.6,368.519,M,49.481,M,0.56,0195*74
$GPVTG,37.6930,T,37.6930,M,0.512,N,0.949,K,D*24
$GPGGA,125909.60,4612.0674466,N,00607.2872403,E,4,07,1.6,368.536,M,49.481,M,0.10,0195*7F
$RDENS,2699,4674811,PC
$GPVTG,33.5479,T,33.5479,M,0.537,N,0.995,K,D*22
$GPGGA,125909.80,4612.0674713,N,00607.2872614,E,4,07,1.6,368.520,M,49.481,M,0.30,0195*71
$GPVTG,39.5436,T,39.5436,M,0.478,N,0.886,K,D*2B
$GPGGA,125910.20,4612.0675115,N,00607.2873089,E,4,07,1.6,368.521,M,49.481,M,0.70,0195*74
$GPVTG,37.8882,T,37.8882,M,0.440,N,0.815,K,D*2A
$GPGGA,125910.40,4612.0675280,N,00607.2873276,E,4,07,1.6,368.520,M,49.481,M,0.90,0195*70
$RDENS,2700,4674897,PC
$GPVTG,36.7043,T,36.7043,M,0.483,N,0.895,K,D*2D
$GPGGA,125910.80,4612.0675691,N,00607.2873796,E,4,07,1.6,368.551,M,49.481,M,0.01,0195*7D
$GPVTG,36.7299,T,36.7299,M,0.429,N,0.794,K,D*23
$GPGGA,125911.00,4612.0675930,N,00607.2873985,E,4,07,1.6,368.541,M,49.481,M,0.19,0195*74
$GPVTG,29.9331,T,29.9331,M,0.438,N,0.812,K,D*22
$GPGGA,125911.40,4612.0676320,N,00607.2874445,E,4,07,1.6,368.553,M,49.481,M,0.59,0195*79
$RDENS,2701,4674983,PC
$GPVTG,34.9301,T,34.9301,M,0.433,N,0.803,K,D*29
$GPGGA,125911.60,4612.0676606,N,00607.2874658,E,4,07,1.6,368.529,M,49.481,M,0.79,0195*7B
$GPVTG,34.2467,T,34.2467,M,0.461,N,0.855,K,D*2D
$GPVTG,34.9471,T,34.9471,M,0.517,N,0.959,K,D*20
$GPGGA,125912.20,4612.0677246,N,00607.2875457,E,4,07,1.6,368.537,M,49.481,M,1.39,0195*7B
$RDENS,2702,4675069,PC
$GPVTG,34.3922,T,34.3922,M,0.587,N,1.087,K,D*22
$GPGGA,125912.40,4612.0677524,N,00607.2875731,E,4,07,1.6,368.555,M,49.481,M,0.03,0195*71
$GPVTG,36.7251,T,36.7251,M,0.620,N,1.149,K,D*2F
$GPGGA,125912.80,4612.0678035,N,00607.2876337,E,4,07,1.6,368.569,M,49.481,M,0.05,0195*7F
$GPVTG,41.6801,T,41.6801,M,0.599,N,1.109,K,D*2A
$GPGGA,125913.00,4612.0678312,N,00607.2876636,E,4,07,1.6,368.569,M,49.481,M,0.25,0195*76
$RDENS,2703,4675155,PC
$GPVTG,36.8873,T,36.8873,M,0.648,N,1.201,K,D*2E
$GPGGA,125913.40,4612.0678844,N,00607.2877343,E,4,07,1.6,368.570,M,49.481,M,0.65,0195*70
$GPVTG,41.4611,T,41.4611,M,0.657,N,1.217,K,D*27
