$GPGGA,134144.20,4612.0332151,N,00607.2134426,E,4,10,1.9,368.511,M,49.480,M,1.71,0195*7B
$GPVTG,158.9062,T,158.9062,M,0.443,N,0.822,K,D*2D
$GPGGA,134144.40,4612.0331895,N,00607.2134514,E,4,10,1.9,368.504,M,49.480,M,0.06,0195*7A
$GPVTG,165.0817,T,165.0817,M,0.418,N,0.775,K,D*2E
$GPGGA,134144.80,4612.0331478,N,00607.2134686,E,4,10,1.9,368.513,M,49.480,M,0.20,0195*73
$GPVTG,157.0462,T,157.0462,M,0.390,N,0.722,K,D*2B
$GPGGA,134145.00,4612.0331234,N,00607.2134851,E,4,10,1.9,368.500,M,49.480,M,0.15,0195*74
$GPVTG,159.3177,T,159.3177,M,0.402,N,0.745,K,D*26
$GPGGA,134145.40,4612.0330878,N,00607.2134983,E,4,10,1.9,368.481,M,49.480,M,0.25,0195*76
$GPVTG,165.2408,T,165.2408,M,0.305,N,0.565,K,D*26
$GPGGA,134145.60,4612.0330711,N,00607.2135002,E,4,10,1.9,368.499,M,49.480,M,0.45,0195*7A
$GPVTG,178.5491,T,178.5491,M,0.255,N,0.472,K,D*25
$GPGGA,134146.00,4612.0330462,N,00607.2135018,E,4,10,1.9,368.522,M,49.480,M,0.00,0195*73
$RDENS,638,4930437,PC
$GPVTG,176.9109,T,176.9109,M,0.177,N,0.329,K,D*2F
$GPGGA,134146.20,4612.0330373,N,00607.2135055,E,4,10,1.9,368.522,M,49.480,M,0.20,0195*7D
$GPVTG,174.3513,T,174.3513,M,0.190,N,0.352,K,D*2A
$GPGGA,134146.60,4612.0330146,N,00607.2135107,E,4,10,1.9,368.507,M,49.480,M,0.60,0195*78
$GPVTG,179.3878,T,179.3878,M,0.169,N,0.314,K,D*2E
$GPGGA,134146.80,4612.0330052,N,00607.2135096,E,4,10,1.9,368.496,M,49.480,M,0.80,0195*7C
$RDENS,639,4930523,PC
$GPVTG,197.3986,T,197.3986,M,0.185,N,0.343,K,D*2E
$GPGGA,134147.20,4612.0329862,N,00607.2135035,E,4,10,1.9,368.486,M,49.480,M,1.20,0195*77
$GPVTG,196.0550,T,196.0550,M,0.178,N,0.329,K,D*20
$GPGGA,134147.40,4612.0329792,N,00607.2134963,E,4,10,1.9,368.487,M,49.480,M,0.15,0195*7C
$GPVTG,204.2830,T,204.2830,M,0.164,N,0.303,K,D*25
$RDENS,640,4930609,PC
$GPGGA,134147.60,4612.0329710,N,00607.2134906,E,4,10,1.9,368.494,M,49.480,M,0.35,0195*77
$GPVTG,220.9870,T,220.9870,M,0.155,N,0.287,K,D*2A
$GPGGA,134148.00,4612.0329587,N,00607.2134733,E,4,10,1.9,368.512,M,49.480,M,0.75,0195*71
$GPVTG,208.9875,T,208.9875,M,0.158,N,0.293,K,D*22
$GPGGA,134148.20,4612.0329537,N,00607.2134661,E,4,10,1.9,368.516,M,49.480,M,0.95,0195*74
$GPVTG,229.5632,T,229.5632,M,0.142,N,0.263,K,D*26
$RDENS,641,4930695,PC
$GPGGA,134148.60,4612.0329503,N,00607.2134454,E,4,10,1.9,368.518,M,49.480,M,1.35,0195*76
$GPVTG,250.9427,T,250.9427,M,0.121,N,0.223,K,D*27
$GPGGA,134148.80,4612.0329449,N,00607.2134384,E,4,10,1.9,368.513,M,49.480,M,1.55,0195*70
$GPVTG,227.2952,T,227.2952,M,0.270,N,0.500,K,D*26
$GPGGA,134149.20,4612.0329306,N,00607.2134191,E,4,10,1.9,368.522,M,49.480,M,0.02,0195*70
$GPVTG,238.2635,T,238.2635,M,0.165,N,0.305,K,D*22
$RDENS,642,4930781,PC
$GPGGA,134149.40,4612.0329258,N,00607.2134052,E,4,11,1.9,368.533,M,49.480,M,0.22,0195*71
$GPVTG,247.5054,T,247.5054,M,0.149,N,0.276,K,D*29
$GPGGA,134149.80,4612.0329111,N,00607.2133767,E,4,11,1.9,368.531,M,49.480,M,0.15,0195*73
$GPVTG,240.3992,T,240.3992,M,0.215,N,0.398,K,D*22
$GPGGA,134150.00,4612.0329059,N,00607.2133636,E,4,11,1.9,368.530,M,49.480,M,0.12,0195*7D
$GPVTG,233.9890,T,233.9890,M,0.113,N,0.210,K,D*26
$RDENS,643,4930867,PC
$GPGGA,134150.40,4612.0329044,N,00607.2133479,E,4,11,1.9,368.539,M,49.480,M,0.28,0195*7C
$GPVTG,268.3232,T,268.3232,M,0.060,N,0.111,K,D*21
$GPGGA,134150.60,4612.0329074,N,00607.2133466,E,4,11,1.9,368.540,M,49.480,M,0.48,0195*7B
$GPVTG,23.6740,T,23.6740,M,0.114,N,0.212,K,D*23
$GPGGA,134151.00,4612.0329226,N,00607.2133603,E,4,11,1.9,368.536,M,49.480,M,0.88,0195*75
$GPVTG,41.6821,T,41.6821,M,0.160,N,0.297,K,D*2D
$RDENS,644,4930953,PC
$GPGGA,134151.20,4612.0329364,N,00607.2133751,E,4,11,1.9,368.539,M,49.480,M,1.08,0195*70
$GPVTG,56.9836,T,56.9836,M,0.256,N,0.474,K,D*20
$GPGGA,134151.60,4612.0329545,N,00607.2134146,E,4,11,1.9,368.534,M,49.480,M,1.48,0195*7F
$GPVTG,44.9442,T,44.9442,M,0.359,N,0.665,K,D*2C
$GPGGA,134151.80,4612.0329711,N,00607.2134317,E,4,11,1.9,368.535,M,49.480,M,1.68,0195*77
$GPVTG,48.3966,T,48.3966,M,0.344,N,0.637,K,D*27
$RDENS,645,4931039,PC
$GPGGA,134152.00,4612.0329853,N,00607.2134566,E,4,11,1.9,368.525,M,49.480,M,1.88,0195*7A
$GPVTG,49.9148,T,49.9148,M,0.557,N,1.033,K,D*20
$GPGGA,134152.40,4612.0330235,N,00607.2135144,E,4,11,1.9,368.537,M,49.480,M,2.28,0195*73
$GPVTG,48.6515,T,48.6515,M,0.455,N,0.844,K,D*2A
$GPGGA,134152.60,4612.0330380,N,00607.2135547,E,4,11,1.9,368.525,M,49.480,M,0.03,0195*71
$GPVTG,46.5361,T,46.5361,M,0.504,N,0.933,K,D*2E
$RDENS,646,4931125,PC
$GPGGA,134153.00,4612.0330769,N,00607.2136348,E,4,11,1.9,368.529,M,49.480,M,0.43,0195*77
$GPVTG,59.2342,T,59.2342,M,0.721,N,1.337,K,D*24
$GPGGA,134153.20,4612.0330920,N,00607.2136856,E,4,11,1.9,368.523,M,49.480,M,0.63,0195*7A
$GPVTG,45.2913,T,45.2913,M,0.744,N,1.379,K,D*2D
$GPGGA,134153.60,4612.0331512,N,00607.2137783,E,4,11,1.9,368.518,M,49.480,M,1.03,0195*7B
$GPVTG,51.5775,T,51.5775,M,0.721,N,1.335,K,D*26
$RDENS,647,4931211,PC
$GPGGA,134153.80,4612.0331679,N,00607.2138269,E,4,11,1.9,368.520,M,49.480,M,1.23,0195*7C
$GPVTG,48.3276,T,48.3276,M,0.873,N,1.619,K,D*25
$GPGGA,134154.20,4612.0332304,N,00607.2139333,E,4,11,1.9,368.514,M,49.480,M,1.63,0195*71
$GPVTG,49.2263,T,49.2263,M,0.962,N,1.783,K,D*26
$GPGGA,134154.40,4612.0332589,N,00607.2139899,E,4,11,1.9,368.518,M,49.480,M,1.83,0195*7D
$GPVTG,51.0723,T,51.0723,M,0.926,N,1.716,K,D*2A
$RDENS,648,4931297,PC
$GPGGA,134154.60,4612.0332971,N,00607.2140473,E,4,11,1.9,368.521,M,49.480,M,2.03,0195*73
$GPVTG,62.1618,T,62.1618,M,1.074,N,1.991,K,D*24
$GPGGA,134155.00,4612.0333565,N,00607.2141699,E,4,11,1.9,368.499,M,49.480,M,2.43,0195*7D
$GPVTG,52.2781,T,52.2781,M,0.762,N,1.413,K,D*22
$GPGGA,134155.20,4612.0333870,N,00607.2142378,E,4,11,1.9,368.496,M,49.480,M,2.63,0195*72
$GPVTG,46.1273,T,46.1273,M,1.041,N,1.929,K,D*21
$RDENS,649,4931383,PC
$GPGGA,134155.60,4612.0334698,N,00607.2143577,E,4,11,1.9,368.518,M,49.480,M,3.03,0195*71
$GPVTG,47.8981,T,47.8981,M,0.987,N,1.828,K,D*23
$GPGGA,134155.80,4612.0335066,N,00607.2144262,E,4,11,1.9,368.509,M,49.480,M,3.23,0195*7F
$GPVTG,45.5857,T,45.5857,M,1.107,N,2.051,K,D*27
$GPGGA,134156.20,4612.0335939,N,00607.2145490,E,4,11,1.9,368.521,M,49.480,M,3.63,0195*71
$GPVTG,44.4210,T,44.4210,M,1.078,N,1.997,K,D*2E
$RDENS,650,4931469,PC
$GPGGA,134156.40,4612.0336352,N,00607.2146100,E,4,11,1.9,368.518,M,49.480,M,0.09,0195*79
$GPVTG,37.6338,T,37.6338,M,1.148,N,2.128,K,D*23
$GPGGA,134156.80,4612.0337357,N,00607.2147277,E,4,11,1.9,368.525,M,49.480,M,0.31,0195*76
$GPVTG,37.7633,T,37.7633,M,1.202,N,2.227,K,D*22
$GPGGA,134157.00,4612.0337690,N,00607.2147932,E,4,11,1.9,368.482,M,49.480,M,0.51,0195*71
$GPVTG,37.5637,T,37.5637,M,1.220,N,2.262,K,D*23
$RDENS,651,4931555,PC
$GPGGA,134157.20,4612.0338165,N,00607.2148618,E,4,11,1.9,368.462,M,49.480,M,0.71,0195*75
$GPVTG,30.8553,T,30.8553,M,1.254,N,2.323,K,D*24
$GPGGA,134157.60,4612.0339422,N,00607.2149496,E,4,11,1.9,368.506,M,49.480,M,1.11,0195*77
$GPVTG,31.3467,T,31.3467,M,1.184,N,2.194,K,D*24
$GPGGA,134157.80,4612.0340059,N,00607.2149899,E,4,11,1.9,368.497,M,49.480,M,1.31,0195*77
$GPVTG,23.8272,T,23.8272,M,1.276,N,2.365,K,D*26
$RDENS,652,4931641,PC
$GPGGA,134158.20,4612.0341384,N,00607.2150681,E,4,11,1.9,368.519,M,49.480,M,1.71,0195*7C
$GPVTG,19.6893,T,19.6893,M,1.259,N,2.333,K,D*28
$GPGGA,134158.40,4612.0342101,N,00607.2150958,E,4,11,1.9,368.538,M,49.480,M,1.91,0195*70
$GPVTG,13.7327,T,13.7327,M,1.196,N,2.216,K,D*2E
$GPGGA,134158.80,4612.0343326,N,00607.2151380,E,4,11,1.9,368.509,M,49.480,M,2.31,0195*7F
$GPVTG,5.1658,T,5.1658,M,1.325,N,2.455,K,D*25
$RDENS,653,4931727,PC
$GPGGA,134159.00,4612.0344016,N,00607.2151480,E,4,11,1.9,368.515,M,49.480,M,2.51,0195*7D
$GPVTG,356.9624,T,356.9624,M,1.490,N,2.761,K,D*28
$GPGGA,134159.40,4612.0345706,N,00607.2151228,E,4,11,2.0,368.451,M,49.480,M,0.25,0195*70
$GPVTG,356.2406,T,356.2406,M,1.478,N,2.739,K,D*23
$GPGGA,134159.60,4612.0346548,N,00607.2151058,E,4,11,2.0,368.441,M,49.480,M,0.45,0195*7B
$GPVTG,347.5712,T,347.5712,M,1.539,N,2.853,K,D*24
$RDENS,654,4931825,PC
$GPGGA,134200.00,4612.0348334,N,00607.2150448,E,4,11,2.0,368.458,M,49.480,M,0.85,0195*71
$GPVTG,345.7794,T,345.7794,M,1.668,N,3.091,K,D*24
$GPGGA,134200.20,4612.0349080,N,00607.2150078,E,4,11,2.0,368.446,M,49.480,M,1.05,0195*7F
$GPVTG,340.9119,T,340.9119,M,1.843,N,3.416,K,D*28
$GPGGA,134200.40,4612.0350115,N,00607.2149531,E,4,11,2.0,368.454,M,49.480,M,1.25,0195*7D
$GPVTG,333.9423,T,333.9423,M,1.686,N,3.125,K,D*2A
$RDENS,655,4931915,PC
$GPGGA,134200.80,4612.0351738,N,00607.2148421,E,4,11,2.0,368.446,M,49.480,M,1.65,0195*7F
$GPVTG,333.8664,T,333.8664,M,1.928,N,3.573,K,D*26
$GPGGA,134201.00,4612.0352594,N,00607.2147630,E,4,11,2.0,368.423,M,49.480,M,1.85,0195*71
$GPVTG,331.6843,T,331.6843,M,2.024,N,3.751,K,D*22
$GPGGA,134201.40,4612.0354717,N,00607.2146057,E,4,11,2.0,368.525,M,49.480,M,0.13,0195*75
$GPVTG,328.5490,T,328.5490,M,2.049,N,3.797,K,D*23
$RDENS,656,4932005,PC
$GPGGA,134201.60,4612.0355741,N,00607.2145056,E,4,11,2.0,368.507,M,49.480,M,0.18,0195*7C
$GPVTG,322.7323,T,322.7323,M,2.123,N,3.935,K,D*28
$GPGGA,134202.00,4612.0357578,N,00607.2143116,E,4,11,2.0,368.480,M,49.480,M,0.22,0195*77
$GPVTG,324.6835,T,324.6835,M,2.169,N,4.020,K,D*2C
$GPGGA,134202.20,4612.0358691,N,00607.2142041,E,4,11,2.0,368.476,M,49.480,M,0.42,0195*73
$GPVTG,322.3371,T,322.3371,M,2.245,N,4.161,K,D*25
$RDENS,657,4932096,PC
$GPGGA,134202.60,4612.0360730,N,00607.2139782,E,4,11,2.0,368.508,M,49.480,M,0.82,0195*76
$GPVTG,323.0895,T,323.0895,M,2.265,N,4.198,K,D*21
$GPGGA,134202.80,4612.0361697,N,00607.2138643,E,4,11,2.0,368.477,M,49.480,M,1.02,0195*78
$GPVTG,321.1537,T,321.1537,M,2.361,N,4.375,K,D*25
$GPGGA,134203.20,4612.0363678,N,00607.2136304,E,4,11,2.0,368.483,M,49.480,M,1.42,0195*77
$GPVTG,321.2524,T,321.2524,M,2.224,N,4.122,K,D*25
$RDENS,658,4932185,PC
$GPGGA,134203.40,4612.0364547,N,00607.2135162,E,4,11,2.0,368.465,M,49.480,M,1.62,0195*72
$GPVTG,319.9554,T,319.9554,M,2.358,N,4.370,K,D*2A
$GPGGA,134203.80,4612.0366783,N,00607.2132728,E,4,11,2.0,368.495,M,49.480,M,2.02,0195*73
$GPVTG,322.1722,T,322.1722,M,2.328,N,4.314,K,D*2F
$GPGGA,134204.00,4612.0367748,N,00607.2131540,E,4,11,2.0,368.481,M,49.480,M,2.22,0195*72
$GPVTG,319.6679,T,319.6679,M,2.332,N,4.321,K,D*22
$GPGGA,134204.40,4612.0369729,N,00607.2129126,E,4,11,2.0,368.470,M,49.480,M,2.62,0195*78
$RDENS,659,4932275,PC
$GPVTG,319.7103,T,319.7103,M,2.296,N,4.256,K,D*2C
$GPGGA,134204.60,4612.0370640,N,00607.2127955,E,4,11,2.0,368.460,M,49.480,M,2.82,0195*71
$GPVTG,320.9835,T,320.9835,M,2.424,N,4.492,K,D*2D
$GPGGA,134204.80,4612.0371671,N,00607.2126734,E,4,11,2.0,368.462,M,49.480,M,3.02,0195*7F
$GPVTG,318.9349,T,318.9349,M,2.183,N,4.045,K,D*2B
$GPVTG,320.3828,T,320.3828,M,2.433,N,4.510,K,D*20
$RDENS,660,4932365,PC
$GPGGA,134205.40,4612.0374810,N,00607.2123096,E,4,11,2.0,368.474,M,49.481,M,3.62,0195*74
$GPVTG,323.3274,T,323.3274,M,2.377,N,4.405,K,D*22
$GPGGA,134205.60,4612.0375820,N,00607.2122005,E,4,11,2.0,368.454,M,49.481,M,3.82,0195*73
$GPVTG,322.6174,T,322.6174,M,2.322,N,4.304,K,D*24
$GPGGA,134206.00,4612.0377912,N,00607.2119690,E,4,11,2.0,368.462,M,49.481,M,4.22,0195*7E
$GPVTG,321.8071,T,321.8071,M,2.365,N,4.382,K,D*29
$RDENS,661,4932454,PC
$GPGGA,134206.20,4612.0378911,N,00607.2118601,E,4,11,2.0,368.457,M,49.481,M,4.42,0195*79
$GPVTG,322.9542,T,322.9542,M,2.184,N,4.048,K,D*21
$GPGGA,134206.60,4612.0380996,N,00607.2116449,E,4,11,2.0,368.458,M,49.481,M,4.82,0195*76
$GPVTG,324.5382,T,324.5382,M,2.327,N,4.312,K,D*26
$GPGGA,134206.80,4612.0382052,N,00607.2115425,E,4,11,2.0,368.468,M,49.481,M,5.02,0195*78
$GPVTG,327.4422,T,327.4422,M,2.302,N,4.266,K,D*23
$RDENS,662,4932545,PC
$GPGGA,134207.20,4612.0384120,N,00607.2113566,E,4,11,2.0,368.487,M,49.481,M,5.42,0195*74
$GPVTG,328.3773,T,328.3773,M,2.033,N,3.768,K,D*2E
$GPGGA,134207.40,4612.0385125,N,00607.2112662,E,4,11,2.0,368.482,M,49.481,M,5.62,0195*77
$GPVTG,330.5853,T,330.5853,M,2.138,N,3.962,K,D*20
$GPGGA,134207.80,4612.0387220,N,00607.2111066,E,4,11,2.0,368.494,M,49.481,M,6.02,0195*7C
$GPVTG,332.6103,T,332.6103,M,2.077,N,3.849,K,D*22
$RDENS,663,4932635,PC
$GPGGA,134208.00,4612.0388166,N,00607.2110317,E,4,11,2.0,368.476,M,49.481,M,6.22,0195*7F
$GPVTG,333.8549,T,333.8549,M,2.086,N,3.866,K,D*21
$GPGGA,134208.40,4612.0390305,N,00607.2108837,E,4,11,2.0,368.475,M,49.481,M,0.13,0195*72
$GPVTG,334.8217,T,334.8217,M,2.036,N,3.774,K,D*26
$GPGGA,134208.60,4612.0391201,N,00607.2108162,E,4,11,2.0,368.452,M,49.481,M,0.33,0195*7A
$GPVTG,337.1007,T,337.1007,M,1.804,N,3.344,K,D*2B
$RDENS,664,4932726,PC
$GPGGA,134209.00,4612.0393102,N,00607.2106969,E,4,11,2.0,368.450,M,49.481,M,0.73,0195*74
$GPVTG,334.9750,T,334.9750,M,1.903,N,3.527,K,D*2E
$GPGGA,134209.20,4612.0394003,N,00607.2106450,E,4,11,2.0,368.457,M,49.481,M,0.93,0195*7F
$GPVTG,337.3320,T,337.3320,M,1.721,N,3.189,K,D*20
$GPGGA,134209.60,4612.0395685,N,00607.2105454,E,4,11,2.0,368.446,M,49.481,M,1.33,0195*7E
$GPVTG,337.2965,T,337.2965,M,1.731,N,3.208,K,D*2B
$RDENS,665,4932815,PC
$GPGGA,134209.80,4612.0396629,N,00607.2104985,E,4,11,2.0,368.453,M,49.481,M,1.53,0195*77
$GPVTG,341.0839,T,341.0839,M,1.642,N,3.043,K,D*23
$GPGGA,134210.00,4612.0397516,N,00607.2104511,E,4,11,2.0,368.458,M,49.481,M,1.73,0195*71
$GPVTG,339.7137,T,339.7137,M,1.724,N,3.194,K,D*29
$GPGGA,134210.40,4612.0399262,N,00607.2103638,E,4,11,2.0,368.465,M,49.481,M,0.05,0195*7E
$GPVTG,341.1687,T,341.1687,M,1.621,N,3.004,K,D*25
$RDENS,666,4932906,PC
$GPGGA,134210.60,4612.0400134,N,00607.2103277,E,4,11,2.0,368.473,M,49.481,M,0.25,0195*71
$GPVTG,342.8475,T,342.8475,M,1.510,N,2.798,K,D*27
$GPGGA,134211.00,4612.0401826,N,00607.2102523,E,4,11,2.0,368.468,M,49.481,M,0.65,0195*74
$GPVTG,343.4151,T,343.4151,M,1.658,N,3.072,K,D*2A
$GPGGA,134211.20,4612.0402590,N,00607.2102229,E,4,11,2.0,368.466,M,49.481,M,0.85,0195*78
$GPVTG,345.7086,T,345.7086,M,1.563,N,2.896,K,D*22
$RDENS,667,4932995,PC
$GPGGA,134211.60,4612.0404241,N,00607.2101546,E,4,11,2.0,368.458,M,49.481,M,1.25,0195*7A
$GPVTG,343.1540,T,343.1540,M,1.551,N,2.875,K,D*2E
$GPGGA,134211.80,4612.0405115,N,00607.2101217,E,4,11,2.0,368.471,M,49.481,M,1.45,0195*79
$GPVTG,343.1537,T,343.1537,M,1.601,N,2.966,K,D*2B
$GPGGA,134212.20,4612.0406837,N,00607.2100500,E,4,11,2.0,368.463,M,49.481,M,1.85,0195*75
$GPVTG,343.8342,T,343.8342,M,1.649,N,3.056,K,D*2C
$RDENS,668,4933083,PC
$GPGGA,134212.40,4612.0407673,N,00607.2100164,E,4,11,2.0,368.460,M,49.481,M,2.05,0195*72
$GPVTG,343.4641,T,343.4641,M,1.648,N,3.055,K,D*2E
$GPGGA,134212.80,4612.0409522,N,00607.2099441,E,4,11,2.0,368.459,M,49.481,M,2.45,0195*7A
$GPVTG,343.7531,T,343.7531,M,1.702,N,3.154,K,D*21
$GPGGA,134213.00,4612.0410484,N,00607.2099065,E,4,11,2.0,368.455,M,49.481,M,2.65,0195*7A
$GPVTG,345.0524,T,345.0524,M,1.744,N,3.231,K,D*23
$RDENS,669,4933173,PC
$GPGGA,134213.40,4612.0412284,N,00607.2098393,E,4,11,2.0,368.459,M,49.481,M,3.05,0195*7A
$GPVTG,346.1127,T,346.1127,M,1.767,N,3.275,K,D*22
$GPGGA,134213.60,4612.0413210,N,00607.2098049,E,4,11,2.0,368.454,M,49.481,M,3.25,0195*7F
$GPVTG,345.5498,T,345.5498,M,1.782,N,3.303,K,D*29
$GPGGA,134214.00,4612.0415147,N,00607.2097361,E,4,11,2.0,368.457,M,49.481,M,3.65,0195*78
$GPVTG,345.8180,T,345.8180,M,1.837,N,3.405,K,D*29
$RDENS,670,4933263,PC
$GPGGA,134214.20,4612.0416170,N,00607.2097014,E,4,11,2.0,368.460,M,49.481,M,3.85,0195*76
$GPVTG,346.9167,T,346.9167,M,1.870,N,3.466,K,D*2F
$GPGGA,134214.60,4612.0418255,N,00607.2096252,E,4,11,2.0,368.479,M,49.481,M,4.25,0195*7C
$GPVTG,346.4370,T,346.4370,M,1.944,N,3.602,K,D*29
$GPGGA,134214.80,4612.0419356,N,00607.2095894,E,4,11,2.0,368.483,M,49.481,M,4.45,0195*71
$GPVTG,345.0570,T,345.0570,M,2.041,N,3.782,K,D*2F
$GPGGA,134215.00,4612.0420380,N,00607.2095518,E,4,11,2.0,368.468,M,49.481,M,4.65,0195*77
$RDENS,671,4933354,PC
$GPVTG,347.1277,T,347.1277,M,2.107,N,3.905,K,D*2D
$GPGGA,134215.40,4612.0422654,N,00607.2094785,E,4,11,2.0,368.471,M,49.481,M,5.05,0195*75
$GPVTG,347.6243,T,347.6243,M,2.013,N,3.730,K,D*21
$GPGGA,134215.60,4612.0423845,N,00607.2094380,E,4,11,2.0,368.481,M,49.481,M,5.25,0195*74
$GPVTG,348.5464,T,348.5464,M,1.991,N,3.690,K,D*2A
$GPGGA,134216.00,4612.0425938,N,00607.2093796,E,4,11,2.0,368.463,M,49.481,M,5.65,0195*70
$RDENS,672,4933445,PC
$GPVTG,347.5393,T,347.5393,M,2.033,N,3.768,K,D*2E
$GPGGA,134216.20,4612.0427124,N,00607.2093435,E,4,11,2.0,368.461,M,49.481,M,5.85,0195*73
$GPVTG,348.5133,T,348.5133,M,1.991,N,3.689,K,D*22
$GPGGA,134216.60,4612.0429307,N,00607.2092822,E,4,11,2.0,368.454,M,49.481,M,6.25,0195*7E
$GPVTG,348.9207,T,348.9207,M,2.096,N,3.884,K,D*2C
$GPGGA,134216.80,4612.0430388,N,00607.2092596,E,4,11,2.0,368.455,M,49.481,M,6.45,0195*7A
$RDENS,673,4933535,PC
$GPVTG,349.0163,T,349.0163,M,2.105,N,3.900,K,D*2A
$GPGGA,134217.20,4612.0432562,N,00607.2092014,E,4,11,2.0,368.471,M,49.481,M,0.04,0195*7B
$GPVTG,349.8715,T,349.8715,M,1.857,N,3.442,K,D*2C
$GPGGA,134217.40,4612.0433780,N,00607.2091704,E,4,10,2.0,368.485,M,49.481,M,0.10,0195*78
$GPVTG,348.7914,T,348.7914,M,1.846,N,3.422,K,D*2A
$GPGGA,134217.80,4612.0435847,N,00607.2091094,E,4,10,2.0,368.490,M,49.481,M,0.04,0195*79
$RDENS,674,4933626,PC
$GPVTG,348.5633,T,348.5633,M,2.003,N,3.711,K,D*23
$GPGGA,134218.00,4612.0436877,N,00607.2090881,E,4,10,2.0,368.496,M,49.481,M,0.24,0195*77
$GPVTG,350.3745,T,350.3745,M,1.911,N,3.542,K,D*2E
$GPGGA,134218.40,4612.0438933,N,00607.2090414,E,4,10,2.0,368.488,M,49.481,M,0.64,0195*77
$GPVTG,350.2829,T,350.2829,M,1.872,N,3.469,K,D*22
$GPGGA,134218.60,4612.0440010,N,00607.2090146,E,4,10,2.0,368.508,M,49.481,M,0.84,0195*77
$GPVTG,350.5310,T,350.5310,M,1.875,N,3.475,K,D*28
$RDENS,675,4933716,PC
$GPGGA,134219.00,4612.0442134,N,00607.2089632,E,4,10,2.0,368.495,M,49.481,M,0.13,0195*72
$GPVTG,349.9209,T,349.9209,M,1.907,N,3.533,K,D*2F
$GPGGA,134219.20,4612.0443147,N,00607.2089370,E,4,10,2.0,368.489,M,49.481,M,0.33,0195*79
$GPVTG,352.2713,T,352.2713,M,1.863,N,3.453,K,D*2B
$GPGGA,134219.40,4612.0444140,N,00607.2089126,E,4,10,2.0,368.487,M,49.481,M,0.53,0195*76
$GPVTG,348.2378,T,348.2378,M,1.800,N,3.336,K,D*2A
$RDENS,676,4933805,PC
$GPGGA,134219.80,4612.0446321,N,00607.2088572,E,4,12,2.0,368.501,M,49.481,M,0.12,0195*71
$GPVTG,351.2016,T,351.2016,M,1.931,N,3.578,K,D*25
$GPGGA,134220.00,4612.0447215,N,00607.2088417,E,4,12,2.0,368.488,M,49.481,M,0.32,0195*74
$GPVTG,350.5835,T,350.5835,M,1.828,N,3.388,K,D*25
$GPGGA,134220.40,4612.0449545,N,00607.2087721,E,4,12,2.0,368.494,M,49.481,M,0.72,0195*7C
$GPVTG,346.6338,T,346.6338,M,2.023,N,3.749,K,D*2C
$RDENS,677,4933893,PC
$GPGGA,134220.60,4612.0450422,N,00607.2087522,E,4,12,2.0,368.462,M,49.481,M,0.92,0195*70
$GPVTG,349.2101,T,349.2101,M,2.006,N,3.718,K,D*2F
$GPGGA,134221.00,4612.0452551,N,00607.2086929,E,4,12,2.0,368.442,M,49.481,M,1.32,0195*7F
$GPVTG,349.1113,T,349.1113,M,1.984,N,3.677,K,D*27
$GPGGA,134221.20,4612.0453701,N,00607.2086548,E,4,12,2.0,368.446,M,49.481,M,1.52,0195*72
$GPVTG,350.5847,T,350.5847,M,1.937,N,3.591,K,D*24
$RDENS,678,4933984,PC
$GPGGA,134221.60,4612.0455953,N,00607.2085843,E,4,12,2.0,368.486,M,49.481,M,0.04,0195*72
$GPVTG,346.9992,T,346.9992,M,2.090,N,3.873,K,D*22
$GPGGA,134221.80,4612.0456964,N,00607.2085604,E,4,12,2.0,368.479,M,49.481,M,0.24,0195*74
$GPVTG,348.4083,T,348.4083,M,2.157,N,3.997,K,D*23
$GPGGA,134222.20,4612.0459379,N,00607.2084878,E,4,12,2.0,368.497,M,49.481,M,0.21,0195*75
$GPVTG,347.8466,T,347.8466,M,2.103,N,3.897,K,D*23
$RDENS,679,4934075,PC
$GPGGA,134222.40,4612.0460420,N,00607.2084557,E,4,12,2.0,368.492,M,49.481,M,0.41,0195*71
$GPVTG,346.3288,T,346.3288,M,2.095,N,3.882,K,D*29
$GPGGA,134222.80,4612.0462585,N,00607.2083844,E,4,12,2.0,368.456,M,49.481,M,0.10,0195*75
$GPVTG,348.4622,T,348.4622,M,2.098,N,3.888,K,D*2E
$GPGGA,134223.00,4612.0463875,N,00607.2083356,E,4,12,2.0,368.464,M,49.481,M,0.30,0195*74
$GPVTG,347.7887,T,347.7887,M,2.062,N,3.822,K,D*2B
$RDENS,680,4934166,PC
$GPGGA,134223.40,4612.0466086,N,00607.2082701,E,4,12,2.0,368.472,M,49.481,M,0.70,0195*75
$GPVTG,347.6627,T,347.6627,M,2.148,N,3.981,K,D*2A
$GPGGA,134223.60,4612.0467270,N,00607.2082339,E,4,12,2.0,368.477,M,49.481,M,0.07,0195*77
$GPVTG,348.3196,T,348.3196,M,2.143,N,3.971,K,D*2E
$GPGGA,134223.80,4612.0468403,N,00607.2082019,E,4,12,2.0,368.474,M,49.481,M,0.13,0195*73
$GPVTG,348.6441,T,348.6441,M,2.071,N,3.837,K,D*2D
$RDENS,681,4934256,PC
$GPGGA,134224.20,4612.0470773,N,00607.2081336,E,4,12,2.0,368.483,M,49.481,M,0.53,0195*72
$GPVTG,349.8976,T,349.8976,M,2.229,N,4.130,K,D*2B
$GPGGA,134224.40,4612.0471974,N,00607.2080953,E,4,12,2.0,368.485,M,49.481,M,0.13,0195*76
$GPVTG,348.9880,T,348.9880,M,2.138,N,3.963,K,D*21
$GPGGA,134224.80,4612.0474239,N,00607.2080320,E,4,12,2.0,368.456,M,49.481,M,0.27,0195*7A
$GPVTG,348.9867,T,348.9867,M,2.146,N,3.977,K,D*2D
$RDENS,682,4934344,PC
$GPGGA,134225.00,4612.0475507,N,00607.2079917,E,4,12,2.0,368.454,M,49.481,M,0.47,0195*74
$GPVTG,347.9012,T,347.9012,M,2.198,N,4.073,K,D*24
$GPGGA,134225.40,4612.0477793,N,00607.2079221,E,4,12,2.0,368.442,M,49.481,M,0.05,0195*72
$GPVTG,347.1041,T,347.1041,M,2.094,N,3.881,K,D*2B
$GPGGA,134225.60,4612.0478947,N,00607.2078817,E,4,12,2.0,368.442,M,49.481,M,0.15,0195*77
$GPVTG,345.2563,T,345.2563,M,2.097,N,3.886,K,D*2F
$RDENS,683,4934435,PC
$GPGGA,134226.00,4612.0481339,N,00607.2077938,E,4,12,2.0,368.455,M,49.481,M,0.55,0195*76
$GPVTG,346.1967,T,346.1967,M,2.214,N,4.102,K,D*24
$GPGGA,134226.20,4612.0482479,N,00607.2077573,E,4,12,2.0,368.438,M,49.481,M,0.75,0195*7E
$GPVTG,345.2220,T,345.2220,M,2.242,N,4.155,K,D*25
$GPGGA,134226.60,4612.0484829,N,00607.2076691,E,4,12,2.0,368.435,M,49.481,M,1.15,0195*71
$GPVTG,345.4976,T,345.4976,M,2.210,N,4.095,K,D*2F
$RDENS,684,4934526,PC
$GPGGA,134226.80,4612.0485991,N,00607.2076296,E,4,12,2.0,368.439,M,49.481,M,1.35,0195*71
$GPVTG,346.3339,T,346.3339,M,2.180,N,4.040,K,D*2D
$GPGGA,134227.20,4612.0488409,N,00607.2075452,E,4,12,2.0,368.444,M,49.481,M,0.24,0195*7D
$GPVTG,346.2295,T,346.2295,M,2.208,N,4.093,K,D*20
$GPVTG,347.0155,T,347.0155,M,2.045,N,3.790,K,D*28
$GPGGA,134227.60,4612.0490756,N,00607.2074719,E,4,12,2.0,368.449,M,49.481,M,0.20,0195*7D
$GPVTG,345.5492,T,345.5492,M,2.126,N,3.940,K,D*2F
$RDENS,685,4934617,PC
$GPGGA,134227.80,4612.0491885,N,00607.2074356,E,4,12,2.0,368.442,M,49.481,M,0.40,0195*71
$GPVTG,348.4972,T,348.4972,M,2.245,N,4.161,K,D*25
$GPGGA,134228.20,4612.0494170,N,00607.2073621,E,4,12,2.0,368.436,M,49.481,M,0.80,0195*7F
$GPVTG,348.3025,T,348.3025,M,2.036,N,3.773,K,D*21
$GPGGA,134228.40,4612.0495308,N,00607.2073222,E,4,12,2.0,368.441,M,49.481,M,1.00,0195*7B
$GPVTG,346.5548,T,346.5548,M,2.134,N,3.955,K,D*28
$RDENS,686,4934708,PC
$GPGGA,134228.80,4612.0497605,N,00607.2072461,E,4,12,2.0,368.448,M,49.481,M,1.40,0195*70
$GPVTG,347.9322,T,347.9322,M,2.067,N,3.831,K,D*2C
$GPGGA,134229.00,4612.0498697,N,00607.2072137,E,4,12,2.0,368.455,M,49.481,M,1.60,0195*75
$GPVTG,347.8769,T,347.8769,M,2.091,N,3.875,K,D*25
$GPGGA,134229.40,4612.0500822,N,00607.2071478,E,4,12,2.0,368.444,M,49.481,M,2.00,0195*79
$GPVTG,347.6627,T,347.6627,M,1.971,N,3.652,K,D*2A
$RDENS,687,4934799,PC
$GPGGA,134229.60,4612.0501958,N,00607.2071094,E,4,12,2.0,368.451,M,49.481,M,2.20,0195*76
$GPVTG,347.9473,T,347.9473,M,2.010,N,3.724,K,D*27
$GPGGA,134230.00,4612.0504098,N,00607.2070456,E,4,12,2.0,368.451,M,49.481,M,2.60,0195*77
$GPVTG,348.7754,T,348.7754,M,1.939,N,3.593,K,D*28
$GPGGA,134230.20,4612.0505157,N,00607.2070123,E,4,12,2.0,368.455,M,49.481,M,2.80,0195*7B
$GPVTG,348.6988,T,348.6988,M,1.872,N,3.469,K,D*22
$RDENS,688,4934889,PC
$GPGGA,134230.60,4612.0507245,N,00607.2069492,E,4,12,2.0,368.465,M,49.481,M,3.20,0195*72
$GPVTG,348.1766,T,348.1766,M,1.946,N,3.607,K,D*2E
$GPGGA,134230.80,4612.0508269,N,00607.2069201,E,4,12,2.0,368.460,M,49.481,M,3.40,0195*72
$GPVTG,351.7912,T,351.7912,M,1.800,N,3.337,K,D*2B
$GPGGA,134231.20,4612.0510320,N,00607.2068652,E,4,12,2.0,368.464,M,49.481,M,3.80,0195*77
$GPVTG,347.6495,T,347.6495,M,1.965,N,3.642,K,D*2E
$RDENS,689,4934981,PC
$GPGGA,134231.40,4612.0511314,N,00607.2068386,E,4,12,2.0,368.460,M,49.481,M,4.00,0195*70
$GPVTG,350.6018,T,350.6018,M,1.765,N,3.271,K,D*24
$GPGGA,134231.80,4612.0513286,N,00607.2067874,E,4,12,2.0,368.452,M,49.481,M,4.40,0195*78
$GPVTG,348.6844,T,348.6844,M,1.902,N,3.524,K,D*2C
$GPGGA,134232.00,4612.0514218,N,00607.2067622,E,4,12,2.0,368.446,M,49.481,M,4.60,0195*79
$GPVTG,350.2714,T,350.2714,M,1.814,N,3.362,K,D*2E
$RDENS,690,4935071,PC
$GPGGA,134232.20,4612.0515207,N,00607.2067344,E,4,12,2.0,368.444,M,49.481,M,4.80,0195*7D
$GPVTG,348.3532,T,348.3532,M,1.835,N,3.401,K,D*2F
$GPGGA,134232.60,4612.0517241,N,00607.2066752,E,4,12,2.0,368.460,M,49.481,M,5.20,0195*76
$GPVTG,349.9672,T,349.9672,M,1.827,N,3.386,K,D*24
$GPGGA,134232.80,4612.0518217,N,00607.2066475,E,4,12,2.0,368.461,M,49.481,M,5.40,0195*75
$GPVTG,348.5723,T,348.5723,M,1.851,N,3.430,K,D*2F
$GPGGA,134233.20,4612.0520233,N,00607.2065881,E,4,12,2.0,368.475,M,49.481,M,5.80,0195*7E
$RDENS,691,4935162,PC
$GPVTG,350.2769,T,350.2769,M,1.823,N,3.378,K,D*21
$GPGGA,134233.40,4612.0521198,N,00607.2065649,E,4,12,2.0,368.478,M,49.481,M,6.00,0195*77
$GPVTG,348.4116,T,348.4116,M,1.840,N,3.410,K,D*2D
$GPGGA,134233.80,4612.0523157,N,00607.2065170,E,4,12,2.0,368.482,M,49.481,M,6.40,0195*76
$GPVTG,352.4516,T,352.4516,M,1.784,N,3.305,K,D*29
$GPGGA,134234.00,4612.0524092,N,00607.2064970,E,4,12,2.0,368.475,M,49.481,M,6.60,0195*75
$RDENS,692,4935253,PC
$GPVTG,350.8993,T,350.8993,M,1.807,N,3.348,K,D*24
$GPGGA,134234.40,4612.0526064,N,00607.2064499,E,4,12,2.0,368.478,M,49.481,M,7.00,0195*7A
$GPVTG,350.9825,T,350.9825,M,1.776,N,3.291,K,D*28
$GPGGA,134234.60,4612.0527085,N,00607.2064278,E,4,12,2.0,368.483,M,49.481,M,7.20,0195*79
$GPVTG,351.6510,T,351.6510,M,1.804,N,3.344,K,D*2B
$GPGGA,134235.00,4612.0529047,N,00607.2063849,E,4,12,2.0,368.472,M,49.481,M,7.60,0195*7B
$RDENS,693,4935342,PC
$GPVTG,351.4615,T,351.4615,M,1.758,N,3.258,K,D*21
$GPGGA,134235.20,4612.0529987,N,00607.2063664,E,4,12,2.0,368.473,M,49.481,M,7.80,0195*72
$GPVTG,352.3340,T,352.3340,M,1.690,N,3.132,K,D*2B
$GPGGA,134235.60,4612.0531872,N,00607.2063342,E,4,12,2.0,368.458,M,49.481,M,8.20,0195*79
$GPVTG,353.6133,T,353.6133,M,1.746,N,3.236,K,D*26
$GPGGA,134235.80,4612.0532830,N,00607.2063165,E,4,12,2.0,368.472,M,49.481,M,8.40,0195*7B
$RDENS,694,4935431,PC
$GPVTG,352.7813,T,352.7813,M,1.719,N,3.186,K,D*24
$GPGGA,134236.20,4612.0534785,N,00607.2062798,E,4,12,2.0,368.477,M,49.481,M,8.80,0195*79
$GPVTG,353.0293,T,353.0293,M,1.746,N,3.235,K,D*25
$GPGGA,134236.40,4612.0535756,N,00607.2062610,E,4,12,2.0,368.483,M,49.481,M,9.00,0195*73
$GPVTG,351.6976,T,351.6976,M,1.703,N,3.157,K,D*23
$GPGGA,134236.60,4612.0536685,N,00607.2062433,E,4,12,2.0,368.483,M,49.481,M,9.20,0195*7C
$RDENS,695,4935519,PC
$GPVTG,354.4168,T,354.4168,M,1.656,N,3.070,K,D*26
$GPGGA,134237.00,4612.0538559,N,00607.2062145,E,4,12,2.0,368.482,M,49.481,M,9.60,0195*76
$GPVTG,353.4342,T,353.4342,M,1.694,N,3.140,K,D*2A
$GPGGA,134237.20,4612.0539471,N,00607.2061990,E,4,12,2.0,368.485,M,49.481,M,9.80,0195*74
$GPVTG,354.7042,T,354.7042,M,1.676,N,3.106,K,D*24
$GPGGA,134237.60,4612.0541256,N,00607.2061776,E,4,12,2.0,368.470,M,49.481,M,10.20,0195*42
$RDENS,696,4935608,PC
$GPVTG,355.5443,T,355.5443,M,1.664,N,3.084,K,D*2C
$GPGGA,134237.80,4612.0542225,N,00607.2061649,E,4,12,2.0,368.473,M,49.481,M,10.40,0195*43
$GPVTG,354.0175,T,354.0175,M,1.715,N,3.179,K,D*28
$GPGGA,134238.20,4612.0544050,N,00607.2061451,E,4,12,2.0,368.472,M,49.481,M,10.80,0195*46
$GPVTG,356.3031,T,356.3031,M,1.644,N,3.046,K,D*20
$GPGGA,134238.40,4612.0545024,N,00607.2061391,E,4,12,2.0,368.478,M,49.481,M,11.00,0195*4A
$RDENS,697,4935698,PC
$GPVTG,358.0074,T,358.0074,M,1.694,N,3.139,K,D*24
$GPGGA,134238.80,4612.0546879,N,00607.2061370,E,4,12,2.0,368.478,M,49.481,M,11.40,0195*4E
$GPVTG,359.4318,T,359.4318,M,1.720,N,3.188,K,D*20
$GPGGA,134239.00,4612.0547797,N,00607.2061401,E,4,12,2.0,368.474,M,49.481,M,11.60,0195*46
$GPVTG,1.7842,T,1.7842,M,1.739,N,3.222,K,D*2B
$GPGGA,134239.20,4612.0548785,N,00607.2061433,E,4,12,2.0,368.482,M,49.481,M,11.80,0195*4E
$GPVTG,3.8206,T,3.8206,M,1.744,N,3.232,K,D*20
$RDENS,698,4935788,PC
$GPGGA,134239.60,4612.0550787,N,00607.2061531,E,4,12,2.0,368.485,M,49.481,M,12.20,0195*4C
$GPVTG,3.4117,T,3.4117,M,1.825,N,3.382,K,D*22
$GPGGA,134239.80,4612.0551753,N,00607.2061640,E,4,12,2.0,368.487,M,49.481,M,12.40,0195*4B
$GPVTG,4.3007,T,4.3007,M,1.784,N,3.306,K,D*2A
$GPGGA,134240.20,4612.0553756,N,00607.2061868,E,4,12,2.0,368.483,M,49.481,M,12.80,0195*44
$GPVTG,5.6377,T,5.6377,M,1.779,N,3.297,K,D*21
$RDENS,699,4935876,PC
$GPGGA,134240.40,4612.0554703,N,00607.2062007,E,4,12,2.0,368.474,M,49.481,M,13.00,0195*46
$GPVTG,6.7240,T,6.7240,M,1.770,N,3.280,K,D*2E
$GPGGA,134240.60,4612.0555659,N,00607.2062205,E,4,12,2.0,368.468,M,49.481,M,13.20,0195*44
$GPVTG,8.8938,T,8.8938,M,1.722,N,3.192,K,D*29
$GPGGA,134241.00,4612.0557633,N,00607.2062555,E,4,12,2.0,368.460,M,49.481,M,13.60,0195*43
$GPVTG,10.4113,T,10.4113,M,1.776,N,3.292,K,D*2B
$RDENS,700,4935966,PC
$GPGGA,134241.40,4612.0559699,N,00607.2062912,E,4,12,2.0,368.487,M,49.481,M,14.00,0195*4E
$GPVTG,7.2962,T,7.2962,M,1.894,N,3.509,K,D*2D
$GPGGA,134241.60,4612.0560628,N,00607.2063172,E,4,12,2.0,368.478,M,49.481,M,0.07,0195*71
$GPVTG,7.6129,T,7.6129,M,1.831,N,3.394,K,D*20
$GPGGA,134241.80,4612.0561636,N,00607.2063389,E,4,11,2.0,368.465,M,49.481,M,0.06,0195*79
$GPVTG,8.2799,T,8.2799,M,1.925,N,3.567,K,D*2E
$RDENS,701,4936057,PC
$GPGGA,134242.20,4612.0563735,N,00607.2063781,E,4,11,2.0,368.460,M,49.481,M,0.46,0195*7D
$GPVTG,5.8413,T,5.8413,M,1.933,N,3.583,K,D*23
$GPGGA,134242.40,4612.0564913,N,00607.2063860,E,4,11,2.0,368.474,M,49.481,M,0.66,0195*71
$GPVTG,6.9321,T,6.9321,M,1.931,N,3.578,K,D*25
$GPGGA,134242.60,4612.0565909,N,00607.2064100,E,4,11,2.0,368.460,M,49.481,M,0.86,0195*7A
$GPVTG,5.4694,T,5.4694,M,1.918,N,3.554,K,D*20
$RDENS,702,4936147,PC
$GPGGA,134243.00,4612.0568125,N,00607.2064363,E,4,11,2.0,368.458,M,49.481,M,1.26,0195*71
$GPVTG,5.6747,T,5.6747,M,1.990,N,3.688,K,D*22
$GPGGA,134243.20,4612.0569211,N,00607.2064513,E,4,11,2.0,368.450,M,49.481,M,1.46,0195*79
$GPVTG,4.0855,T,4.0855,M,2.087,N,3.868,K,D*2E
$GPGGA,134243.60,4612.0571504,N,00607.2064772,E,4,11,2.0,368.459,M,49.481,M,1.86,0195*77
$GPVTG,4.4306,T,4.4306,M,2.116,N,3.922,K,D*28
$RDENS,703,4936235,PC
$GPGGA,134243.80,4612.0572626,N,00607.2064864,E,4,11,2.0,368.465,M,49.481,M,2.06,0195*75
$GPVTG,3.9464,T,3.9464,M,2.110,N,3.911,K,D*2E
$GPGGA,134244.20,4612.0575000,N,00607.2065124,E,4,11,2.0,368.485,M,49.481,M,2.46,0195*7B
$GPVTG,4.5065,T,4.5065,M,2.212,N,4.099,K,D*21
$GPGGA,134244.40,4612.0576240,N,00607.2065261,E,4,11,2.0,368.478,M,49.481,M,2.66,0195*7A
$GPVTG,5.7573,T,5.7573,M,2.129,N,3.946,K,D*26
$GPGGA,134244.60,4612.0577388,N,00607.2065429,E,4,11,2.0,368.483,M,49.481,M,2.86,0195*7C
$RDENS,704,4936326,PC
$GPVTG,4.6875,T,4.6875,M,2.280,N,4.226,K,D*2C
$GPGGA,134245.00,4612.0579893,N,00607.2065740,E,4,11,2.0,368.482,M,49.481,M,3.26,0195*72
$GPVTG,4.8875,T,4.8875,M,2.170,N,4.021,K,D*25
$GPGGA,134245.20,4612.0581096,N,00607.2065884,E,4,11,2.0,368.479,M,49.481,M,3.46,0195*7F
$GPVTG,4.2410,T,4.2410,M,2.246,N,4.163,K,D*24
$GPGGA,134245.60,4612.0583605,N,00607.2066204,E,4,11,2.0,368.480,M,49.481,M,3.86,0195*7E
$GPVTG,5.0301,T,5.0301,M,2.125,N,3.938,K,D*23
$RDENS,705,4936417,PC
$GPGGA,134245.80,4612.0584765,N,00607.2066400,E,4,11,2.0,368.453,M,49.481,M,4.06,0195*73
$GPVTG,5.0027,T,5.0027,M,2.236,N,4.144,K,D*26
$GPGGA,134246.20,4612.0587249,N,00607.2066684,E,4,11,2.0,368.451,M,49.481,M,4.46,0195*7A
$GPVTG,6.5117,T,6.5117,M,2.219,N,4.113,K,D*29
$GPGGA,134246.40,4612.0588441,N,00607.2066919,E,4,11,2.0,368.438,M,49.481,M,4.66,0195*7B
$GPVTG,5.6134,T,5.6134,M,2.136,N,3.958,K,D*27
$RDENS,706,4936508,PC
$GPGGA,134246.60,4612.0589606,N,00607.2067104,E,4,11,2.0,368.444,M,49.481,M,4.86,0195*79
$GPVTG,4.0469,T,4.0469,M,2.186,N,4.052,K,D*28
$GPGGA,134247.00,4612.0592045,N,00607.2067430,E,4,11,2.0,368.453,M,49.481,M,5.26,0195*7A
$GPVTG,5.9328,T,5.9328,M,2.080,N,3.855,K,D*27
$GPGGA,134247.20,4612.0593184,N,00607.2067582,E,2,11,2.0,368.456,M,49.481,M,5.46,0195*78
$GPVTG,5.3293,T,5.3293,M,2.159,N,4.000,K,D*2D
$RDENS,707,4936599,PC
$GPGGA,134247.60,4612.0595577,N,00607.2067838,E,2,11,2.0,368.457,M,49.481,M,5.86,0195*73
$GPVTG,4.7110,T,4.7110,M,2.166,N,4.013,K,D*23
$GPGGA,134247.80,4612.0596804,N,00607.2067933,E,2,11,2.0,368.463,M,49.481,M,6.06,0195*71
$GPVTG,1.8653,T,1.8653,M,2.134,N,3.955,K,D*28
$GPGGA,134248.20,4612.0599182,N,00607.2068065,E,2,11,2.0,368.462,M,49.481,M,6.46,0195*7C
$GPVTG,1.5109,T,1.5109,M,2.198,N,4.073,K,D*24
$RDENS,708,4936689,PC
$GPGGA,134248.40,4612.0600407,N,00607.2068109,E,2,11,2.0,368.463,M,49.481,M,6.66,0195*79
$GPVTG,359.1576,T,359.1576,M,2.254,N,4.177,K,D*22
$GPGGA,134248.80,4612.0602847,N,00607.2068080,E,2,11,2.0,368.460,M,49.481,M,7.06,0195*7B
$GPVTG,359.1319,T,359.1319,M,2.265,N,4.197,K,D*2E
$GPGGA,134249.00,4612.0604066,N,00607.2068030,E,2,11,2.0,368.457,M,49.481,M,7.26,0195*72
$GPVTG,356.0031,T,356.0031,M,2.291,N,4.245,K,D*29
$GPGGA,134249.40,4612.0606560,N,00607.2067866,E,2,11,2.0,368.445,M,49.481,M,7.66,0195*74
$RDENS,709,4936786,PC
$GPVTG,356.5186,T,356.5186,M,2.296,N,4.256,K,D*2C
$GPGGA,134249.60,4612.0608028,N,00607.2067582,E,2,11,2.0,368.474,M,49.481,M,7.86,0195*7A
$GPVTG,353.1641,T,353.1641,M,2.388,N,4.425,K,D*20
$GPVTG,353.1066,T,353.1066,M,2.358,N,4.369,K,D*22
$GPGGA,134250.20,4612.0611931,N,00607.2066897,E,2,11,2.0,368.449,M,49.481,M,8.46,0195*7A
$GPVTG,351.4166,T,351.4166,M,2.501,N,4.635,K,D*24
$RDENS,710,4936883,PC
$GPGGA,134250.40,4612.0613313,N,00607.2066592,E,2,11,2.0,368.457,M,49.481,M,8.66,0195*71
$GPVTG,350.3858,T,350.3858,M,2.529,N,4.686,K,D*26
$GPGGA,134250.80,4612.0616126,N,00607.2065850,E,4,11,2.0,368.455,M,49.481,M,0.13,0195*72
$GPVTG,347.9288,T,347.9288,M,2.529,N,4.688,K,D*28
$GPGGA,134251.00,4612.0617558,N,00607.2065435,E,4,11,2.0,368.463,M,49.481,M,0.04,0195*7B
$GPVTG,348.2193,T,348.2193,M,2.575,N,4.771,K,D*26
$RDENS,711,4936968,PC
$GPGGA,134251.40,4612.0620319,N,00607.2064656,E,4,11,1.9,368.448,M,49.481,M,0.44,0195*79
$GPVTG,348.5638,T,348.5638,M,2.549,N,4.725,K,D*28
$GPGGA,134251.60,4612.0621643,N,00607.2064349,E,4,11,1.9,368.438,M,49.481,M,0.64,0195*7E
$GPVTG,350.5805,T,350.5805,M,2.517,N,4.664,K,D*27
$GPGGA,134252.00,4612.0624319,N,00607.2063763,E,4,11,1.9,368.443,M,49.481,M,1.04,0195*74
$GPVTG,352.7011,T,352.7011,M,2.321,N,4.302,K,D*21
$RDENS,712,4937053,PC
$GPGGA,134252.20,4612.0625599,N,00607.2063504,E,4,11,1.9,368.447,M,49.481,M,1.24,0195*7C
$GPVTG,353.7135,T,353.7135,M,2.240,N,4.151,K,D*23
$GPGGA,134252.60,4612.0627995,N,00607.2063204,E,4,11,1.9,368.433,M,49.481,M,1.64,0195*7A
$GPVTG,355.9435,T,355.9435,M,2.136,N,3.959,K,D*26
$GPGGA,134252.80,4612.0629188,N,00607.2063054,E,4,11,1.9,368.424,M,49.481,M,1.84,0195*71
$GPVTG,356.9147,T,356.9147,M,1.967,N,3.645,K,D*2B
$RDENS,713,4937138,PC
$GPGGA,134253.20,4612.0631260,N,00607.2063012,E,4,11,1.9,368.408,M,49.481,M,2.24,0195*73
$GPVTG,358.1894,T,358.1894,M,1.841,N,3.412,K,D*2E
$GPGGA,134253.40,4612.0632252,N,00607.2063044,E,4,11,1.9,368.402,M,49.481,M,2.44,0195*78
$GPVTG,3.6999,T,3.6999,M,1.614,N,2.991,K,D*27
$GPGGA,134253.60,4612.0633210,N,00607.2063127,E,4,11,1.9,368.405,M,49.481,M,2.64,0195*7C
$GPVTG,6.1319,T,6.1319,M,1.564,N,2.898,K,D*2B
$RDENS,714,4937224,PC
$GPGGA,134254.00,4612.0634910,N,00607.2063390,E,4,11,1.9,368.407,M,49.481,M,3.04,0195*7A
$GPVTG,13.7623,T,13.7623,M,1.284,N,2.380,K,D*20
$GPGGA,134254.20,4612.0635538,N,00607.2063639,E,4,11,1.9,368.391,M,49.481,M,3.24,0195*73
$GPVTG,14.9229,T,14.9229,M,1.182,N,2.191,K,D*27
$GPGGA,134254.60,4612.0636750,N,00607.2064218,E,4,11,1.9,368.376,M,49.481,M,3.64,0195*75
$RDENS,715,4937309,PC
$GPVTG,20.3094,T,20.3094,M,1.060,N,1.964,K,D*2B
$GPGGA,134254.80,4612.0637294,N,00607.2064515,E,4,11,1.9,368.385,M,49.481,M,3.84,0195*7F
$GPVTG,22.9414,T,22.9414,M,1.070,N,1.983,K,D*23
$GPGGA,134255.20,4612.0638168,N,00607.2065250,E,4,11,1.9,368.379,M,49.481,M,4.24,0195*72
$GPVTG,34.9683,T,34.9683,M,0.899,N,1.667,K,D*28
$GPGGA,134255.40,4612.0638599,N,00607.2065669,E,4,11,1.9,368.380,M,49.481,M,4.44,0195*70
$RDENS,716,4937395,PC
$GPVTG,37.4041,T,37.4041,M,0.961,N,1.782,K,D*24
$GPGGA,134255.80,4612.0639356,N,00607.2066552,E,4,11,1.9,368.390,M,49.481,M,4.84,0195*7D
$GPVTG,38.2509,T,38.2509,M,0.822,N,1.523,K,D*2B
$GPGGA,134256.00,4612.0639696,N,00607.2067065,E,4,11,1.9,368.380,M,49.481,M,5.04,0195*77
$GPVTG,41.0884,T,41.0884,M,0.874,N,1.619,K,D*22
$GPGGA,134256.40,4612.0640429,N,00607.2068017,E,2,11,1.9,368.387,M,49.481,M,5.44,0195*74
$RDENS,717,4937481,PC
$GPVTG,39.7282,T,39.7282,M,0.918,N,1.701,K,D*21
$GPGGA,134256.60,4612.0640841,N,00607.2068471,E,2,11,1.9,368.386,M,49.481,M,5.64,0195*73
$GPVTG,39.7836,T,39.7836,M,0.933,N,1.729,K,D*22
$GPGGA,134256.80,4612.0641198,N,00607.2068966,E,2,11,1.9,368.373,M,49.481,M,5.84,0195*7E
$GPVTG,38.4092,T,38.4092,M,0.929,N,1.721,K,D*21
$GPGGA,134257.20,4612.0642012,N,00607.2069947,E,2,11,1.9,368.369,M,49.481,M,6.24,0195*75
$RDENS,718,4937567,PC
$GPVTG,38.4374,T,38.4374,M,0.954,N,1.768,K,D*26
$GPGGA,134257.40,4612.0642473,N,00607.2070455,E,2,11,1.9,368.363,M,49.481,M,6.44,0195*7A
$GPVTG,36.0431,T,36.0431,M,1.081,N,2.004,K,D*28
$GPGGA,134257.80,4612.0643420,N,00607.2071455,E,2,11,1.9,368.364,M,49.481,M,6.84,0195*7B
$GPVTG,33.0661,T,33.0661,M,1.131,N,2.096,K,D*29
$GPGGA,134258.00,4612.0643963,N,00607.2071893,E,2,11,1.9,368.363,M,49.481,M,7.04,0195*7E
$RDENS,719,4937653,PC
$GPVTG,26.0248,T,26.0248,M,1.157,N,2.145,K,D*26
$GPGGA,134258.40,4612.0645258,N,00607.2072594,E,4,11,1.9,368.349,M,49.481,M,0.09,0195*72
$GPVTG,20.7477,T,20.7477,M,1.267,N,2.347,K,D*26
$GPGGA,134258.60,4612.0645892,N,00607.2073007,E,4,11,1.9,368.354,M,49.481,M,0.29,0195*7C
$GPVTG,20.2780,T,20.2780,M,1.324,N,2.453,K,D*22
$GPGGA,134259.00,4612.0647284,N,00607.2073698,E,4,11,1.9,368.359,M,49.481,M,0.69,0195*7D
$RDENS,720,4937739,PC
$GPVTG,17.5509,T,17.5509,M,1.400,N,2.595,K,D*28
$GPGGA,134259.20,4612.0648075,N,00607.2073992,E,4,11,1.9,368.385,M,49.481,M,0.08,0195*7F
$GPVTG,16.3561,T,16.3561,M,1.441,N,2.671,K,D*24
$GPGGA,134259.40,4612.0648876,N,00607.2074315,E,4,10,1.9,368.400,M,49.481,M,0.11,0195*73
$GPVTG,16.7857,T,16.7857,M,1.377,N,2.551,K,D*27
$GPGGA,134259.80,4612.0650494,N,00607.2074848,E,4,11,1.9,368.437,M,49.481,M,0.29,0195*7B
$RDENS,721,4937825,PC
$GPVTG,10.9122,T,10.9122,M,1.591,N,2.949,K,D*2C
$GPGGA,134300.00,4612.0651483,N,00607.2075026,E,4,11,1.9,368.453,M,49.481,M,0.49,0195*7C
$GPVTG,9.5069,T,9.5069,M,1.577,N,2.923,K,D*28
$GPGGA,134300.20,4612.0652232,N,00607.2075328,E,4,11,1.9,368.427,M,49.481,M,0.69,0195*7D
$GPVTG,8.6374,T,8.6374,M,1.657,N,3.071,K,D*26
$GPGGA,134300.60,4612.0654065,N,00607.2075632,E,4,11,1.9,368.388,M,49.481,M,1.09,0195*74
$RDENS,722,4937911,PC
$GPVTG,6.9437,T,6.9437,M,1.574,N,2.916,K,D*2D
$GPGGA,134300.80,4612.0654969,N,00607.2075750,E,4,11,1.9,368.397,M,49.481,M,1.29,0195*76
$GPVTG,3.1746,T,3.1746,M,1.538,N,2.850,K,D*26
$GPGGA,134301.20,4612.0656675,N,00607.2075917,E,4,11,1.9,368.394,M,49.481,M,0.01,0195*78
$GPVTG,359.8112,T,359.8112,M,1.638,N,3.036,K,D*2C
$GPGGA,134301.60,4612.0658435,N,00607.2075996,E,4,11,1.9,368.406,M,49.481,M,0.32,0195*71
$RDENS,723,4937997,PC
$GPVTG,358.9380,T,358.9380,M,1.582,N,2.931,K,D*21
$GPGGA,134301.80,4612.0659330,N,00607.2076001,E,4,11,1.9,368.411,M,49.481,M,0.52,0195*78
$GPVTG,356.9819,T,356.9819,M,1.668,N,3.092,K,D*27
$GPGGA,134302.20,4612.0661365,N,00607.2075711,E,4,11,1.9,368.431,M,49.481,M,0.15,0195*7E
$GPVTG,356.4854,T,356.4854,M,1.732,N,3.210,K,D*21
$GPGGA,134302.40,4612.0662262,N,00607.2075556,E,4,11,1.9,368.429,M,49.481,M,0.35,0195*77
$RDENS,724,4938083,PC
$GPVTG,351.5025,T,351.5025,M,1.719,N,3.185,K,D*27
$GPGGA,134302.60,4612.0663153,N,00607.2075384,E,4,11,1.9,368.411,M,49.481,M,0.55,0195*71
$GPVTG,351.1718,T,351.1718,M,1.901,N,3.524,K,D*2F
$GPGGA,134303.00,4612.0665436,N,00607.2074629,E,4,11,1.9,368.449,M,49.481,M,0.95,0195*74
$GPVTG,345.3165,T,345.3165,M,1.991,N,3.690,K,D*2A
$RDENS,725,4938169,PC
$GPGGA,134303.20,4612.0666381,N,00607.2074281,E,4,11,1.9,368.455,M,49.481,M,1.15,0195*7C
$GPVTG,345.7459,T,345.7459,M,2.062,N,3.822,K,D*2B
$GPGGA,134303.60,4612.0668468,N,00607.2073447,E,4,10,3.9,368.457,M,49.481,M,1.55,0195*78
$GPVTG,342.5497,T,342.5497,M,2.066,N,3.828,K,D*25
$GPGGA,134303.80,4612.0669733,N,00607.2072868,E,4,10,3.9,368.470,M,49.481,M,1.75,0195*7D
$GPVTG,342.2249,T,342.2249,M,2.259,N,4.186,K,D*21
$RDENS,726,4938255,PC
$GPGGA,134304.20,4612.0672181,N,00607.2071694,E,4,10,3.9,368.467,M,49.481,M,2.15,0195*78
$GPVTG,340.9889,T,340.9889,M,2.366,N,4.384,K,D*2C
$GPGGA,134304.40,4612.0673366,N,00607.2071104,E,4,10,3.9,368.464,M,49.481,M,2.35,0195*7B
$GPVTG,340.2214,T,340.2214,M,2.458,N,4.556,K,D*2F
$GPGGA,134304.80,4612.0675925,N,00607.2069781,E,4,10,4.0,368.454,M,49.481,M,2.75,0195*77
$GPVTG,339.6171,T,339.6171,M,2.461,N,4.561,K,D*21
$RDENS,727,4938341,PC
$GPGGA,134305.00,4612.0677143,N,00607.2069184,E,4,10,4.0,368.443,M,49.481,M,2.95,0195*7F
$GPVTG,340.8277,T,340.8277,M,2.499,N,4.631,K,D*20
$GPGGA,134305.40,4612.0679678,N,00607.2067865,E,4,10,4.0,368.439,M,49.481,M,3.35,0195*74
$GPVTG,341.0041,T,341.0041,M,2.428,N,4.500,K,D*2B
$GPGGA,134305.60,4612.0681122,N,00607.2067203,E,4,10,4.0,368.450,M,49.481,M,3.55,0195*7A
$GPVTG,345.1701,T,345.1701,M,2.286,N,4.236,K,D*2B
$RDENS,728,4938427,PC
$GPGGA,134306.00,4612.0683736,N,00607.2066207,E,4,10,4.0,368.467,M,49.481,M,3.95,0195*73
$GPVTG,347.0438,T,347.0438,M,2.308,N,4.277,K,D*29
$GPGGA,134306.20,4612.0685009,N,00607.2065808,E,4,10,4.0,368.483,M,49.481,M,4.15,0195*7F
$GPVTG,351.1937,T,351.1937,M,2.172,N,4.025,K,D*23
$GPGGA,134306.60,4612.0687238,N,00607.2065443,E,4,10,4.0,368.441,M,49.481,M,4.55,0195*70
$GPVTG,353.8399,T,353.8399,M,2.331,N,4.320,K,D*20
$RDENS,729,4938513,PC
$GPGGA,134306.80,4612.0688479,N,00607.2065281,E,4,10,4.0,368.445,M,49.481,M,4.75,0195*7C
$GPVTG,359.2043,T,359.2043,M,1.704,N,3.157,K,D*24
$GPGGA,134307.00,4612.0689436,N,00607.2065252,E,4,10,4.0,368.428,M,49.481,M,4.95,0195*74
$GPVTG,1.5689,T,1.5689,M,1.770,N,3.280,K,D*2E
$GPVTG,4.1546,T,4.1546,M,1.532,N,2.839,K,D*23
$GPGGA,134307.40,4612.0691374,N,00607.2065303,E,4,10,4.0,368.400,M,49.481,M,5.35,0195*7C
$GPVTG,5.7475,T,5.7475,M,1.298,N,2.406,K,D*24
$RDENS,730,4938600,PC
$GPGGA,134307.60,4612.0692008,N,00607.2065451,E,4,10,4.0,368.381,M,49.481,M,5.55,0195*7D
$GPVTG,8.1872,T,8.1872,M,1.125,N,2.085,K,D*2E
$GPGGA,134308.00,4612.0693223,N,00607.2065738,E,4,10,4.0,368.353,M,49.481,M,5.95,0195*71
$GPVTG,13.6879,T,13.6879,M,0.931,N,1.725,K,D*2C
$GPGGA,134308.40,4612.0694269,N,00607.2066053,E,4,10,4.0,368.386,M,49.481,M,6.35,0195*74
$RDENS,731,4938687,PC
$GPVTG,16.5786,T,16.5786,M,0.883,N,1.637,K,D*26
$GPGGA,134308.60,4612.0694568,N,00607.2066287,E,4,10,4.0,368.384,M,49.481,M,6.55,0195*7F
$GPVTG,22.2974,T,22.2974,M,0.707,N,1.309,K,D*2D
$GPGGA,134309.00,4612.0695192,N,00607.2066885,E,4,10,4.0,368.386,M,49.481,M,6.95,0195*7E
$GPVTG,21.5203,T,21.5203,M,0.864,N,1.601,K,D*2A
$GPGGA,134309.20,4612.0695562,N,00607.2067132,E,4,10,4.0,368.389,M,49.481,M,7.15,0195*75
$GPVTG,24.9059,T,24.9059,M,0.772,N,1.430,K,D*22
$RDENS,732,4938774,PC
$GPGGA,134309.40,4612.0695945,N,00607.2067449,E,4,10,4.0,368.384,M,49.481,M,7.35,0195*7C
$GPVTG,25.4324,T,25.4324,M,0.845,N,1.565,K,D*28
$GPGGA,134309.80,4612.0696955,N,00607.2067935,E,4,10,4.0,368.393,M,49.481,M,7.75,0195*76
$GPVTG,25.0579,T,25.0579,M,0.850,N,1.576,K,D*2E
$GPGGA,134310.00,4612.0697294,N,00607.2068334,E,4,10,4.0,368.382,M,49.481,M,7.95,0195*7B
$GPVTG,23.8518,T,23.8518,M,0.916,N,1.698,K,D*2E
$RDENS,733,4938861,PC
$GPGGA,134310.40,4612.0698380,N,00607.2068895,E,4,10,4.0,368.389,M,49.481,M,8.35,0195*7A
$GPVTG,23.3087,T,23.3087,M,1.055,N,1.954,K,D*2E
$GPGGA,134310.60,4612.0698833,N,00607.2069224,E,4,10,4.0,368.388,M,49.481,M,8.55,0195*7D
$GPVTG,19.1637,T,19.1637,M,1.105,N,2.047,K,D*22
$GPGGA,134311.00,4612.0699752,N,00607.2069960,E,4,10,4.0,368.378,M,49.481,M,8.95,0195*7B
$GPVTG,23.6117,T,23.6117,M,1.027,N,1.903,K,D*29
$RDENS,734,4938948,PC
$GPGGA,134311.20,4612.0700565,N,00607.2070133,E,4,10,4.0,368.386,M,49.481,M,9.15,0195*70
$GPVTG,11.0039,T,11.0039,M,1.151,N,2.133,K,D*21
$GPGGA,134311.60,4612.0701793,N,00607.2070576,E,4,10,4.0,368.394,M,49.481,M,9.55,0195*7C
$GPVTG,17.5675,T,17.5675,M,1.139,N,2.111,K,D*2F
$GPGGA,134311.80,4612.0702488,N,00607.2070723,E,4,10,4.0,368.391,M,49.481,M,9.75,0195*7D
$GPVTG,0.8629,T,0.8629,M,1.322,N,2.451,K,D*26
$RDENS,735,4939035,PC
$GPGGA,134312.00,4612.0703274,N,00607.2070684,E,4,10,4.0,368.404,M,49.481,M,9.95,0195*7B
$GPVTG,0.3243,T,0.3243,M,1.361,N,2.523,K,D*25
$GPGGA,134312.20,4612.0703978,N,00607.2070750,E,4,10,4.0,368.395,M,49.481,M,10.15,0195*49
$GPVTG,359.3728,T,359.3728,M,1.398,N,2.590,K,D*2B
$GPGGA,134312.60,4612.0705670,N,00607.2070627,E,4,10,4.0,368.412,M,49.481,M,10.55,0195*41
$GPVTG,356.4551,T,356.4551,M,1.569,N,2.908,K,D*2E
$RDENS,736,4939122,PC
$GPGGA,134313.00,4612.0707252,N,00607.2070553,E,4,10,4.0,368.427,M,49.481,M,10.95,0195*4A
$GPVTG,355.9404,T,355.9404,M,1.585,N,2.937,K,D*20
$GPGGA,134313.20,4612.0708274,N,00607.2070392,E,4,10,4.0,368.433,M,49.481,M,11.15,0195*44
$GPVTG,356.3527,T,356.3527,M,1.722,N,3.192,K,D*29
$GPGGA,134313.60,4612.0710139,N,00607.2070217,E,4,10,4.0,368.429,M,49.481,M,11.55,0195*40
$RDENS,737,4939209,PC
$GPVTG,353.8541,T,353.8541,M,1.923,N,3.563,K,D*2C
$GPGGA,134313.80,4612.0711342,N,00607.2070018,E,4,10,4.0,368.453,M,49.481,M,11.75,0195*43
$GPVTG,356.8858,T,356.8858,M,1.995,N,3.698,K,D*26
$GPGGA,134314.20,4612.0713688,N,00607.2069735,E,4,10,4.0,368.468,M,49.481,M,12.15,0195*42
$GPVTG,356.8877,T,356.8877,M,1.968,N,3.648,K,D*29
$GPGGA,134314.40,4612.0714047,N,00607.2068389,E,2,11,0.8,368.253,M,49.481,M,12.35,0195*43
$RDENS,738,4939296,PC
$GPVTG,0.2435,T,0.2435,M,1.929,N,3.575,K,D*21
$GPGGA,134314.60,4612.0715115,N,00607.2068374,E,2,11,0.8,368.239,M,49.481,M,12.55,0195*4E
$GPVTG,2.0383,T,2.0383,M,1.863,N,3.453,K,D*2B
$GPGGA,134315.00,4612.0717593,N,00607.2068253,E,2,11,0.8,368.271,M,49.481,M,12.95,0195*45
$GPVTG,2.6881,T,2.6881,M,1.812,N,3.358,K,D*21
$GPGGA,134315.20,4612.0720844,N,00607.2067010,E,2,10,0.9,368.523,M,49.481,M,13.15,0195*47
$RDENS,739,4939383,PC
$GPVTG,3.1258,T,3.1258,M,1.799,N,3.334,K,D*27
$GPGGA,134315.60,4612.0722752,N,00607.2067183,E,2,10,0.9,368.497,M,49.481,M,13.55,0195*48
$GPVTG,7.3308,T,7.3308,M,1.701,N,3.151,K,D*27
$GPGGA,134315.80,4612.0723561,N,00607.2067387,E,2,10,0.9,368.465,M,49.481,M,13.75,0195*4C
$GPVTG,10.1138,T,10.1138,M,1.572,N,2.913,K,D*2E
$GPGGA,134316.20,4612.0725233,N,00607.2067778,E,2,10,0.9,368.477,M,49.481,M,14.15,0195*45
$GPVTG,7.3766,T,7.3766,M,1.506,N,2.791,K,D*29
$RDENS,740,4939471,PC
$GPGGA,134316.40,4612.0726042,N,00607.2067890,E,2,10,0.9,368.476,M,49.481,M,14.35,0195*4E
$GPVTG,8.7995,T,8.7995,M,1.367,N,2.532,K,D*23
$GPGGA,134316.60,4612.0726760,N,00607.2068050,E,2,10,0.9,368.483,M,49.481,M,14.55,0195*4C
$GPVTG,9.9083,T,9.9083,M,1.305,N,2.418,K,D*2E
$GPGGA,134317.00,4612.0728157,N,00607.2068408,E,2,10,0.9,368.504,M,49.481,M,14.95,0195*4C
$GPVTG,6.5815,T,6.5815,M,1.333,N,2.470,K,D*25
$RDENS,741,4939559,PC
$GPGGA,134317.20,4612.0728914,N,00607.2068498,E,2,10,0.9,368.518,M,49.481,M,15.15,0195*4C
$GPVTG,7.8654,T,7.8654,M,1.355,N,2.511,K,D*23
$GPGGA,134317.60,4612.0730451,N,00607.2068726,E,2,09,1.1,368.536,M,49.481,M,15.55,0195*42
$GPVTG,7.3649,T,7.3649,M,1.247,N,2.310,K,D*26
$GPGGA,134317.80,4612.0731103,N,00607.2068872,E,2,09,1.1,368.543,M,49.481,M,15.75,0195*41
$GPVTG,6.1604,T,6.1604,M,1.352,N,2.505,K,D*21
$RDENS,742,4939646,PC
$GPGGA,134318.00,4612.0731824,N,00607.2068985,E,2,09,1.1,368.549,M,49.481,M,15.95,0195*47
$GPVTG,6.5883,T,6.5883,M,1.358,N,2.516,K,D*29
$GPGGA,134318.40,4612.0730993,N,00607.2070488,E,2,10,0.9,368.244,M,49.481,M,16.35,0195*44
$GPVTG,2.6736,T,2.6736,M,1.483,N,2.748,K,D*21
$GPGGA,134318.60,4612.0731856,N,00607.2070518,E,2,10,0.9,368.246,M,49.481,M,16.55,0195*43
$GPVTG,2.3826,T,2.3826,M,1.498,N,2.775,K,D*25
$RDENS,743,4939734,PC
$GPGGA,134319.00,4612.0733604,N,00607.2070591,E,2,10,0.9,368.249,M,49.481,M,16.95,0195*4D
$GPVTG,0.1589,T,0.1589,M,1.620,N,3.001,K,D*21
$GPGGA,134319.20,4612.0734888,N,00607.2070380,E,2,10,0.9,368.174,M,49.481,M,17.15,0195*40
$GPVTG,358.6165,T,358.6165,M,1.629,N,3.019,K,D*21
$GPGGA,134319.60,4612.0734903,N,00607.2071473,E,2,09,1.1,368.354,M,49.481,M,17.55,0195*49
$GPVTG,356.6754,T,356.6754,M,1.663,N,3.083,K,D*2C
$RDENS,744,4939822,PC
$GPVTG,352.5766,T,352.5766,M,1.733,N,3.212,K,D*22
$GPVTG,349.7071,T,349.7071,M,1.713,N,3.175,K,D*22
$GPVTG,351.8490,T,351.8490,M,1.727,N,3.200,K,D*24
$GPVTG,346.2003,T,346.2003,M,1.806,N,3.346,K,D*2B
$GPVTG,347.7764,T,347.7764,M,1.685,N,3.122,K,D*2E
$RDENS,745,4939910,PC
$GPVTG,346.5487,T,346.5487,M,1.968,N,3.647,K,D*26
$GPVTG,346.7440,T,346.7440,M,1.840,N,3.410,K,D*2D
$GPVTG,344.7126,T,344.7126,M,1.821,N,3.375,K,D*2E
$GPVTG,345.6233,T,345.6233,M,1.940,N,3.595,K,D*20
$RDENS,746,4939998,PC
$GPVTG,344.4914,T,344.4914,M,1.919,N,3.557,K,D*22
$GPVTG,346.8224,T,346.8224,M,1.924,N,3.565,K,D*2D
$GPVTG,343.2077,T,343.2077,M,1.936,N,3.588,K,D*2D
$GPVTG,344.2493,T,344.2493,M,1.833,N,3.397,K,D*21
$GPVTG,343.6919,T,343.6919,M,1.870,N,3.465,K,D*2C
$RDENS,747,4940086,PC
$GPVTG,343.3150,T,343.3150,M,1.841,N,3.411,K,D*2D
$GPVTG,342.2681,T,342.2681,M,1.971,N,3.653,K,D*2B
$GPVTG,341.6664,T,341.6664,M,1.769,N,3.278,K,D*21
$GPVTG,342.7599,T,342.7599,M,1.693,N,3.137,K,D*2D
$RDENS,748,4940174,PC
$GPVTG,341.0693,T,341.0693,M,1.722,N,3.191,K,D*2A
$GPVTG,339.8770,T,339.8770,M,1.626,N,3.014,K,D*23
$GPVTG,339.2704,T,339.2704,M,1.638,N,3.036,K,D*2C
$GPVTG,341.1890,T,341.1890,M,1.570,N,2.909,K,D*27
$RDENS,749,4940262,PC
$GPVTG,340.1400,T,340.1400,M,1.640,N,3.039,K,D*2C
$GPVTG,339.0243,T,339.0243,M,1.661,N,3.078,K,D*2A
$GPVTG,340.8354,T,340.8354,M,1.599,N,2.963,K,D*2C
$GPGGA,134324.80,4612.0757819,N,00607.2062604,E,2,10,1.0,368.260,M,49.482,M,22.75,0195*4E
$GPVTG,337.8739,T,337.8739,M,1.529,N,2.834,K,D*24
$RDENS,750,4940350,PC
$GPGGA,134325.20,4612.0759515,N,00607.2061658,E,2,10,1.0,368.247,M,49.482,M,23.15,0195*42
$GPVTG,339.6923,T,339.6923,M,1.488,N,2.758,K,D*2B
$GPGGA,134325.40,4612.0760370,N,00607.2061266,E,2,10,1.0,368.257,M,49.482,M,23.35,0195*41
$GPVTG,342.7050,T,342.7050,M,1.722,N,3.191,K,D*2A
$GPGGA,134325.80,4612.0761718,N,00607.2061076,E,2,10,1.0,368.318,M,49.482,M,0.02,0195*7A
$GPVTG,344.8066,T,344.8066,M,1.443,N,2.674,K,D*23
$RDENS,751,4940439,PC
$GPGGA,134326.00,4612.0762556,N,00607.2060754,E,2,10,1.0,368.318,M,49.482,M,0.22,0195*7E
$GPVTG,347.7346,T,347.7346,M,1.508,N,2.795,K,D*23
$GPGGA,134326.20,4612.0763413,N,00607.2060492,E,2,10,1.0,368.313,M,49.482,M,0.11,0195*7F
$GPVTG,351.3592,T,351.3592,M,1.535,N,2.844,K,D*2E
$GPGGA,134326.60,4612.0765181,N,00607.2059979,E,2,10,1.0,368.323,M,49.482,M,0.29,0195*79
$GPVTG,352.1021,T,352.1021,M,1.403,N,2.601,K,D*25
$RDENS,752,4940527,PC
$GPGGA,134326.80,4612.0766011,N,00607.2059753,E,2,10,1.0,368.300,M,49.482,M,0.49,0195*7D
$GPVTG,355.7623,T,355.7623,M,1.401,N,2.596,K,D*2A
$GPGGA,134327.20,4612.0767246,N,00607.2059902,E,2,10,1.0,368.300,M,49.482,M,0.06,0195*76
$GPVTG,359.0258,T,359.0258,M,1.357,N,2.514,K,D*24
$GPGGA,134327.40,4612.0768015,N,00607.2059892,E,2,10,1.0,368.301,M,49.482,M,0.26,0195*70
$GPVTG,1.8079,T,1.8079,M,1.242,N,2.302,K,D*20
$RDENS,753,4940615,PC
$GPGGA,134327.60,4612.0768793,N,00607.2059839,E,2,10,1.0,368.292,M,49.482,M,0.46,0195*77
$GPVTG,6.1432,T,6.1432,M,1.223,N,2.266,K,D*24
$GPGGA,134328.00,4612.0770238,N,00607.2059929,E,2,10,1.0,368.285,M,49.482,M,0.86,0195*79
$GPVTG,9.5737,T,9.5737,M,1.042,N,1.932,K,D*28
$GPGGA,134328.20,4612.0770892,N,00607.2060003,E,2,10,1.0,368.298,M,49.482,M,1.06,0195*7F
$GPVTG,8.0563,T,8.0563,M,0.992,N,1.838,K,D*26
$RDENS,754,4940703,PC
$GPGGA,134328.60,4612.0772129,N,00607.2060164,E,2,10,1.0,368.287,M,49.482,M,1.46,0195*7A
$GPVTG,12.6487,T,12.6487,M,0.953,N,1.765,K,D*2C
$GPGGA,134328.80,4612.0772709,N,00607.2060299,E,2,10,1.0,368.283,M,49.482,M,1.66,0195*77
$GPVTG,13.2743,T,13.2743,M,0.800,N,1.482,K,D*21
$GPGGA,134329.20,4612.0773718,N,00607.2060650,E,2,10,1.0,368.283,M,49.482,M,0.00,0195*7D
$GPVTG,16.3698,T,16.3698,M,0.876,N,1.624,K,D*2E
$RDENS,755,4940791,PC
$GPGGA,134329.40,4612.0774195,N,00607.2060825,E,2,10,1.0,368.295,M,49.482,M,0.20,0195*76
$GPVTG,19.4298,T,19.4298,M,0.858,N,1.590,K,D*2E
$GPGGA,134329.80,4612.0775117,N,00607.2061221,E,2,10,1.0,368.286,M,49.482,M,0.60,0195*78
$GPVTG,17.4422,T,17.4422,M,0.822,N,1.523,K,D*2B
$GPGGA,134330.00,4612.0775637,N,00607.2061439,E,2,10,1.0,368.292,M,49.482,M,0.80,0195*79
$GPVTG,23.2187,T,23.2187,M,0.808,N,1.497,K,D*2D
$GPGGA,134330.40,4612.0776468,N,00607.2061990,E,2,10,1.0,368.310,M,49.482,M,1.20,0195*78
$RDENS,756,4940879,PC
$GPVTG,22.6854,T,22.6854,M,0.894,N,1.656,K,D*27
$GPGGA,134330.60,4612.0776975,N,00607.2062204,E,2,10,1.0,368.315,M,49.482,M,1.40,0195*7D
$GPVTG,22.7981,T,22.7981,M,0.849,N,1.573,K,D*23
$GPGGA,134331.00,4612.0777806,N,00607.2062803,E,2,10,1.0,368.320,M,49.482,M,1.80,0195*79
$GPVTG,23.7498,T,23.7498,M,0.861,N,1.596,K,D*22
$GPGGA,134331.20,4612.0778294,N,00607.2062991,E,2,10,1.0,368.309,M,49.482,M,2.00,0195*7F
$RDENS,757,4940967,PC
$GPVTG,20.8280,T,20.8280,M,0.965,N,1.789,K,D*2B
$GPGGA,134331.60,4612.0779210,N,00607.2063524,E,2,10,1.0,368.306,M,49.482,M,2.40,0195*7E
$GPVTG,22.9610,T,22.9610,M,0.895,N,1.660,K,D*23
$GPGGA,134331.80,4612.0779707,N,00607.2063790,E,2,10,1.0,368.322,M,49.482,M,2.60,0195*7A
$GPVTG,18.7977,T,18.7977,M,0.986,N,1.827,K,D*2D
$GPGGA,134332.00,4612.0780013,N,00607.2064150,E,2,10,1.0,368.334,M,49.482,M,2.80,0195*71
$RDENS,758,4941056,PC
$GPVTG,13.2575,T,13.2575,M,1.066,N,1.975,K,D*2D
$GPGGA,134332.40,4612.0780968,N,00607.2064718,E,2,10,1.0,368.327,M,49.482,M,3.20,0195*73
$GPVTG,21.0539,T,21.0539,M,1.026,N,1.902,K,D*29
$GPGGA,134332.60,4612.0781583,N,00607.2064883,E,2,10,1.0,368.301,M,49.482,M,3.40,0195*76
$GPVTG,13.1790,T,13.1790,M,1.166,N,2.162,K,D*21
$GPGGA,134333.00,4612.0782700,N,00607.2065444,E,2,10,1.0,368.312,M,49.482,M,3.80,0195*73
$RDENS,759,4941144,PC
$GPVTG,19.4569,T,19.4569,M,1.130,N,2.095,K,D*2B
$GPGGA,134333.20,4612.0783355,N,00607.2065679,E,2,10,1.0,368.317,M,49.482,M,4.00,0195*72
$GPVTG,20.4693,T,20.4693,M,1.142,N,2.116,K,D*24
$GPGGA,134333.60,4612.0784556,N,00607.2066323,E,2,10,1.0,368.356,M,49.482,M,4.40,0195*7C
$GPVTG,17.0656,T,17.0656,M,1.284,N,2.379,K,D*26
$GPGGA,134333.80,4612.0785303,N,00607.2066563,E,2,10,1.0,368.361,M,49.482,M,4.60,0195*71
$RDENS,760,4941232,PC
$GPVTG,22.4154,T,22.4154,M,1.435,N,2.659,K,D*2D
$GPGGA,134334.20,4612.0786683,N,00607.2067391,E,2,10,1.0,368.377,M,49.482,M,5.00,0195*78
$GPVTG,18.8255,T,18.8255,M,1.484,N,2.750,K,D*2F
$GPGGA,134334.40,4612.0787535,N,00607.2067717,E,2,10,1.0,368.361,M,49.482,M,5.20,0195*7E
$GPVTG,17.2022,T,17.2022,M,1.517,N,2.811,K,D*2E
$GPGGA,134334.60,4612.0788304,N,00607.2068109,E,2,10,1.0,368.369,M,49.482,M,0.15,0195*7A
$RDENS,761,4941320,PC
$GPVTG,24.5746,T,24.5746,M,1.307,N,2.423,K,D*24
$GPGGA,134335.00,4612.0789761,N,00607.2068918,E,2,10,1.0,368.344,M,49.482,M,0.09,0195*71
$GPVTG,18.8173,T,18.8173,M,1.440,N,2.668,K,D*2D
$GPGGA,134335.20,4612.0790398,N,00607.2069337,E,2,10,1.0,368.321,M,49.482,M,0.01,0195*74
$GPVTG,27.1421,T,27.1421,M,1.182,N,2.191,K,D*27
$GPGGA,134335.60,4612.0791544,N,00607.2070232,E,2,10,1.0,368.339,M,49.482,M,0.41,0195*77
$RDENS,762,4941408,PC
$GPVTG,23.5119,T,23.5119,M,1.198,N,2.220,K,D*25
$GPGGA,134335.80,4612.0792212,N,00607.2070629,E,2,10,1.0,368.310,M,49.482,M,0.61,0195*79
$GPVTG,30.8035,T,30.8035,M,1.169,N,2.166,K,D*2A
$GPGGA,134336.20,4612.0793460,N,00607.2071535,E,2,10,1.0,368.342,M,49.482,M,1.01,0195*7D
$GPVTG,32.5288,T,32.5288,M,1.170,N,2.168,K,D*2C
$GPGGA,134336.40,4612.0794061,N,00607.2072055,E,2,10,1.0,368.328,M,49.482,M,1.21,0195*77
$RDENS,763,4941496,PC
$GPVTG,38.1184,T,38.1184,M,1.144,N,2.120,K,D*27
$GPGGA,134336.80,4612.0795222,N,00607.2073071,E,2,10,1.0,368.316,M,49.482,M,1.61,0195*71
$GPVTG,31.8955,T,31.8955,M,1.110,N,2.056,K,D*26
$GPGGA,134337.00,4612.0795746,N,00607.2073718,E,2,10,1.0,368.306,M,49.482,M,1.81,0195*78
$GPVTG,33.0514,T,33.0514,M,1.161,N,2.151,K,D*26
$GPGGA,134337.20,4612.0796405,N,00607.2074106,E,2,10,1.0,368.328,M,49.482,M,2.01,0195*74
$GPVTG,47.1965,T,47.1965,M,0.932,N,1.727,K,D*2D
$RDENS,764,4941584,PC
$GPGGA,134337.60,4612.0797277,N,00607.2075290,E,2,10,1.0,368.323,M,49.482,M,2.41,0195*70
$GPVTG,38.4003,T,38.4003,M,1.094,N,2.027,K,D*2D
$GPGGA,134337.80,4612.0797710,N,00607.2075806,E,2,10,1.0,368.300,M,49.482,M,2.61,0195*7C
$GPVTG,41.1026,T,41.1026,M,0.966,N,1.791,K,D*21
$GPGGA,134338.20,4612.0798544,N,00607.2076722,E,2,10,1.0,368.289,M,49.482,M,3.01,0195*78
$GPVTG,46.3898,T,46.3898,M,0.724,N,1.343,K,D*22
$RDENS,765,4941672,PC
$GPGGA,134338.40,4612.0799047,N,00607.2077052,E,2,10,1.0,368.306,M,49.482,M,3.21,0195*7C
$GPVTG,42.1605,T,42.1605,M,0.609,N,1.129,K,D*22
$GPGGA,134338.80,4612.0799750,N,00607.2077720,E,2,10,1.0,368.322,M,49.482,M,3.61,0195*71
$GPVTG,31.4850,T,31.4850,M,0.776,N,1.438,K,D*2E
$GPGGA,134339.00,4612.0800017,N,00607.2078052,E,2,10,1.0,368.323,M,49.482,M,3.81,0195*71
$GPVTG,32.9670,T,32.9670,M,0.643,N,1.191,K,D*2F
$RDENS,766,4941760,PC
$GPGGA,134339.40,4612.0800766,N,00607.2078593,E,2,10,1.0,368.325,M,49.482,M,4.21,0195*77
$GPVTG,31.7078,T,31.7078,M,0.727,N,1.347,K,D*25
$GPGGA,134339.60,4612.0801046,N,00607.2078855,E,2,10,1.0,368.316,M,49.482,M,4.41,0195*70
$GPVTG,26.0903,T,26.0903,M,0.702,N,1.301,K,D*20
$GPGGA,134340.00,4612.0801698,N,00607.2079274,E,2,10,1.0,368.311,M,49.482,M,4.81,0195*7E
$GPVTG,34.8798,T,34.8798,M,0.595,N,1.102,K,D*2D
$RDENS,767,4941848,PC
$GPGGA,134340.20,4612.0802164,N,00607.2079435,E,2,10,1.0,368.328,M,49.482,M,5.01,0195*7B
$GPVTG,25.8822,T,25.8822,M,0.650,N,1.205,K,D*23
$GPGGA,134340.60,4612.0802726,N,00607.2079801,E,2,10,1.0,368.338,M,49.482,M,5.41,0195*71
$GPVTG,26.3334,T,26.3334,M,0.662,N,1.226,K,D*23
$GPGGA,134340.80,4612.0803012,N,00607.2079991,E,2,10,1.0,368.355,M,49.482,M,5.61,0195*7F
$GPVTG,25.3284,T,25.3284,M,0.629,N,1.166,K,D*2B
$RDENS,768,4941936,PC
$GPGGA,134341.00,4612.0803177,N,00607.2080287,E,2,10,1.0,368.350,M,49.482,M,5.81,0195*75
$GPVTG,20.8188,T,20.8188,M,0.664,N,1.231,K,D*23
$GPGGA,134341.40,4612.0803922,N,00607.2080588,E,2,10,1.0,368.365,M,49.482,M,6.21,0195*7E
$GPVTG,38.0152,T,38.0152,M,0.530,N,0.983,K,D*22
$GPGGA,134341.60,4612.0804468,N,00607.2080663,E,2,10,1.0,368.385,M,49.482,M,6.41,0195*76
$GPVTG,29.5967,T,29.5967,M,0.536,N,0.993,K,D*25
$RDENS,769,4942024,PC
$GPGGA,134342.00,4612.0805160,N,00607.2081079,E,2,10,1.0,368.332,M,49.482,M,6.81,0195*73
$GPVTG,23.0739,T,23.0739,M,0.562,N,1.041,K,D*23
$GPGGA,134342.20,4612.0805146,N,00607.2081621,E,2,11,0.9,368.384,M,49.482,M,7.01,0195*73
$GPVTG,37.0216,T,37.0216,M,0.503,N,0.933,K,D*29
$GPGGA,134342.60,4612.0805793,N,00607.2082133,E,2,11,0.9,368.371,M,49.482,M,7.41,0195*70
$GPVTG,27.7397,T,27.7397,M,0.540,N,1.002,K,D*24
$RDENS,770,4942112,PC
$GPGGA,134342.80,4612.0805938,N,00607.2082467,E,2,11,0.9,368.386,M,49.482,M,7.61,0195*7F
$GPVTG,42.0015,T,42.0015,M,0.415,N,0.769,K,D*2E
$GPGGA,134343.20,4612.0806447,N,00607.2082899,E,2,11,0.9,368.408,M,49.482,M,8.01,0195*77
$GPVTG,33.7493,T,33.7493,M,0.481,N,0.891,K,D*2B
$GPGGA,134343.40,4612.0806306,N,00607.2083383,E,2,11,0.9,368.484,M,49.482,M,8.21,0195*74
$GPVTG,42.6922,T,42.6922,M,0.438,N,0.811,K,D*21
$RDENS,771,4942199,PC
$GPGGA,134343.60,4612.0806439,N,00607.2083675,E,2,11,0.9,368.511,M,49.482,M,8.41,0195*7A
