$GPVTG,195.8284,T,195.8284,M,0.251,N,0.464,K,D*26
$GPGGA,124709.80,4612.0342503,N,00607.4120420,E,4,06,1.4,368.558,M,49.479,M,0.11,0195*78
$GPVTG,198.5540,T,198.5540,M,0.231,N,0.429,K,D*29
$GPGGA,124710.20,4612.0342263,N,00607.4120164,E,4,06,1.4,368.513,M,49.479,M,0.51,0195*75
$GPVTG,201.8368,T,201.8368,M,0.235,N,0.435,K,D*20
$GPVTG,213.3030,T,213.3030,M,0.184,N,0.340,K,D*2C
$GPVTG,203.3337,T,203.3337,M,0.151,N,0.279,K,D*2F
$GPVTG,197.3231,T,197.3231,M,0.162,N,0.300,K,D*20
$GPGGA,124711.00,4612.0339634,N,00607.4116961,E,2,06,2.4,368.067,M,49.479,M,0.59,0195*7F
$RDENS,1887,4602948,PC
$GPVTG,203.4181,T,203.4181,M,0.227,N,0.421,K,D*26
$GPGGA,124711.20,4612.0339461,N,00607.4116878,E,2,06,2.4,368.064,M,49.479,M,0.79,0195*77
$GPVTG,200.8579,T,200.8579,M,0.171,N,0.316,K,D*25
$GPGGA,124711.60,4612.0339166,N,00607.4116766,E,2,06,2.4,368.060,M,49.479,M,1.19,0195*72
$GPVTG,198.7441,T,198.7441,M,0.336,N,0.623,K,D*27
$GPGGA,124711.80,4612.0338986,N,00607.4116681,E,2,06,2.4,368.039,M,49.479,M,0.11,0195*76
$RDENS,1888,4603037,PC
$GPVTG,207.4126,T,207.4126,M,0.184,N,0.342,K,D*2E
$GPGGA,124712.20,4612.0338791,N,00607.4116627,E,2,06,2.4,368.029,M,49.479,M,0.29,0195*71
$GPVTG,229.8195,T,229.8195,M,0.113,N,0.210,K,D*26
$GPGGA,124712.40,4612.0339283,N,00607.4116743,E,2,08,1.0,367.979,M,49.479,M,0.49,0195*7F
$GPVTG,213.6701,T,213.6701,M,0.186,N,0.346,K,D*28
$GPGGA,124712.80,4612.0339620,N,00607.4116955,E,2,08,1.0,368.029,M,49.479,M,0.15,0195*7D
$RDENS,1889,4603126,PC
$GPVTG,216.7875,T,216.7875,M,0.247,N,0.458,K,D*2E
$GPGGA,124713.00,4612.0339497,N,00607.4116893,E,2,08,1.0,368.045,M,49.479,M,0.35,0195*79
$GPVTG,219.1602,T,219.1602,M,0.181,N,0.335,K,D*2B
$GPVTG,209.9422,T,209.9422,M,0.138,N,0.255,K,D*2E
$GPVTG,208.3694,T,208.3694,M,0.186,N,0.345,K,D*2B
$GPVTG,208.3908,T,208.3908,M,0.131,N,0.242,K,D*21
$RDENS,1890,4603214,PC
$GPVTG,194.0371,T,194.0371,M,0.310,N,0.574,K,D*22
$GPVTG,183.7943,T,183.7943,M,0.332,N,0.615,K,D*26
$GPVTG,180.6432,T,180.6432,M,0.274,N,0.507,K,D*25
$GPVTG,175.2217,T,175.2217,M,0.349,N,0.647,K,D*2D
$GPVTG,164.3656,T,164.3656,M,0.294,N,0.544,K,D*2C
$RDENS,1891,4603302,PC
$GPVTG,169.0721,T,169.0721,M,0.187,N,0.347,K,D*28
$GPVTG,183.6116,T,183.6116,M,0.272,N,0.504,K,D*20
$GPVTG,179.7567,T,179.7567,M,0.242,N,0.448,K,D*2A
$GPVTG,164.9269,T,164.9269,M,0.299,N,0.555,K,D*21
$RDENS,1892,4603390,PC
$GPVTG,160.6482,T,160.6482,M,0.157,N,0.290,K,D*2E
$GPVTG,163.3618,T,163.3618,M,0.217,N,0.402,K,D*24
$GPVTG,179.9120,T,179.9120,M,0.334,N,0.619,K,D*2C
$GPVTG,173.7340,T,173.7340,M,0.210,N,0.389,K,D*27
$RDENS,1893,4603478,PC
$GPVTG,140.0748,T,140.0748,M,0.171,N,0.317,K,D*24
$GPVTG,161.7651,T,161.7651,M,0.255,N,0.473,K,D*24
$GPVTG,145.0596,T,145.0596,M,0.203,N,0.376,K,D*25
$GPVTG,164.5465,T,164.5465,M,0.210,N,0.389,K,D*27
$GPVTG,163.9511,T,163.9511,M,0.177,N,0.328,K,D*2E
$RDENS,1894,4603568,PC
$GPVTG,154.6654,T,154.6654,M,0.149,N,0.277,K,D*28
$GPVTG,127.1382,T,127.1382,M,0.109,N,0.202,K,D*2E
$GPVTG,144.4490,T,144.4490,M,0.176,N,0.326,K,D*21
$GPVTG,123.0654,T,123.0654,M,0.200,N,0.371,K,D*21
$RDENS,1895,4603655,PC
$GPVTG,119.2898,T,119.2898,M,0.248,N,0.459,K,D*20
$GPVTG,160.1939,T,160.1939,M,0.078,N,0.145,K,D*29
$GPVTG,139.7860,T,139.7860,M,0.089,N,0.164,K,D*24
$GPVTG,154.7380,T,154.7380,M,0.150,N,0.277,K,D*20
$GPVTG,159.3680,T,159.3680,M,0.125,N,0.231,K,D*20
$RDENS,1896,4603743,PC
$GPVTG,149.6955,T,149.6955,M,0.121,N,0.225,K,D*21
$GPVTG,146.6356,T,146.6356,M,0.104,N,0.194,K,D*2F
$GPVTG,133.2347,T,133.2347,M,0.108,N,0.200,K,D*2D
$GPVTG,109.6060,T,109.6060,M,0.072,N,0.134,K,D*25
$RDENS,1897,4603831,PC
$GPVTG,72.6620,T,72.6620,M,0.097,N,0.180,K,D*21
$GPVTG,126.2234,T,126.2234,M,0.026,N,0.047,K,D*21
$GPVTG,66.8373,T,66.8373,M,0.072,N,0.133,K,D*22
$GPVTG,102.2486,T,102.2486,M,0.071,N,0.132,K,D*20
$RDENS,1898,4603919,PC
$GPVTG,34.4515,T,34.4515,M,0.083,N,0.154,K,D*2D
$GPVTG,114.0162,T,114.0162,M,0.052,N,0.096,K,D*2E
$GPVTG,96.3184,T,96.3184,M,0.063,N,0.118,K,D*2B
$GPVTG,75.0219,T,75.0219,M,0.051,N,0.095,K,D*2E
$GPVTG,73.1868,T,73.1868,M,0.053,N,0.099,K,D*20
$RDENS,1899,4604007,PC
$GPVTG,97.9288,T,97.9288,M,0.055,N,0.102,K,D*25
$GPVTG,62.2594,T,62.2594,M,0.041,N,0.077,K,D*23
$GPVTG,89.2142,T,89.2142,M,0.057,N,0.105,K,D*20
$GPVTG,75.7735,T,75.7735,M,0.055,N,0.102,K,D*25
$RDENS,1900,4604095,PC
$GPVTG,80.9449,T,80.9449,M,0.102,N,0.189,K,D*25
$GPVTG,90.2968,T,90.2968,M,0.068,N,0.125,K,D*2E
$GPVTG,98.6557,T,98.6557,M,0.063,N,0.116,K,D*25
$GPVTG,44.7383,T,44.7383,M,0.143,N,0.266,K,D*22
$GPVTG,57.5451,T,57.5451,M,0.140,N,0.259,K,D*2D
$RDENS,1901,4604183,PC
$GPVTG,42.9571,T,42.9571,M,0.142,N,0.264,K,D*21
$GPVTG,77.6515,T,77.6515,M,0.051,N,0.094,K,D*2F
$GPVTG,71.3214,T,71.3214,M,0.093,N,0.173,K,D*29
$GPVTG,54.2407,T,54.2407,M,0.093,N,0.173,K,D*29
$RDENS,1902,4604271,PC
$GPVTG,70.2837,T,70.2837,M,0.114,N,0.211,K,D*20
$GPVTG,95.5020,T,95.5020,M,0.085,N,0.157,K,D*28
$GPVTG,81.0719,T,81.0719,M,0.039,N,0.071,K,D*2A
$GPVTG,58.2253,T,58.2253,M,0.091,N,0.169,K,D*20
$RDENS,1903,4604359,PC
$GPVTG,68.6047,T,68.6047,M,0.122,N,0.225,K,D*22
$GPVTG,9.9665,T,9.9665,M,0.144,N,0.267,K,D*24
$GPVTG,95.1487,T,95.1487,M,0.091,N,0.168,K,D*21
$GPVTG,7.1739,T,7.1739,M,0.060,N,0.111,K,D*21
$GPVTG,17.5313,T,17.5313,M,0.112,N,0.208,K,D*2E
$RDENS,1904,4604447,PC
$GPVTG,43.7204,T,43.7204,M,0.124,N,0.229,K,D*28
$GPVTG,50.0550,T,50.0550,M,0.075,N,0.139,K,D*2F
$GPVTG,56.8121,T,56.8121,M,0.069,N,0.127,K,D*2D
$GPVTG,70.0675,T,70.0675,M,0.041,N,0.077,K,D*23
$RDENS,1905,4604535,PC
$GPVTG,16.3313,T,16.3313,M,0.061,N,0.113,K,D*22
$GPVTG,188.2513,T,188.2513,M,0.015,N,0.028,K,D*28
$GPVTG,28.6306,T,28.6306,M,0.069,N,0.128,K,D*22
$GPVTG,7.7742,T,7.7742,M,0.086,N,0.159,K,D*25
$GPVTG,5.1055,T,5.1055,M,0.046,N,0.085,K,D*29
$RDENS,1906,4604623,PC
$GPVTG,39.4637,T,39.4637,M,0.100,N,0.185,K,D*2B
$GPVTG,3.4273,T,3.4273,M,0.042,N,0.078,K,D*2F
$GPVTG,18.7602,T,18.7602,M,0.055,N,0.102,K,D*25
$GPVTG,5.9730,T,5.9730,M,0.125,N,0.231,K,D*20
$RDENS,1907,4604711,PC
$GPVTG,339.0936,T,339.0936,M,0.044,N,0.082,K,D*2C
$GPVTG,10.8995,T,10.8995,M,0.097,N,0.179,K,D*27
$GPVTG,357.8466,T,357.8466,M,0.029,N,0.053,K,D*2B
$GPVTG,330.8386,T,330.8386,M,0.039,N,0.073,K,D*28
$GPGGA,124729.60,4612.0340107,N,00607.4125979,E,2,10,0.9,369.399,M,49.479,M,0.01,0195*74
$RDENS,1908,4604799,PC
$GPVTG,358.6088,T,358.6088,M,0.051,N,0.094,K,D*2F
$GPGGA,124729.80,4612.0340181,N,00607.4126031,E,2,10,0.9,369.431,M,49.479,M,0.19,0195*7E
$GPVTG,339.6977,T,339.6977,M,0.122,N,0.226,K,D*21
$GPGGA,124730.20,4612.0340229,N,00607.4126038,E,2,10,0.9,369.404,M,49.479,M,0.59,0195*76
$GPVTG,328.7973,T,328.7973,M,0.053,N,0.098,K,D*21
$GPVTG,358.8979,T,358.8979,M,0.061,N,0.114,K,D*25
$RDENS,1909,4604888,PC
$GPVTG,11.6850,T,11.6850,M,0.040,N,0.075,K,D*20
$GPVTG,19.7491,T,19.7491,M,0.101,N,0.187,K,D*28
$GPVTG,21.2435,T,21.2435,M,0.037,N,0.069,K,D*2D
$GPVTG,348.4282,T,348.4282,M,0.051,N,0.095,K,D*2E
$RDENS,1910,4604976,PC
$GPVTG,353.7860,T,353.7860,M,0.035,N,0.064,K,D*22
$GPVTG,293.6389,T,293.6389,M,0.041,N,0.076,K,D*22
$GPVTG,25.6923,T,25.6923,M,0.052,N,0.097,K,D*2F
$GPVTG,6.1592,T,6.1592,M,0.084,N,0.155,K,D*2B
$GPVTG,23.2277,T,23.2277,M,0.082,N,0.151,K,D*29
$RDENS,1911,4605064,PC
$GPVTG,35.4561,T,35.4561,M,0.076,N,0.142,K,D*20
$GPVTG,11.4826,T,11.4826,M,0.093,N,0.171,K,D*2B
$GPVTG,328.3040,T,328.3040,M,0.042,N,0.077,K,D*20
$GPVTG,306.7817,T,306.7817,M,0.032,N,0.060,K,D*21
$RDENS,1912,4605152,PC
$GPVTG,357.8705,T,357.8705,M,0.092,N,0.171,K,D*2A
$GPVTG,355.9801,T,355.9801,M,0.061,N,0.114,K,D*25
$GPVTG,5.7041,T,5.7041,M,0.105,N,0.194,K,D*2E
$GPVTG,16.4901,T,16.4901,M,0.045,N,0.083,K,D*2C
$RDENS,1913,4605240,PC
$GPVTG,347.6523,T,347.6523,M,0.077,N,0.144,K,D*27
$GPVTG,9.9144,T,9.9144,M,0.072,N,0.133,K,D*22
$GPVTG,336.8966,T,336.8966,M,0.057,N,0.106,K,D*23
$GPVTG,355.9837,T,355.9837,M,0.042,N,0.078,K,D*2F
$GPVTG,12.5260,T,12.5260,M,0.047,N,0.087,K,D*2A
$RDENS,1914,4605328,PC
$GPVTG,343.3932,T,343.3932,M,0.056,N,0.104,K,D*20
$GPVTG,13.1229,T,13.1229,M,0.077,N,0.142,K,D*21
$GPVTG,4.5623,T,4.5623,M,0.102,N,0.188,K,D*24
$GPVTG,19.3540,T,19.3540,M,0.056,N,0.105,K,D*21
$RDENS,1915,4605416,PC
$GPVTG,26.5548,T,26.5548,M,0.063,N,0.117,K,D*24
$GPVTG,17.9497,T,17.9497,M,0.073,N,0.136,K,D*26
$GPVTG,306.3332,T,306.3332,M,0.021,N,0.038,K,D*2E
$GPVTG,223.4904,T,223.4904,M,0.039,N,0.073,K,D*28
$GPVTG,298.0560,T,298.0560,M,0.030,N,0.056,K,D*26
$RDENS,1916,4605504,PC
$GPVTG,351.2071,T,351.2071,M,0.034,N,0.063,K,D*24
$GPVTG,0.3431,T,0.3431,M,0.061,N,0.114,K,D*25
$GPVTG,345.9946,T,345.9946,M,0.081,N,0.150,K,D*2B
$GPVTG,322.0098,T,322.0098,M,0.058,N,0.107,K,D*2D
$RDENS,1917,4605592,PC
$GPVTG,307.4127,T,307.4127,M,0.063,N,0.116,K,D*25
$GPVTG,308.7553,T,308.7553,M,0.022,N,0.041,K,D*23
$GPVTG,328.2669,T,328.2669,M,0.015,N,0.027,K,D*27
$GPVTG,239.4813,T,239.4813,M,0.052,N,0.097,K,D*2F
$RDENS,1918,4605680,PC
$GPVTG,326.1837,T,326.1837,M,0.036,N,0.067,K,D*22
$GPVTG,12.4781,T,12.4781,M,0.035,N,0.065,K,D*23
$GPVTG,1.3049,T,1.3049,M,0.129,N,0.239,K,D*24
$GPVTG,323.2482,T,323.2482,M,0.047,N,0.086,K,D*2B
$GPVTG,332.2753,T,332.2753,M,0.036,N,0.067,K,D*22
$RDENS,1919,4605768,PC
$GPVTG,342.8379,T,342.8379,M,0.061,N,0.113,K,D*22
$GPVTG,303.8312,T,303.8312,M,0.015,N,0.029,K,D*29
$GPVTG,269.6560,T,269.6560,M,0.044,N,0.081,K,D*2F
$GPVTG,272.5002,T,272.5002,M,0.053,N,0.099,K,D*20
$RDENS,1920,4605857,PC
$GPVTG,341.7911,T,341.7911,M,0.080,N,0.148,K,D*23
$GPVTG,19.0167,T,19.0167,M,0.064,N,0.119,K,D*2D
$GPVTG,308.3562,T,308.3562,M,0.026,N,0.048,K,D*2E
$GPVTG,29.9838,T,29.9838,M,0.044,N,0.081,K,D*2F
$GPVTG,3.3085,T,3.3085,M,0.074,N,0.138,K,D*2F
$RDENS,1921,4605945,PC
$GPVTG,307.5996,T,307.5996,M,0.050,N,0.093,K,D*29
$GPVTG,240.9698,T,240.9698,M,0.072,N,0.133,K,D*22
$GPVTG,343.0105,T,343.0105,M,0.065,N,0.121,K,D*27
$GPVTG,353.0258,T,353.0258,M,0.074,N,0.137,K,D*20
$RDENS,1922,4606033,PC
$GPVTG,7.9547,T,7.9547,M,0.149,N,0.276,K,D*29
$GPVTG,15.4853,T,15.4853,M,0.099,N,0.183,K,D*2C
$GPVTG,349.1038,T,349.1038,M,0.148,N,0.275,K,D*2B
$GPVTG,13.1736,T,13.1736,M,0.110,N,0.204,K,D*20
$RDENS,1923,4606121,PC
$GPVTG,357.0872,T,357.0872,M,0.146,N,0.270,K,D*20
$GPVTG,49.7522,T,49.7522,M,0.126,N,0.233,K,D*21
$GPVTG,14.0853,T,14.0853,M,0.122,N,0.227,K,D*20
$GPGGA,124743.40,4612.0342605,N,00607.4126963,E,2,09,0.9,370.411,M,49.479,M,0.43,0195*74
$GPVTG,17.9858,T,17.9858,M,0.131,N,0.242,K,D*21
$GPVTG,14.6026,T,14.6026,M,0.347,N,0.642,K,D*26
$RDENS,1924,4606209,PC
$GPVTG,17.8825,T,17.8825,M,0.179,N,0.332,K,D*2B
$GPGGA,124744.00,4612.0342322,N,00607.4125669,E,2,09,0.9,369.998,M,49.479,M,0.55,0195*72
$GPVTG,9.8135,T,9.8135,M,0.215,N,0.398,K,D*22
$GPGGA,124744.20,4612.0342545,N,00607.4125514,E,2,09,0.9,369.909,M,49.479,M,0.75,0195*74
$GPVTG,4.9756,T,4.9756,M,0.129,N,0.239,K,D*24
$GPGGA,124744.40,4612.0342655,N,00607.4125616,E,2,09,0.9,369.926,M,49.479,M,0.95,0195*72
$RDENS,1925,4606297,PC
$GPVTG,353.6937,T,353.6937,M,0.152,N,0.281,K,D*2B
$GPGGA,124744.80,4612.0342534,N,00607.4124910,E,2,09,0.9,369.720,M,49.479,M,1.35,0195*71
$GPVTG,13.2419,T,13.2419,M,0.208,N,0.386,K,D*21
$GPGGA,124745.20,4612.0342812,N,00607.4125079,E,2,09,0.9,369.700,M,49.479,M,0.20,0195*73
$GPVTG,355.0785,T,355.0785,M,0.139,N,0.257,K,D*2D
$GPGGA,124745.40,4612.0342940,N,00607.4125174,E,2,09,0.9,369.684,M,49.479,M,0.40,0195*74
$RDENS,1926,4606386,PC
$GPVTG,335.0201,T,335.0201,M,0.097,N,0.179,K,D*27
$GPGGA,124745.80,4612.0342931,N,00607.4125209,E,2,09,0.9,369.629,M,49.479,M,0.01,0195*75
$GPVTG,350.7671,T,350.7671,M,0.155,N,0.287,K,D*2A
$GPGGA,124746.00,4612.0342978,N,00607.4125311,E,2,09,0.9,369.684,M,49.479,M,0.21,0195*7E
$GPVTG,342.3650,T,342.3650,M,0.152,N,0.281,K,D*2B
$GPGGA,124746.40,4612.0343367,N,00607.4125584,E,2,09,0.9,369.852,M,49.479,M,0.61,0195*74
$RDENS,1927,4606474,PC
$GPVTG,343.9528,T,343.9528,M,0.169,N,0.314,K,D*2E
$GPGGA,124746.60,4612.0342387,N,00607.4123209,E,2,08,1.0,369.185,M,49.479,M,0.81,0195*79
$GPVTG,13.6185,T,13.6185,M,0.331,N,0.613,K,D*23
$GPGGA,124747.00,4612.0342827,N,00607.4123247,E,2,08,1.0,369.134,M,49.479,M,0.21,0195*75
$GPVTG,327.2395,T,327.2395,M,0.211,N,0.392,K,D*2C
$GPGGA,124747.20,4612.0342944,N,00607.4123168,E,2,08,1.0,369.132,M,49.479,M,0.41,0195*7D
$RDENS,1928,4606562,PC
$GPVTG,304.8210,T,304.8210,M,0.129,N,0.239,K,D*24
$GPGGA,124747.40,4612.0343009,N,00607.4123165,E,2,08,1.0,369.131,M,49.479,M,0.61,0195*76
$GPVTG,334.0040,T,334.0040,M,0.118,N,0.218,K,D*25
$GPGGA,124747.80,4612.0343247,N,00607.4122946,E,2,08,1.0,369.125,M,49.479,M,0.00,0195*78
$GPVTG,320.5021,T,320.5021,M,0.179,N,0.332,K,D*2B
$GPGGA,124748.00,4612.0343387,N,00607.4122829,E,2,08,1.0,369.131,M,49.479,M,0.20,0195*7D
$RDENS,1929,4606650,PC
$GPVTG,315.5492,T,315.5492,M,0.271,N,0.502,K,D*25
$GPGGA,124748.40,4612.0343723,N,00607.4122213,E,2,10,0.9,369.023,M,49.479,M,0.01,0195*70
$GPVTG,306.2525,T,306.2525,M,0.332,N,0.616,K,D*25
$GPGGA,124748.60,4612.0343943,N,00607.4122315,E,2,10,0.9,369.103,M,49.479,M,0.21,0195*7C
$GPVTG,316.5479,T,316.5479,M,0.339,N,0.629,K,D*22
$GPGGA,124749.00,4612.0345544,N,00607.4123805,E,2,11,0.8,369.578,M,49.479,M,0.61,0195*71
$RDENS,1930,4606738,PC
$GPVTG,317.3482,T,317.3482,M,0.447,N,0.829,K,D*22
$GPGGA,124749.20,4612.0346155,N,00607.4124415,E,2,10,0.9,369.797,M,49.479,M,0.81,0195*73
$GPVTG,305.7357,T,305.7357,M,0.475,N,0.880,K,D*20
$GPGGA,124749.60,4612.0346521,N,00607.4123764,E,2,10,0.9,369.772,M,49.479,M,1.21,0195*72
$GPVTG,312.0318,T,312.0318,M,0.580,N,1.076,K,D*2B
$GPGGA,124749.80,4612.0345995,N,00607.4122988,E,2,09,1.0,369.588,M,49.479,M,0.02,0195*76
$RDENS,1931,4606826,PC
$GPVTG,315.5681,T,315.5681,M,0.599,N,1.110,K,D*22
$GPGGA,124750.20,4612.0345348,N,00607.4120497,E,2,09,1.0,369.130,M,49.479,M,0.38,0195*71
$GPVTG,301.2845,T,301.2845,M,0.881,N,1.632,K,D*21
$GPGGA,124750.40,4612.0345519,N,00607.4120198,E,2,09,1.0,369.178,M,49.479,M,0.05,0195*7D
$GPVTG,253.8684,T,253.8684,M,0.557,N,1.032,K,D*21
$GPGGA,124750.80,4612.0346176,N,00607.4120113,E,2,09,1.0,369.423,M,49.479,M,0.35,0195*74
$RDENS,1932,4606914,PC
$GPVTG,298.2318,T,298.2318,M,0.586,N,1.086,K,D*22
$GPGGA,124751.00,4612.0346163,N,00607.4119322,E,2,09,1.0,369.347,M,49.479,M,0.55,0195*70
$GPVTG,317.3502,T,317.3502,M,0.531,N,0.984,K,D*24
$GPGGA,124751.40,4612.0346270,N,00607.4118359,E,2,09,1.0,369.333,M,49.479,M,0.95,0195*77
$GPVTG,285.0650,T,285.0650,M,0.728,N,1.349,K,D*24
$GPGGA,124751.60,4612.0346942,N,00607.4117373,E,2,09,1.0,369.101,M,49.479,M,1.15,0195*72
$RDENS,1933,4607002,PC
$GPVTG,304.2375,T,304.2375,M,0.479,N,0.887,K,D*2B
$GPGGA,124751.80,4612.0347648,N,00607.4117636,E,2,09,1.0,369.297,M,49.479,M,0.15,0195*71
$GPVTG,313.8527,T,313.8527,M,0.773,N,1.433,K,D*20
$GPGGA,124752.20,4612.0347950,N,00607.4117887,E,2,09,1.0,369.765,M,49.479,M,0.25,0195*71
$GPVTG,308.9115,T,308.9115,M,0.597,N,1.107,K,D*2A
$GPGGA,124752.40,4612.0348142,N,00607.4117506,E,2,09,1.0,369.780,M,49.479,M,0.04,0195*7F
$RDENS,1934,4607090,PC
$GPVTG,300.5542,T,300.5542,M,0.774,N,1.434,K,D*20
$GPGGA,124752.80,4612.0348514,N,00607.4116622,E,2,09,1.0,369.765,M,49.479,M,0.36,0195*7A
$GPVTG,298.0421,T,298.0421,M,0.498,N,0.923,K,D*2B
$GPGGA,124753.00,4612.0348743,N,00607.4116296,E,2,09,1.0,369.762,M,49.479,M,0.56,0195*79
$GPVTG,299.5306,T,299.5306,M,0.616,N,1.141,K,D*22
$GPGGA,124753.40,4612.0349552,N,00607.4115725,E,2,09,1.0,369.767,M,49.479,M,0.96,0195*79
$RDENS,1935,4607179,PC
$GPVTG,326.5861,T,326.5861,M,0.848,N,1.572,K,D*23
$GPGGA,124753.60,4612.0350342,N,00607.4116098,E,2,09,1.0,369.991,M,49.479,M,1.16,0195*78
$GPVTG,299.0471,T,299.0471,M,0.597,N,1.107,K,D*2A
$GPGGA,124754.00,4612.0350538,N,00607.4115118,E,2,09,1.0,369.893,M,49.479,M,1.56,0195*7F
$GPVTG,292.4252,T,292.4252,M,0.553,N,1.025,K,D*23
$GPVTG,287.0276,T,287.0276,M,0.597,N,1.106,K,D*2B
$RDENS,1936,4607267,PC
$GPGGA,124754.40,4612.0351535,N,00607.4114581,E,2,10,0.9,369.995,M,49.479,M,0.11,0195*77
$GPVTG,303.1823,T,303.1823,M,0.729,N,1.350,K,D*2D
$GPGGA,124754.60,4612.0351574,N,00607.4114308,E,2,09,1.0,369.992,M,49.479,M,0.13,0195*72
$GPVTG,294.4966,T,294.4966,M,0.660,N,1.223,K,D*24
$GPGGA,124755.00,4612.0351088,N,00607.4111981,E,2,09,1.0,369.650,M,49.479,M,0.27,0195*7B
$GPVTG,322.4288,T,322.4288,M,0.700,N,1.296,K,D*2D
$RDENS,1937,4607356,PC
$GPGGA,124755.20,4612.0352019,N,00607.4112654,E,2,09,1.0,369.957,M,49.479,M,0.47,0195*78
$GPVTG,322.6599,T,322.6599,M,0.689,N,1.276,K,D*23
$GPGGA,124755.60,4612.0352834,N,00607.4111722,E,2,10,0.9,370.058,M,49.479,M,0.87,0195*7A
$GPVTG,305.2124,T,305.2124,M,0.661,N,1.225,K,D*23
$GPGGA,124755.80,4612.0353089,N,00607.4111282,E,2,10,0.9,370.057,M,49.479,M,0.15,0195*70
$GPVTG,308.2707,T,308.2707,M,0.672,N,1.246,K,D*24
$RDENS,1938,4607445,PC
$GPGGA,124756.20,4612.0352712,N,00607.4110240,E,2,09,1.0,369.861,M,49.479,M,0.55,0195*73
$GPVTG,293.9290,T,293.9290,M,0.660,N,1.224,K,D*23
$GPGGA,124756.40,4612.0352794,N,00607.4109733,E,2,09,1.0,369.822,M,49.479,M,0.05,0195*70
$GPVTG,294.9028,T,294.9028,M,0.567,N,1.051,K,D*27
$GPGGA,124756.80,4612.0352466,N,00607.4108088,E,2,09,1.0,369.512,M,49.479,M,0.35,0195*79
$GPVTG,318.1480,T,318.1480,M,0.616,N,1.141,K,D*22
$RDENS,1939,4607534,PC
$GPGGA,124757.00,4612.0352543,N,00607.4107744,E,2,09,1.0,369.517,M,49.479,M,0.55,0195*7D
$GPVTG,297.7271,T,297.7271,M,0.821,N,1.521,K,D*2A
$GPGGA,124757.20,4612.0350538,N,00607.4103906,E,2,08,1.2,368.536,M,49.479,M,0.75,0195*7E
$GPVTG,305.1166,T,305.1166,M,0.445,N,0.824,K,D*2D
$GPGGA,124757.60,4612.0350759,N,00607.4103089,E,2,08,1.2,368.568,M,49.479,M,0.13,0195*7A
$GPVTG,291.8824,T,291.8824,M,0.526,N,0.975,K,D*2C
$RDENS,1940,4607622,PC
$GPGGA,124757.80,4612.0350842,N,00607.4102698,E,2,08,1.2,368.586,M,49.479,M,0.33,0195*74
$GPVTG,288.4630,T,288.4630,M,0.376,N,0.697,K,D*2C
$GPGGA,124758.20,4612.0350939,N,00607.4101983,E,2,08,1.2,368.599,M,49.479,M,0.73,0195*70
$GPVTG,278.4552,T,278.4552,M,0.353,N,0.654,K,D*24
$GPGGA,124758.40,4612.0350923,N,00607.4101645,E,2,08,1.2,368.604,M,49.479,M,0.01,0195*7A
$GPVTG,275.2559,T,275.2559,M,0.382,N,0.708,K,D*20
$RDENS,1941,4607711,PC
$GPGGA,124758.80,4612.0350914,N,00607.4101049,E,2,08,1.2,368.630,M,49.479,M,0.41,0195*7B
$GPVTG,270.6994,T,270.6994,M,0.323,N,0.599,K,D*21
$GPGGA,124759.00,4612.0350890,N,00607.4100817,E,2,08,1.2,368.641,M,49.479,M,0.61,0195*79
$GPVTG,250.4977,T,250.4977,M,0.223,N,0.413,K,D*23
$GPGGA,124759.40,4612.0350819,N,00607.4100473,E,2,08,1.2,368.686,M,49.479,M,0.02,0195*7C
$GPVTG,238.0271,T,238.0271,M,0.283,N,0.525,K,D*2D
$RDENS,1942,4607800,PC
$GPGGA,124759.60,4612.0350785,N,00607.4100338,E,2,08,1.2,368.710,M,49.479,M,0.22,0195*70
$GPVTG,218.7716,T,218.7716,M,0.227,N,0.421,K,D*26
$GPGGA,124800.00,4612.0350736,N,00607.4100147,E,2,08,1.2,368.731,M,49.479,M,0.62,0195*70
$GPVTG,203.3827,T,203.3827,M,0.216,N,0.400,K,D*27
$GPVTG,193.9293,T,193.9293,M,0.222,N,0.412,K,D*23
$GPVTG,188.2807,T,188.2807,M,0.259,N,0.480,K,D*24
$GPVTG,170.5230,T,170.5230,M,0.171,N,0.317,K,D*24
$RDENS,1943,4607889,PC
$GPVTG,155.3929,T,155.3929,M,0.272,N,0.503,K,D*27
$GPVTG,169.4820,T,169.4820,M,0.389,N,0.721,K,D*20
$GPVTG,176.4515,T,176.4515,M,0.446,N,0.827,K,D*2D
$GPVTG,147.8696,T,147.8696,M,0.306,N,0.568,K,D*28
$RDENS,1944,4607978,PC
$GPGGA,124801.40,4612.0351838,N,00607.4102494,E,2,10,0.9,369.440,M,49.479,M,1.07,0195*79
$GPVTG,150.0771,T,150.0771,M,0.304,N,0.563,K,D*21
$GPGGA,124801.60,4612.0350971,N,00607.4101566,E,2,09,1.0,369.112,M,49.479,M,1.27,0195*79
$GPVTG,135.8397,T,135.8397,M,0.398,N,0.738,K,D*28
$GPGGA,124802.00,4612.0349348,N,00607.4101137,E,2,08,1.2,368.753,M,49.479,M,0.05,0195*74
$GPVTG,131.5973,T,131.5973,M,0.428,N,0.794,K,D*22
$RDENS,1945,4608067,PC
$GPGGA,124802.20,4612.0349119,N,00607.4101315,E,2,08,1.2,368.721,M,49.479,M,0.25,0195*75
$GPVTG,126.6942,T,126.6942,M,0.635,N,1.177,K,D*26
$GPGGA,124802.60,4612.0348500,N,00607.4101883,E,2,09,0.9,368.668,M,49.479,M,0.07,0195*7F
$GPVTG,113.3764,T,113.3764,M,0.518,N,0.960,K,D*25
$GPGGA,124802.80,4612.0348346,N,00607.4102174,E,2,09,0.9,368.651,M,49.479,M,0.27,0195*7F
$GPVTG,113.3441,T,113.3441,M,0.693,N,1.284,K,D*25
$RDENS,1946,4608156,PC
$GPGGA,124803.20,4612.0348015,N,00607.4103056,E,2,09,0.9,368.675,M,49.479,M,0.67,0195*73
$GPVTG,109.1105,T,109.1105,M,0.671,N,1.243,K,D*22
$GPGGA,124803.40,4612.0347747,N,00607.4103533,E,2,09,0.9,368.664,M,49.479,M,0.87,0195*72
$GPVTG,108.1738,T,108.1738,M,0.608,N,1.128,K,D*22
$GPGGA,124803.80,4612.0347586,N,00607.4104678,E,2,09,0.9,368.734,M,49.479,M,1.27,0195*75
$GPVTG,101.8442,T,101.8442,M,0.975,N,1.807,K,D*23
$GPGGA,124804.00,4612.0347512,N,00607.4105051,E,2,09,0.9,368.688,M,49.479,M,0.08,0195*71
$RDENS,1947,4608245,PC
$GPVTG,103.4641,T,103.4641,M,0.618,N,1.145,K,D*28
$GPGGA,124804.40,4612.0347349,N,00607.4105967,E,2,08,1.0,368.623,M,49.479,M,0.01,0195*70
$GPVTG,104.7786,T,104.7786,M,0.411,N,0.761,K,D*22
$GPGGA,124804.60,4612.0347280,N,00607.4106460,E,2,08,1.0,368.654,M,49.479,M,0.19,0195*76
$GPVTG,87.6600,T,87.6600,M,0.917,N,1.699,K,D*2E
$GPGGA,124805.00,4612.0347256,N,00607.4107790,E,2,07,1.4,368.671,M,49.479,M,0.59,0195*7F
$RDENS,1948,4608334,PC
$GPVTG,93.6901,T,93.6901,M,0.435,N,0.807,K,D*2B
$GPGGA,124805.20,4612.0347293,N,00607.4108091,E,2,07,1.4,368.581,M,49.479,M,0.79,0195*73
$GPVTG,88.4621,T,88.4621,M,0.801,N,1.484,K,D*26
$GPGGA,124805.40,4612.0347278,N,00607.4108879,E,2,07,1.4,368.634,M,49.479,M,0.99,0195*7D
$GPVTG,85.1486,T,85.1486,M,0.564,N,1.046,K,D*22
$GPGGA,124805.80,4612.0347458,N,00607.4109602,E,2,07,1.4,368.499,M,49.479,M,0.06,0195*75
$RDENS,1949,4608423,PC
$GPVTG,79.5950,T,79.5950,M,0.860,N,1.594,K,D*21
$GPGGA,124806.00,4612.0347598,N,00607.4110259,E,2,07,1.4,368.571,M,49.479,M,0.26,0195*74
$GPVTG,64.7599,T,64.7599,M,0.570,N,1.056,K,D*26
$GPVTG,54.2493,T,54.2493,M,0.567,N,1.051,K,D*27
$GPVTG,68.8241,T,68.8241,M,0.783,N,1.451,K,D*2B
$GPVTG,84.7405,T,84.7405,M,0.529,N,0.981,K,D*28
$RDENS,1950,4608512,PC
$GPVTG,72.3976,T,72.3976,M,0.500,N,0.926,K,D*2E
$GPVTG,79.7428,T,79.7428,M,0.573,N,1.062,K,D*22
$GPVTG,76.8715,T,76.8715,M,0.523,N,0.969,K,D*24
$GPVTG,66.7295,T,66.7295,M,0.524,N,0.972,K,D*29
$GPGGA,124807.60,4612.0348438,N,00607.4113090,E,2,08,1.2,368.357,M,49.479,M,0.87,0195*73
$RDENS,1951,4608601,PC
$GPVTG,56.1684,T,56.1684,M,0.683,N,1.266,K,D*28
$GPGGA,124807.80,4612.0348679,N,00607.4113534,E,2,08,1.2,368.357,M,49.479,M,0.13,0195*7C
$GPVTG,55.4817,T,55.4817,M,0.484,N,0.897,K,D*28
$GPGGA,124808.20,4612.0348997,N,00607.4114358,E,2,08,1.2,368.395,M,49.479,M,0.53,0195*77
$GPVTG,51.5078,T,51.5078,M,0.556,N,1.031,K,D*23
$GPGGA,124808.40,4612.0349102,N,00607.4114865,E,2,08,1.2,368.403,M,49.479,M,0.05,0195*7A
$RDENS,1952,4608690,PC
$GPVTG,51.5677,T,51.5677,M,0.561,N,1.040,K,D*21
$GPGGA,124808.80,4612.0349580,N,00607.4115539,E,2,08,1.2,368.438,M,49.479,M,0.45,0195*71
$GPVTG,27.5569,T,27.5569,M,0.697,N,1.292,K,D*26
$GPGGA,124809.00,4612.0349611,N,00607.4115690,E,2,08,1.2,368.387,M,49.479,M,0.65,0195*72
$GPVTG,47.0533,T,47.0533,M,0.737,N,1.366,K,D*27
$GPGGA,124809.40,4612.0350287,N,00607.4116733,E,2,08,1.2,368.430,M,49.479,M,1.05,0195*72
$RDENS,1953,4608779,PC
$GPVTG,47.2734,T,47.2734,M,0.664,N,1.231,K,D*23
$GPGGA,124809.60,4612.0350523,N,00607.4117215,E,2,08,1.2,368.407,M,49.479,M,1.25,0195*7F
$GPVTG,37.3347,T,37.3347,M,1.102,N,2.043,K,D*21
$GPGGA,124809.80,4612.0351072,N,00607.4117784,E,2,08,1.2,368.433,M,49.479,M,1.45,0195*7D
$GPVTG,37.6264,T,37.6264,M,1.123,N,2.081,K,D*2C
$GPGGA,124810.20,4612.0352049,N,00607.4118784,E,2,08,1.2,368.413,M,49.479,M,1.85,0195*75
$RDENS,1954,4608868,PC
$GPVTG,34.7808,T,34.7808,M,0.850,N,1.576,K,D*2E
$GPGGA,124810.40,4612.0352501,N,00607.4119413,E,2,08,1.2,368.407,M,49.479,M,2.05,0195*78
$GPVTG,36.6842,T,36.6842,M,0.979,N,1.815,K,D*2C
$GPGGA,124810.80,4612.0353515,N,00607.4120524,E,2,08,1.2,368.425,M,49.479,M,2.45,0195*7B
$GPVTG,42.1569,T,42.1569,M,0.939,N,1.741,K,D*26
$GPGGA,124811.00,4612.0353939,N,00607.4121105,E,2,08,1.2,368.414,M,49.479,M,0.02,0195*75
$GPVTG,39.1940,T,39.1940,M,0.899,N,1.666,K,D*29
$RDENS,1955,4608957,PC
$GPGGA,124811.40,4612.0354846,N,00607.4122178,E,2,08,1.2,368.413,M,49.479,M,0.07,0195*74
$GPVTG,41.9339,T,41.9339,M,0.966,N,1.789,K,D*28
$GPGGA,124811.60,4612.0355238,N,00607.4122571,E,2,08,1.2,368.456,M,49.479,M,0.01,0195*7E
$GPVTG,40.8447,T,40.8447,M,0.931,N,1.726,K,D*2F
$GPGGA,124812.00,4612.0355993,N,00607.4123607,E,2,08,1.2,368.426,M,49.479,M,0.41,0195*71
$GPVTG,39.8472,T,39.8472,M,0.821,N,1.521,K,D*2A
$RDENS,1956,4609046,PC
$GPGGA,124812.20,4612.0357333,N,00607.4125645,E,2,09,1.0,368.930,M,49.479,M,0.61,0195*7A
$GPVTG,44.9108,T,44.9108,M,0.795,N,1.473,K,D*2C
$GPGGA,124812.60,4612.0358087,N,00607.4126554,E,2,09,1.0,368.942,M,49.479,M,1.01,0195*7F
$GPVTG,38.2699,T,38.2699,M,0.904,N,1.676,K,D*2D
$GPGGA,124812.80,4612.0358486,N,00607.4126746,E,2,09,1.0,368.913,M,49.479,M,0.13,0195*73
$GPVTG,20.1448,T,20.1448,M,0.786,N,1.457,K,D*28
$RDENS,1957,4609135,PC
$GPGGA,124813.00,4612.0360019,N,00607.4128074,E,2,10,0.9,369.303,M,49.479,M,0.33,0195*73
$GPVTG,34.9064,T,34.9064,M,1.008,N,1.868,K,D*28
$GPGGA,124813.40,4612.0360334,N,00607.4128317,E,2,10,0.9,369.084,M,49.479,M,0.73,0195*75
$GPVTG,33.5911,T,33.5911,M,0.580,N,1.075,K,D*28
$GPGGA,124813.60,4612.0359864,N,00607.4128283,E,2,09,1.0,368.844,M,49.479,M,0.02,0195*7C
$GPVTG,39.4686,T,39.4686,M,0.716,N,1.327,K,D*21
$RDENS,1958,4609224,PC
$GPGGA,124814.00,4612.0361037,N,00607.4129295,E,2,09,1.0,368.854,M,49.479,M,0.38,0195*76
$GPVTG,40.4884,T,40.4884,M,1.101,N,2.041,K,D*20
$GPGGA,124814.20,4612.0361395,N,00607.4129859,E,2,09,1.0,368.876,M,49.479,M,0.58,0195*73
$GPVTG,37.6701,T,37.6701,M,0.860,N,1.594,K,D*21
$GPGGA,124814.60,4612.0362108,N,00607.4130806,E,2,10,0.9,368.880,M,49.479,M,0.98,0195*75
$GPVTG,40.5169,T,40.5169,M,1.013,N,1.878,K,D*23
$RDENS,1959,4609313,PC
$GPGGA,124814.80,4612.0362701,N,00607.4131545,E,2,10,0.9,368.899,M,49.479,M,1.18,0195*7E
$GPVTG,36.8985,T,36.8985,M,1.098,N,2.035,K,D*22
$GPGGA,124815.20,4612.0363474,N,00607.4132417,E,2,10,0.9,368.846,M,49.479,M,1.58,0195*76
$GPVTG,41.1190,T,41.1190,M,1.174,N,2.175,K,D*24
$GPGGA,124815.40,4612.0363816,N,00607.4133067,E,2,10,0.9,368.876,M,49.479,M,1.78,0195*7B
$GPVTG,34.7717,T,34.7717,M,1.018,N,1.886,K,D*29
$RDENS,1960,4609402,PC
$GPGGA,124815.60,4612.0364192,N,00607.4133146,E,2,10,0.9,368.748,M,49.479,M,0.07,0195*72
$GPVTG,36.5428,T,36.5428,M,1.132,N,2.098,K,D*24
$GPGGA,124816.00,4612.0364841,N,00607.4133404,E,2,09,0.9,368.545,M,49.479,M,0.47,0195*70
$GPVTG,40.2099,T,40.2099,M,1.031,N,1.912,K,D*2E
$GPGGA,124816.20,4612.0365411,N,00607.4133936,E,2,09,0.9,368.535,M,49.479,M,0.67,0195*73
$GPVTG,41.8709,T,41.8709,M,1.134,N,2.102,K,D*20
$RDENS,1961,4609491,PC
$GPGGA,124816.60,4612.0366560,N,00607.4135248,E,2,09,0.9,368.569,M,49.479,M,1.07,0195*79
$GPVTG,36.6716,T,36.6716,M,1.198,N,2.221,K,D*24
$GPGGA,124816.80,4612.0367170,N,00607.4135929,E,2,09,0.9,368.593,M,49.479,M,1.27,0195*78
$GPVTG,38.7976,T,38.7976,M,1.367,N,2.534,K,D*25
$GPGGA,124817.20,4612.0368216,N,00607.4137178,E,2,09,0.9,368.580,M,49.479,M,1.67,0195*77
$GPVTG,37.5623,T,37.5623,M,1.233,N,2.284,K,D*29
$RDENS,1962,4609580,PC
$GPGGA,124817.40,4612.0368773,N,00607.4137864,E,2,09,0.9,368.569,M,49.479,M,1.87,0195*7A
$GPVTG,41.0530,T,41.0530,M,1.368,N,2.536,K,D*28
$GPGGA,124817.80,4612.0369876,N,00607.4139088,E,2,08,1.2,368.551,M,49.479,M,2.27,0195*70
$GPVTG,36.1407,T,36.1407,M,1.380,N,2.558,K,D*26
$GPGGA,124818.00,4612.0370399,N,00607.4139711,E,2,08,1.2,368.548,M,49.479,M,2.47,0195*7C
$GPVTG,35.2319,T,35.2319,M,1.223,N,2.267,K,D*25
$RDENS,1963,4609669,PC
$GPGGA,124818.20,4612.0371923,N,00607.4142196,E,2,10,0.9,369.088,M,49.479,M,2.67,0195*78
$GPVTG,36.8588,T,36.8588,M,1.291,N,2.393,K,D*26
$GPGGA,124818.60,4612.0373361,N,00607.4143742,E,2,11,0.8,369.163,M,49.479,M,3.07,0195*7F
$GPVTG,35.8534,T,35.8534,M,1.289,N,2.389,K,D*24
$GPGGA,124818.80,4612.0373823,N,00607.4144273,E,2,11,0.8,369.147,M,49.479,M,3.27,0195*78
$GPVTG,34.5350,T,34.5350,M,1.137,N,2.107,K,D*26
$GPGGA,124819.20,4612.0374816,N,00607.4144740,E,2,11,0.8,368.891,M,49.479,M,3.67,0195*70
$RDENS,1964,4609759,PC
$GPVTG,38.8155,T,38.8155,M,1.095,N,2.029,K,D*22
$GPGGA,124819.40,4612.0375062,N,00607.4145077,E,2,11,0.8,368.892,M,49.479,M,3.87,0195*73
$GPVTG,24.7465,T,24.7465,M,1.201,N,2.226,K,D*20
$GPGGA,124819.80,4612.0375893,N,00607.4145262,E,2,11,0.8,368.678,M,49.479,M,4.27,0195*78
$GPVTG,33.4978,T,33.4978,M,1.157,N,2.143,K,D*20
$GPGGA,124820.00,4612.0376552,N,00607.4146125,E,2,11,0.8,368.803,M,49.479,M,4.47,0195*7E
$RDENS,1965,4609848,PC
$GPVTG,22.9857,T,22.9857,M,1.453,N,2.693,K,D*2B
$GPGGA,124820.40,4612.0377720,N,00607.4146495,E,2,11,0.8,368.614,M,49.479,M,4.87,0195*76
$GPVTG,29.7215,T,29.7215,M,1.037,N,1.923,K,D*2A
$GPGGA,124820.60,4612.0378273,N,00607.4146618,E,2,11,0.8,368.490,M,49.479,M,5.07,0195*78
$GPVTG,29.0281,T,29.0281,M,1.158,N,2.146,K,D*2A
$GPGGA,124821.00,4612.0379547,N,00607.4147847,E,2,11,0.8,368.642,M,49.479,M,5.47,0195*72
$RDENS,1966,4609937,PC
$GPVTG,26.6306,T,26.6306,M,1.286,N,2.384,K,D*26
$GPGGA,124821.20,4612.0380202,N,00607.4148798,E,2,11,0.8,368.838,M,49.479,M,5.67,0195*73
$GPVTG,33.1726,T,33.1726,M,1.199,N,2.221,K,D*25
$GPGGA,124821.40,4612.0380787,N,00607.4149351,E,2,11,0.8,368.852,M,49.479,M,5.87,0195*7F
$GPVTG,26.8774,T,26.8774,M,1.165,N,2.159,K,D*2A
$GPGGA,124821.80,4612.0381816,N,00607.4149914,E,2,10,0.9,368.753,M,49.479,M,6.27,0195*79
$RDENS,1967,4610027,PC
$GPVTG,26.9257,T,26.9257,M,1.436,N,2.662,K,D*26
$GPGGA,124822.00,4612.0382483,N,00607.4150231,E,2,10,0.9,368.698,M,49.479,M,6.47,0195*75
$GPVTG,26.5185,T,26.5185,M,1.311,N,2.429,K,D*29
$GPGGA,124822.40,4612.0383674,N,00607.4150969,E,2,10,0.9,368.666,M,49.479,M,6.87,0195*71
$GPVTG,25.8274,T,25.8274,M,1.329,N,2.463,K,D*2C
$GPGGA,124822.60,4612.0383935,N,00607.4150964,E,2,11,0.8,368.586,M,49.479,M,7.07,0195*70
$RDENS,1968,4610116,PC
$GPVTG,27.4182,T,27.4182,M,1.244,N,2.305,K,D*21
$GPGGA,124823.00,4612.0384746,N,00607.4151099,E,2,11,0.8,368.405,M,49.479,M,7.47,0195*7E
$GPVTG,19.1829,T,19.1829,M,1.204,N,2.231,K,D*23
$GPGGA,124823.20,4612.0385363,N,00607.4151624,E,2,11,0.8,368.469,M,49.479,M,7.67,0195*76
$GPVTG,23.9535,T,23.9535,M,1.148,N,2.127,K,D*2C
$GPGGA,124823.60,4612.0386947,N,00607.4152633,E,2,11,0.8,368.533,M,49.479,M,8.07,0195*7F
$GPVTG,20.0958,T,20.0958,M,1.275,N,2.364,K,D*24
$RDENS,1969,4610207,PC
$GPGGA,124823.80,4612.0387762,N,00607.4153194,E,2,11,0.8,368.600,M,49.479,M,0.09,0195*77
$GPVTG,21.0741,T,21.0741,M,1.219,N,2.259,K,D*21
$GPGGA,124824.20,4612.0389435,N,00607.4154243,E,2,11,0.8,368.694,M,49.479,M,0.31,0195*7D
$GPVTG,17.7065,T,17.7065,M,1.225,N,2.269,K,D*2D
$GPGGA,124824.40,4612.0389870,N,00607.4154384,E,2,12,0.8,368.656,M,49.479,M,0.11,0195*73
$GPVTG,18.6913,T,18.6913,M,1.226,N,2.271,K,D*27
$RDENS,1970,4610296,PC
$GPGGA,124824.60,4612.0390516,N,00607.4154462,E,2,11,0.8,368.623,M,49.479,M,0.11,0195*7A
$GPVTG,15.8480,T,15.8480,M,1.329,N,2.463,K,D*2C
$GPGGA,124825.00,4612.0391936,N,00607.4155104,E,2,11,0.8,368.628,M,49.479,M,0.29,0195*76
$GPVTG,17.3154,T,17.3154,M,1.447,N,2.682,K,D*2E
$GPGGA,124825.20,4612.0392605,N,00607.4155434,E,2,11,0.8,368.604,M,49.479,M,0.49,0195*76
$GPVTG,19.6303,T,19.6303,M,1.364,N,2.528,K,D*2B
$RDENS,1971,4610385,PC
$GPGGA,124825.60,4612.0394132,N,00607.4156173,E,2,11,0.8,368.627,M,49.479,M,0.89,0195*7F
$GPVTG,18.8935,T,18.8935,M,1.645,N,3.048,K,D*2F
$GPGGA,124825.80,4612.0394851,N,00607.4156529,E,2,11,0.8,368.603,M,49.479,M,0.11,0195*71
$GPVTG,19.8437,T,19.8437,M,1.524,N,2.825,K,D*29
$GPGGA,124826.20,4612.0396460,N,00607.4157308,E,2,11,0.8,368.585,M,49.479,M,0.01,0195*7C
$GPVTG,18.5722,T,18.5722,M,1.778,N,3.294,K,D*23
$RDENS,1972,4610475,PC
$GPGGA,124826.40,4612.0397235,N,00607.4157676,E,2,11,0.8,368.558,M,49.479,M,0.19,0195*78
$GPVTG,19.3169,T,19.3169,M,1.782,N,3.303,K,D*29
$GPGGA,124826.80,4612.0398754,N,00607.4158409,E,2,11,0.8,368.460,M,49.479,M,0.59,0195*72
$GPVTG,21.3669,T,21.3669,M,1.621,N,3.004,K,D*25
$GPGGA,124827.00,4612.0399684,N,00607.4158903,E,2,11,0.8,368.466,M,49.479,M,0.79,0195*75
$GPVTG,20.4282,T,20.4282,M,1.684,N,3.120,K,D*2D
$RDENS,1973,4610564,PC
$GPGGA,124827.40,4612.0401248,N,00607.4159935,E,2,11,0.8,368.417,M,49.479,M,0.00,0195*7F
$GPVTG,23.8037,T,23.8037,M,1.773,N,3.286,K,D*2B
$GPGGA,124827.60,4612.0402238,N,00607.4160503,E,2,11,0.8,368.418,M,49.479,M,0.20,0195*77
$GPVTG,20.8438,T,20.8438,M,1.787,N,3.311,K,D*2F
$GPGGA,124827.80,4612.0403280,N,00607.4161257,E,2,11,0.8,368.498,M,49.479,M,0.40,0195*72
$GPVTG,25.6225,T,25.6225,M,1.794,N,3.324,K,D*2B
$RDENS,1974,4610654,PC
$GPGGA,124828.20,4612.0405344,N,00607.4162361,E,2,11,0.8,368.466,M,49.479,M,0.80,0195*72
$GPVTG,23.5132,T,23.5132,M,1.895,N,3.512,K,D*26
$GPGGA,124828.40,4612.0406414,N,00607.4162985,E,2,10,0.9,368.503,M,49.479,M,1.00,0195*7E
$GPVTG,25.2605,T,25.2605,M,1.856,N,3.439,K,D*21
$GPGGA,124828.80,4612.0408218,N,00607.4164208,E,2,10,0.9,368.492,M,49.479,M,1.40,0195*73
$GPVTG,23.8050,T,23.8050,M,1.822,N,3.376,K,D*2E
$RDENS,1975,4610744,PC
$GPGGA,124829.00,4612.0409229,N,00607.4164886,E,2,10,0.9,368.498,M,49.479,M,0.05,0195*7F
$GPVTG,24.3355,T,24.3355,M,1.836,N,3.402,K,D*2F
$GPGGA,124829.40,4612.0411140,N,00607.4166155,E,2,10,0.9,368.507,M,49.479,M,0.03,0195*7A
$GPVTG,24.5637,T,24.5637,M,1.888,N,3.498,K,D*29
$GPGGA,124829.60,4612.0412094,N,00607.4166639,E,2,10,0.9,368.434,M,49.479,M,0.23,0195*7D
$GPVTG,24.4531,T,24.4531,M,1.921,N,3.559,K,D*27
$RDENS,1976,4610833,PC
$GPVTG,25.3466,T,25.3466,M,1.924,N,3.566,K,D*2E
$GPGGA,124830.20,4612.0417664,N,00607.4171598,E,2,11,0.8,369.137,M,49.479,M,0.42,0195*73
$GPVTG,26.6806,T,26.6806,M,2.042,N,3.784,K,D*2A
$GPGGA,124830.40,4612.0418617,N,00607.4172570,E,2,11,0.8,369.217,M,49.479,M,0.11,0195*7C
$GPVTG,26.9642,T,26.9642,M,1.868,N,3.461,K,D*21
$GPGGA,124830.80,4612.0420773,N,00607.4173703,E,2,11,0.8,369.133,M,49.479,M,0.29,0195*71
$RDENS,1977,4610922,PC
$GPVTG,25.8144,T,25.8144,M,2.020,N,3.744,K,D*22
$GPGGA,124831.00,4612.0421768,N,00607.4174407,E,2,11,0.8,369.119,M,49.479,M,0.49,0195*7D
$GPVTG,25.6853,T,25.6853,M,2.051,N,3.802,K,D*29
$GPGGA,124831.40,4612.0423788,N,00607.4176037,E,2,11,0.8,369.203,M,49.479,M,0.89,0195*74
$GPVTG,25.9301,T,25.9301,M,1.863,N,3.453,K,D*2B
$GPGGA,124831.60,4612.0424656,N,00607.4176487,E,2,12,0.8,369.066,M,49.479,M,1.09,0195*77
$RDENS,1978,4611013,PC
$GPVTG,26.3397,T,26.3397,M,2.057,N,3.812,K,D*2E
$GPGGA,124832.00,4612.0426764,N,00607.4177858,E,2,12,0.8,369.078,M,49.479,M,0.01,0195*79
$GPVTG,27.2929,T,27.2929,M,2.008,N,3.721,K,D*2B
$GPGGA,124832.20,4612.0427798,N,00607.4178472,E,2,12,0.8,369.062,M,49.479,M,0.21,0195*7B
$GPVTG,26.5843,T,26.5843,M,2.114,N,3.917,K,D*2C
$GPGGA,124832.60,4612.0429762,N,00607.4179760,E,2,12,0.8,369.007,M,49.479,M,0.61,0195*72
$GPVTG,23.3890,T,23.3890,M,2.121,N,3.930,K,D*2F
$RDENS,1979,4611105,PC
$GPGGA,124832.80,4612.0430671,N,00607.4180414,E,2,12,0.8,368.982,M,49.479,M,0.81,0195*7A
$GPVTG,23.5453,T,23.5453,M,2.152,N,3.988,K,D*28
$GPGGA,124833.00,4612.0431545,N,00607.4181096,E,2,12,0.8,368.953,M,49.479,M,0.03,0195*7F
$GPVTG,22.6513,T,22.6513,M,2.129,N,3.945,K,D*25
$GPGGA,124833.40,4612.0432428,N,00607.4181632,E,4,11,0.8,368.506,M,49.479,M,0.43,0195*77
$GPVTG,23.7266,T,23.7266,M,2.248,N,4.166,K,D*2F
$RDENS,1980,4611195,PC
$GPGGA,124833.60,4612.0433536,N,00607.4182293,E,4,11,0.8,368.521,M,49.479,M,0.18,0195*7D
$GPVTG,21.3818,T,21.3818,M,2.185,N,4.049,K,D*21
$GPGGA,124834.00,4612.0435811,N,00607.4183622,E,4,11,0.8,368.524,M,49.479,M,0.22,0195*71
$GPVTG,21.4640,T,21.4640,M,2.211,N,4.097,K,D*2C
$GPGGA,124834.20,4612.0436964,N,00607.4184300,E,4,11,0.8,368.522,M,49.479,M,0.42,0195*71
$GPVTG,20.4614,T,20.4614,M,2.299,N,4.260,K,D*26
$RDENS,1981,4611285,PC
$GPGGA,124834.60,4612.0439271,N,00607.4185579,E,4,11,0.8,368.517,M,49.479,M,0.04,0195*78
$GPVTG,21.2204,T,21.2204,M,2.178,N,4.037,K,D*2A
$GPGGA,124834.80,4612.0440426,N,00607.4186173,E,4,11,0.8,368.518,M,49.479,M,0.16,0195*7D
$GPVTG,19.9705,T,19.9705,M,2.264,N,4.195,K,D*2D
$GPGGA,124835.20,4612.0442756,N,00607.4187406,E,4,10,0.9,368.519,M,49.479,M,0.56,0195*73
$GPVTG,19.3743,T,19.3743,M,2.270,N,4.206,K,D*21
$RDENS,1982,4611377,PC
$GPGGA,124835.40,4612.0443968,N,00607.4187955,E,4,10,0.9,368.524,M,49.479,M,0.07,0195*76
$GPVTG,18.4457,T,18.4457,M,2.353,N,4.360,K,D*20
$GPGGA,124835.60,4612.0445219,N,00607.4188540,E,4,10,0.9,368.514,M,49.479,M,0.13,0195*7E
$GPVTG,16.9444,T,16.9444,M,2.270,N,4.207,K,D*20
$GPGGA,124836.00,4612.0447661,N,00607.4189605,E,4,10,0.9,368.521,M,49.479,M,0.53,0195*73
$GPVTG,16.0585,T,16.0585,M,2.359,N,4.371,K,D*2A
$RDENS,1983,4611467,PC
$GPGGA,124836.20,4612.0448951,N,00607.4190127,E,4,10,0.9,368.522,M,49.479,M,0.73,0195*7C
$GPVTG,16.8227,T,16.8227,M,2.319,N,4.297,K,D*27
$GPGGA,124836.60,4612.0451478,N,00607.4191203,E,4,10,0.9,368.515,M,49.479,M,1.13,0195*71
$GPVTG,15.0254,T,15.0254,M,2.485,N,4.606,K,D*29
$GPGGA,124836.80,4612.0452755,N,00607.4191737,E,4,10,0.9,368.520,M,49.479,M,1.33,0195*76
$GPVTG,14.7172,T,14.7172,M,2.336,N,4.329,K,D*2E
$GPGGA,124837.20,4612.0455265,N,00607.4192627,E,4,10,0.9,368.514,M,49.479,M,1.73,0195*7C
$RDENS,1984,4611557,PC
$GPVTG,12.6530,T,12.6530,M,2.325,N,4.309,K,D*2E
$GPGGA,124837.40,4612.0456551,N,00607.4193034,E,4,10,0.9,368.523,M,49.479,M,0.03,0195*7E
$GPVTG,13.4031,T,13.4031,M,2.196,N,4.070,K,D*29
$GPGGA,124837.80,4612.0459001,N,00607.4193777,E,4,10,0.9,368.513,M,49.479,M,0.05,0195*78
$GPVTG,11.5748,T,11.5748,M,2.272,N,4.211,K,D*25
$GPGGA,124838.00,4612.0460210,N,00607.4194144,E,4,10,0.9,368.520,M,49.479,M,0.25,0195*74
$RDENS,1985,4611648,PC
$GPVTG,10.7929,T,10.7929,M,2.149,N,3.983,K,D*29
$GPGGA,124838.20,4612.0461378,N,00607.4194472,E,4,10,0.9,368.522,M,49.479,M,0.45,0195*7C
$GPVTG,9.0317,T,9.0317,M,2.189,N,4.057,K,D*22
$GPVTG,9.8359,T,9.8359,M,2.137,N,3.961,K,D*2C
$GPGGA,124838.60,4612.0463764,N,00607.4195039,E,4,10,0.9,368.533,M,49.479,M,0.85,0195*75
$GPVTG,8.3780,T,8.3780,M,2.054,N,3.807,K,D*29
$RDENS,1986,4611738,PC
$GPGGA,124838.80,4612.0464902,N,00607.4195296,E,4,10,0.9,368.525,M,49.479,M,1.05,0195*7B
$GPVTG,8.5922,T,8.5922,M,2.141,N,3.968,K,D*24
$GPGGA,124839.20,4612.0467224,N,00607.4195778,E,4,10,0.9,368.543,M,49.479,M,1.45,0195*7D
$GPVTG,6.9628,T,6.9628,M,2.048,N,3.796,K,D*23
$GPGGA,124839.40,4612.0468326,N,00607.4195993,E,4,10,0.9,368.532,M,49.479,M,1.65,0195*78
$GPVTG,5.0380,T,5.0380,M,2.102,N,3.895,K,D*20
$GPGGA,124839.80,4612.0470678,N,00607.4196416,E,4,10,0.9,368.539,M,49.479,M,0.06,0195*7F
$RDENS,1987,4611829,PC
$GPVTG,8.1543,T,8.1543,M,2.116,N,3.922,K,D*28
$GPGGA,124840.00,4612.0471841,N,00607.4196663,E,4,10,0.9,368.540,M,49.479,M,0.26,0195*70
$GPVTG,6.0606,T,6.0606,M,2.162,N,4.006,K,D*23
$GPGGA,124840.20,4612.0473028,N,00607.4196841,E,4,10,0.9,368.530,M,49.479,M,0.01,0195*7B
$GPVTG,7.0340,T,7.0340,M,2.167,N,4.017,K,D*26
$GPGGA,124840.60,4612.0475443,N,00607.4197255,E,4,10,0.9,368.530,M,49.479,M,0.01,0195*7E
$GPVTG,7.2626,T,7.2626,M,2.163,N,4.009,K,D*2D
$RDENS,1988,4611921,PC
$GPGGA,124840.80,4612.0476636,N,00607.4197475,E,4,10,0.9,368.528,M,49.479,M,0.19,0195*77
$GPVTG,8.4737,T,8.4737,M,2.265,N,4.198,K,D*21
$GPGGA,124841.20,4612.0479111,N,00607.4198022,E,4,10,0.9,368.518,M,49.479,M,0.59,0195*7F
$GPVTG,7.1586,T,7.1586,M,2.141,N,3.967,K,D*2B
$GPGGA,124841.40,4612.0480295,N,00607.4198240,E,4,10,0.9,368.517,M,49.479,M,0.79,0195*7B
$GPVTG,8.0929,T,8.0929,M,2.292,N,4.247,K,D*28
$RDENS,1989,4612011,PC
$GPGGA,124841.80,4612.0482798,N,00607.4198797,E,4,10,0.9,368.501,M,49.479,M,1.19,0195*72
$GPVTG,9.1300,T,9.1300,M,2.281,N,4.227,K,D*2C
$GPGGA,124842.00,4612.0484033,N,00607.4199106,E,4,10,0.9,368.491,M,49.479,M,0.09,0195*7E
$GPVTG,9.0296,T,9.0296,M,2.230,N,4.133,K,D*20
$GPGGA,124842.20,4612.0485257,N,00607.4199390,E,4,10,0.9,368.509,M,49.479,M,0.11,0195*79
$GPVTG,9.9130,T,9.9130,M,2.307,N,4.275,K,D*24
$RDENS,1990,4612102,PC
$GPGGA,124842.60,4612.0487777,N,00607.4200035,E,4,10,0.9,368.516,M,49.479,M,0.51,0195*7D
$GPVTG,9.5930,T,9.5930,M,2.290,N,4.243,K,D*2E
$GPGGA,124842.80,4612.0489040,N,00607.4200336,E,4,10,0.9,368.516,M,49.479,M,0.71,0195*7C
$GPVTG,11.3472,T,11.3472,M,2.305,N,4.271,K,D*22
$GPGGA,124843.20,4612.0491460,N,00607.4201063,E,4,11,0.8,368.506,M,49.479,M,0.11,0195*7D
$GPVTG,10.9539,T,10.9539,M,2.316,N,4.293,K,D*2C
$RDENS,1991,4612193,PC
$GPGGA,124843.60,4612.0493984,N,00607.4201806,E,4,11,0.8,368.492,M,49.479,M,0.06,0195*7D
$GPVTG,12.2231,T,12.2231,M,2.295,N,4.253,K,D*2A
$GPGGA,124843.80,4612.0495243,N,00607.4202160,E,4,11,0.8,368.503,M,49.479,M,0.14,0195*75
$GPVTG,12.1966,T,12.1966,M,2.262,N,4.192,K,D*2C
$GPGGA,124844.20,4612.0497712,N,00607.4202953,E,4,11,0.8,368.495,M,49.479,M,0.54,0195*79
$GPVTG,12.2394,T,12.2394,M,2.269,N,4.204,K,D*2B
$GPGGA,124844.40,4612.0498932,N,00607.4203395,E,4,11,0.8,368.507,M,49.479,M,0.74,0195*75
$RDENS,1992,4612285,PC
$GPVTG,12.6216,T,12.6216,M,2.275,N,4.216,K,D*25
$GPGGA,124844.80,4612.0501411,N,00607.4204253,E,4,11,0.8,368.502,M,49.479,M,1.14,0195*7A
$GPVTG,14.0710,T,14.0710,M,2.314,N,4.289,K,D*25
$GPGGA,124845.00,4612.0502668,N,00607.4204715,E,4,11,0.8,368.511,M,49.479,M,0.01,0195*7C
$GPVTG,14.5600,T,14.5600,M,2.339,N,4.334,K,D*2D
$GPGGA,124845.20,4612.0503899,N,00607.4205151,E,4,11,0.8,368.506,M,49.479,M,0.21,0195*7C
$RDENS,1993,4612375,PC
$GPVTG,14.5969,T,14.5969,M,2.296,N,4.255,K,D*2F
$GPGGA,124845.60,4612.0506352,N,00607.4206078,E,4,11,0.8,368.506,M,49.479,M,0.61,0195*7C
$GPVTG,14.3077,T,14.3077,M,2.301,N,4.264,K,D*22
$GPGGA,124845.80,4612.0507581,N,00607.4206525,E,4,11,0.8,368.498,M,49.479,M,0.81,0195*7E
$GPVTG,15.9962,T,15.9962,M,2.306,N,4.273,K,D*23
$GPGGA,124846.20,4612.0510049,N,00607.4207518,E,4,11,0.8,368.498,M,49.479,M,1.21,0195*74
$GPVTG,15.3010,T,15.3010,M,2.308,N,4.278,K,D*26
$RDENS,1994,4612467,PC
$GPGGA,124846.40,4612.0511280,N,00607.4208003,E,4,11,0.8,368.491,M,49.479,M,1.41,0195*7B
$GPVTG,16.0281,T,16.0281,M,2.287,N,4.238,K,D*24
$GPGGA,124846.80,4612.0513729,N,00607.4208973,E,4,11,0.8,368.498,M,49.479,M,1.81,0195*78
$GPVTG,14.7941,T,14.7941,M,2.282,N,4.229,K,D*21
$GPGGA,124847.00,4612.0514934,N,00607.4209406,E,4,11,0.8,368.517,M,49.479,M,0.11,0195*74
$GPVTG,14.7433,T,14.7433,M,2.252,N,4.173,K,D*20
$RDENS,1995,4612557,PC
$GPGGA,124847.40,4612.0517293,N,00607.4210271,E,4,11,0.8,368.514,M,49.479,M,0.51,0195*7C
$GPVTG,13.2455,T,13.2455,M,2.118,N,3.924,K,D*20
$GPGGA,124847.60,4612.0518475,N,00607.4210639,E,4,11,0.8,368.508,M,49.479,M,0.05,0195*7B
$GPVTG,14.1084,T,14.1084,M,2.137,N,3.961,K,D*2C
$GPGGA,124847.80,4612.0519628,N,00607.4211057,E,4,11,0.8,368.506,M,49.479,M,0.15,0195*7E
$GPVTG,12.5893,T,12.5893,M,2.075,N,3.845,K,D*2C
$RDENS,1996,4612648,PC
$GPGGA,124848.20,4612.0521891,N,00607.4211765,E,4,11,0.8,368.516,M,49.479,M,0.55,0195*7F
$GPVTG,11.5663,T,11.5663,M,2.101,N,3.894,K,D*22
$GPGGA,124848.40,4612.0523023,N,00607.4212060,E,4,11,0.8,368.521,M,49.479,M,0.01,0195*7E
$GPVTG,10.1863,T,10.1863,M,2.024,N,3.751,K,D*22
$GPGGA,124848.80,4612.0525242,N,00607.4212689,E,4,11,0.8,368.527,M,49.479,M,0.39,0195*7D
$GPVTG,11.6804,T,11.6804,M,2.061,N,3.819,K,D*20
$RDENS,1997,4612739,PC
$GPGGA,124849.00,4612.0526332,N,00607.4212989,E,4,11,0.8,368.523,M,49.479,M,0.59,0195*7C
$GPVTG,7.9875,T,7.9875,M,1.977,N,3.664,K,D*29
$GPGGA,124849.20,4612.0527409,N,00607.4213206,E,4,11,0.8,368.523,M,49.479,M,0.79,0195*7F
$GPVTG,8.5847,T,8.5847,M,2.014,N,3.732,K,D*24
$GPGGA,124849.60,4612.0529590,N,00607.4213691,E,4,11,0.8,368.510,M,49.479,M,1.19,0195*79
$GPVTG,7.5209,T,7.5209,M,1.901,N,3.523,K,D*28
$GPGGA,124849.80,4612.0530655,N,00607.4213859,E,4,11,0.8,368.519,M,49.479,M,0.08,0195*77
$RDENS,1998,4612836,PC
$GPVTG,8.1368,T,8.1368,M,1.910,N,3.540,K,D*2D
$GPGGA,124850.00,4612.0531691,N,00607.4214081,E,4,11,0.8,368.517,M,49.479,M,0.28,0195*78
$GPVTG,6.9423,T,6.9423,M,1.884,N,3.492,K,D*2F
$GPGGA,124850.40,4612.0533742,N,00607.4214435,E,4,11,0.8,368.516,M,49.479,M,0.68,0195*7F
$GPVTG,6.9803,T,6.9803,M,1.856,N,3.439,K,D*21
$GPGGA,124850.60,4612.0534766,N,00607.4214616,E,4,11,0.8,368.519,M,49.479,M,0.88,0195*7E
$GPVTG,5.4493,T,5.4493,M,1.811,N,3.356,K,D*2C
$RDENS,1999,4612933,PC
$GPGGA,124851.00,4612.0536766,N,00607.4214904,E,4,11,0.8,368.514,M,49.479,M,1.28,0195*71
$GPVTG,4.0875,T,4.0875,M,1.802,N,3.340,K,D*29
$GPGGA,124851.20,4612.0537761,N,00607.4215009,E,4,11,0.8,368.507,M,49.479,M,1.48,0195*74
$GPVTG,2.8197,T,2.8197,M,1.797,N,3.331,K,D*2C
$GPGGA,124851.60,4612.0539733,N,00607.4215179,E,4,11,0.8,368.490,M,49.479,M,1.88,0195*7C
$GPVTG,2.4984,T,2.4984,M,1.724,N,3.195,K,D*28
$RDENS,2000,4613030,PC
$GPGGA,124851.80,4612.0540695,N,00607.4215249,E,4,11,0.8,368.504,M,49.479,M,2.08,0195*76
$GPVTG,5.1552,T,5.1552,M,1.711,N,3.171,K,D*24
$GPGGA,124852.00,4612.0541634,N,00607.4215370,E,4,11,0.8,368.509,M,49.479,M,0.07,0195*7C
$GPVTG,1.1595,T,1.1595,M,1.753,N,3.249,K,D*2A
$GPGGA,124852.40,4612.0543548,N,00607.4215386,E,4,11,0.8,368.520,M,49.479,M,0.33,0195*77
$GPVTG,0.3059,T,0.3059,M,1.743,N,3.230,K,D*25
$GPGGA,124852.60,4612.0544537,N,00607.4215380,E,4,11,0.8,368.518,M,49.479,M,0.02,0195*75
$RDENS,2001,4613127,PC
$GPVTG,0.9655,T,0.9655,M,1.667,N,3.089,K,D*22
$GPGGA,124853.00,4612.0546361,N,00607.4215350,E,4,11,0.8,368.524,M,49.479,M,0.03,0195*76
$GPVTG,359.1610,T,359.1610,M,1.683,N,3.119,K,D*20
$GPGGA,124853.40,4612.0548226,N,00607.4215290,E,4,12,0.8,368.525,M,49.479,M,0.43,0195*75
$GPVTG,358.0618,T,358.0618,M,1.651,N,3.059,K,D*2A
$GPGGA,124853.60,4612.0549127,N,00607.4215252,E,4,12,0.8,368.521,M,49.479,M,0.06,0195*7F
$GPVTG,357.4977,T,357.4977,M,1.644,N,3.046,K,D*20
$RDENS,2002,4613224,PC
$GPGGA,124854.00,4612.0550974,N,00607.4215131,E,4,12,0.8,368.524,M,49.479,M,0.34,0195*7A
$GPVTG,358.0604,T,358.0604,M,1.702,N,3.155,K,D*20
$GPGGA,124854.20,4612.0551956,N,00607.4215102,E,4,12,0.8,368.529,M,49.479,M,0.54,0195*72
$GPVTG,0.8658,T,0.8658,M,1.747,N,3.238,K,D*29
$GPGGA,124854.40,4612.0552930,N,00607.4215120,E,4,12,0.8,368.538,M,49.479,M,0.74,0195*75
$GPVTG,358.5767,T,358.5767,M,1.832,N,3.395,K,D*22
$RDENS,2003,4613310,PC
$GPGGA,124854.80,4612.0554978,N,00607.4215126,E,4,12,0.8,368.540,M,49.479,M,0.11,0195*79
$GPVTG,1.2258,T,1.2258,M,1.856,N,3.440,K,D*2F
$GPGGA,124855.00,4612.0556032,N,00607.4215118,E,4,12,0.8,368.531,M,49.479,M,0.09,0195*77
$GPVTG,0.1073,T,0.1073,M,1.916,N,3.551,K,D*2B
$GPGGA,124855.20,4612.0557099,N,00607.4215125,E,4,12,0.8,368.518,M,49.479,M,0.29,0195*72
$GPVTG,2.3048,T,2.3048,M,1.947,N,3.608,K,D*20
$RDENS,2004,4613396,PC
$GPGGA,124855.60,4612.0559269,N,00607.4215231,E,4,12,0.8,368.510,M,49.479,M,0.05,0195*75
$GPVTG,3.0948,T,3.0948,M,2.009,N,3.722,K,D*29
$GPGGA,124855.80,4612.0560386,N,00607.4215335,E,4,12,0.8,368.518,M,49.479,M,0.25,0195*7E
$GPVTG,5.6847,T,5.6847,M,1.994,N,3.695,K,D*2A
$GPGGA,124856.20,4612.0562622,N,00607.4215637,E,4,12,0.8,368.526,M,49.479,M,0.65,0195*70
$GPVTG,5.3454,T,5.3454,M,2.047,N,3.794,K,D*2E
$RDENS,2005,4613482,PC
$GPGGA,124856.40,4612.0563755,N,00607.4215800,E,4,12,0.8,368.546,M,49.479,M,0.85,0195*74
$GPVTG,6.6142,T,6.6142,M,2.071,N,3.839,K,D*23
$GPGGA,124856.60,4612.0564905,N,00607.4215997,E,4,12,0.8,368.535,M,49.479,M,1.05,0195*78
$GPVTG,5.7963,T,5.7963,M,2.079,N,3.852,K,D*26
$GPGGA,124857.00,4612.0567228,N,00607.4216402,E,4,12,0.8,368.525,M,49.479,M,1.45,0195*7F
$GPVTG,6.5508,T,6.5508,M,2.070,N,3.836,K,D*2D
$RDENS,2006,4613568,PC
$GPGGA,124857.20,4612.0568382,N,00607.4216602,E,4,12,0.8,368.528,M,49.479,M,1.65,0195*7E
$GPVTG,8.4128,T,8.4128,M,2.099,N,3.889,K,D*2E
$GPGGA,124857.60,4612.0570697,N,00607.4217105,E,4,12,0.8,368.524,M,49.479,M,0.05,0195*78
$GPVTG,10.9783,T,10.9783,M,2.045,N,3.790,K,D*28
$GPGGA,124858.00,4612.0572947,N,00607.4217667,E,4,12,0.8,368.516,M,49.479,M,0.07,0195*71
$GPVTG,8.5591,T,8.5591,M,2.068,N,3.833,K,D*21
$RDENS,2007,4613653,PC
$GPGGA,124858.20,4612.0574084,N,00607.4217995,E,4,12,0.8,368.522,M,49.479,M,0.27,0195*74
$GPVTG,12.2052,T,12.2052,M,2.087,N,3.868,K,D*2E
$GPGGA,124858.60,4612.0576313,N,00607.4218687,E,4,12,0.8,368.515,M,49.479,M,0.67,0195*7C
$GPVTG,12.4373,T,12.4373,M,2.030,N,3.762,K,D*27
$GPGGA,124858.80,4612.0577412,N,00607.4219024,E,4,12,0.8,368.520,M,49.479,M,0.87,0195*73
$GPVTG,13.5747,T,13.5747,M,2.028,N,3.758,K,D*27
$RDENS,2008,4613740,PC
$GPGGA,124859.00,4612.0578507,N,00607.4219402,E,4,12,0.8,368.518,M,49.479,M,1.07,0195*72
$GPVTG,13.3380,T,13.3380,M,2.037,N,3.776,K,D*25
$GPGGA,124859.40,4612.0580692,N,00607.4220147,E,4,12,0.8,368.514,M,49.479,M,1.47,0195*78
$GPVTG,13.2349,T,13.2349,M,1.999,N,3.705,K,D*2F
$GPGGA,124859.60,4612.0581738,N,00607.4220541,E,4,12,0.8,368.528,M,49.479,M,1.67,0195*75
$GPVTG,15.5501,T,15.5501,M,2.079,N,3.853,K,D*27
$RDENS,2009,4613825,PC
$GPGGA,124900.00,4612.0583899,N,00607.4221373,E,4,12,0.7,368.525,M,49.479,M,2.07,0195*79
$GPVTG,14.4320,T,14.4320,M,1.942,N,3.600,K,D*2D
$GPGGA,124900.20,4612.0584945,N,00607.4221785,E,4,12,0.7,368.529,M,49.479,M,0.05,0195*7D
$GPVTG,14.7703,T,14.7703,M,1.997,N,3.702,K,D*26
$GPGGA,124900.60,4612.0587085,N,00607.4222619,E,4,12,0.7,368.520,M,49.479,M,0.35,0195*72
$GPVTG,15.9127,T,15.9127,M,2.018,N,3.740,K,D*2D
$RDENS,2010,4613912,PC
$GPVTG,15.4288,T,15.4288,M,1.945,N,3.604,K,D*2E
$GPGGA,124901.00,4612.0589176,N,00607.4223454,E,4,11,0.8,368.524,M,49.479,M,0.75,0195*70
$GPVTG,15.9192,T,15.9192,M,1.961,N,3.634,K,D*2B
$GPGGA,124901.20,4612.0590222,N,00607.4223885,E,4,11,0.8,368.527,M,49.479,M,0.95,0195*75
$GPVTG,15.5800,T,15.5800,M,1.993,N,3.694,K,D*2C
$RDENS,2011,4613997,PC
$GPGGA,124901.60,4612.0592314,N,00607.4224785,E,4,11,0.8,368.537,M,49.479,M,1.35,0195*75
$GPVTG,17.4501,T,17.4501,M,1.942,N,3.598,K,D*2F
$GPGGA,124901.80,4612.0593382,N,00607.4225195,E,4,11,0.8,368.534,M,49.479,M,1.55,0195*76
$GPVTG,15.3239,T,15.3239,M,1.977,N,3.664,K,D*29
$GPGGA,124902.20,4612.0595508,N,00607.4226057,E,4,11,0.8,368.538,M,49.479,M,0.06,0195*7A
$GPVTG,15.9836,T,15.9836,M,2.001,N,3.709,K,D*28
$RDENS,2012,4614084,PC
$GPGGA,124902.40,4612.0596579,N,00607.4226455,E,4,11,0.8,368.531,M,49.479,M,0.11,0195*70
$GPVTG,14.5170,T,14.5170,M,2.090,N,3.873,K,D*22
$GPGGA,124902.80,4612.0598785,N,00607.4227282,E,4,11,0.8,368.522,M,49.479,M,0.29,0195*77
$GPVTG,14.9547,T,14.9547,M,2.011,N,3.727,K,D*25
$GPGGA,124903.00,4612.0599908,N,00607.4227693,E,4,11,0.8,368.517,M,49.479,M,0.49,0195*70
$GPVTG,15.3526,T,15.3526,M,2.071,N,3.837,K,D*2D
$RDENS,2013,4614170,PC
$GPGGA,124903.40,4612.0602136,N,00607.4228562,E,4,11,0.8,368.529,M,49.479,M,0.89,0195*73
$GPVTG,14.8543,T,14.8543,M,2.081,N,3.856,K,D*25
$GPGGA,124903.60,4612.0603284,N,00607.4228943,E,4,11,0.8,368.534,M,49.479,M,1.09,0195*70
$GPVTG,15.0344,T,15.0344,M,2.123,N,3.934,K,D*29
$GPGGA,124903.80,4612.0604423,N,00607.4229382,E,4,11,0.8,368.521,M,49.479,M,0.17,0195*7E
$GPVTG,14.5477,T,14.5477,M,2.129,N,3.945,K,D*25
$RDENS,2014,4614256,PC
$GPGGA,124904.20,4612.0606739,N,00607.4230206,E,4,12,0.8,368.527,M,49.479,M,0.23,0195*7E
$GPVTG,13.3230,T,13.3230,M,2.160,N,4.003,K,D*24
$GPGGA,124904.40,4612.0607902,N,00607.4230647,E,4,12,0.8,368.527,M,49.479,M,0.07,0195*78
$GPVTG,13.2034,T,13.2034,M,2.163,N,4.009,K,D*2D
$GPGGA,124904.80,4612.0610259,N,00607.4231465,E,4,12,0.8,368.532,M,49.479,M,0.33,0195*77
$GPVTG,14.2232,T,14.2232,M,2.209,N,4.094,K,D*26
$RDENS,2015,4614342,PC
$GPGGA,124905.00,4612.0611367,N,00607.4231833,E,4,12,0.8,368.543,M,49.479,M,0.53,0195*7C
$GPVTG,13.2207,T,13.2207,M,2.129,N,3.946,K,D*26
$GPGGA,124905.40,4612.0613696,N,00607.4232531,E,4,12,0.8,368.528,M,49.479,M,0.93,0195*7C
$GPVTG,10.0925,T,10.0925,M,2.156,N,3.995,K,D*20
$GPGGA,124905.60,4612.0614804,N,00607.4232868,E,4,12,0.8,368.530,M,49.479,M,1.13,0195*7D
$GPVTG,11.3412,T,11.3412,M,2.006,N,3.718,K,D*2F
$RDENS,2016,4614428,PC
$GPGGA,124906.00,4612.0616985,N,00607.4233453,E,4,12,0.8,368.533,M,49.479,M,1.53,0195*70
$GPVTG,9.4495,T,9.4495,M,1.993,N,3.694,K,D*2C
$GPGGA,124906.20,4612.0618092,N,00607.4233707,E,4,12,0.8,368.538,M,49.479,M,1.73,0195*78
$GPVTG,10.1401,T,10.1401,M,1.978,N,3.666,K,D*24
$GPGGA,124906.40,4612.0619173,N,00607.4233987,E,4,12,0.8,368.551,M,49.479,M,1.93,0195*76
$GPVTG,9.3044,T,9.3044,M,1.935,N,3.586,K,D*20
$GPVTG,8.4615,T,8.4615,M,1.969,N,3.649,K,D*29
$RDENS,2017,4614514,PC
$GPGGA,124906.80,4612.0621315,N,00607.4234475,E,4,12,0.8,368.568,M,49.479,M,2.33,0195*77
$GPVTG,6.4588,T,6.4588,M,1.866,N,3.459,K,D*24
$GPGGA,124907.00,4612.0622345,N,00607.4234646,E,4,12,0.8,368.573,M,49.479,M,2.53,0195*76
$GPVTG,5.1843,T,5.1843,M,1.968,N,3.647,K,D*26
$GPGGA,124907.40,4612.0624485,N,00607.4234944,E,4,12,0.8,368.546,M,49.479,M,2.93,0195*78
$GPVTG,3.0296,T,3.0296,M,1.878,N,3.480,K,D*2F
$RDENS,2018,4614600,PC
$GPGGA,124907.60,4612.0625527,N,00607.4235026,E,4,12,0.8,368.545,M,49.479,M,3.13,0195*74
$GPVTG,5.3368,T,5.3368,M,1.917,N,3.553,K,D*28
$GPGGA,124908.00,4612.0627617,N,00607.4235289,E,4,12,0.8,368.548,M,49.479,M,3.53,0195*71
$GPVTG,3.5825,T,3.5825,M,1.805,N,3.344,K,D*2A
$GPGGA,124908.20,4612.0628617,N,00607.4235382,E,4,12,0.8,368.561,M,49.479,M,3.73,0195*7F
$GPVTG,2.9349,T,2.9349,M,1.856,N,3.439,K,D*21
$RDENS,2019,4614686,PC
$GPGGA,124908.40,4612.0629645,N,00607.4235462,E,4,12,0.8,368.567,M,49.479,M,3.93,0195*7E
$GPVTG,2.7757,T,2.7757,M,1.848,N,3.424,K,D*22
$GPGGA,124908.80,4612.0631652,N,00607.4235609,E,4,12,0.8,368.577,M,49.479,M,4.33,0195*7E
$GPVTG,0.5554,T,0.5554,M,1.858,N,3.443,K,D*22
$GPGGA,124909.00,4612.0632682,N,00607.4235626,E,4,12,0.8,368.570,M,49.479,M,4.53,0195*75
$GPVTG,2.3225,T,2.3225,M,1.806,N,3.346,K,D*2B
$RDENS,2020,4614772,PC
$GPGGA,124909.40,4612.0634666,N,00607.4235653,E,4,12,0.8,368.558,M,49.479,M,4.93,0195*79
$GPVTG,0.9068,T,0.9068,M,1.738,N,3.221,K,D*29
$GPGGA,124909.60,4612.0635631,N,00607.4235677,E,4,12,0.8,368.572,M,49.479,M,5.13,0195*7F
$GPVTG,2.4118,T,2.4118,M,1.737,N,3.220,K,D*27
$GPGGA,124910.00,4612.0637562,N,00607.4235672,E,4,12,0.8,368.566,M,49.479,M,5.53,0195*72
$GPVTG,1.3356,T,1.3356,M,1.761,N,3.264,K,D*24
$RDENS,2021,4614858,PC
$GPGGA,124910.20,4612.0638539,N,00607.4235708,E,4,12,0.8,368.561,M,49.479,M,0.10,0195*78
$GPVTG,359.5864,T,359.5864,M,1.727,N,3.200,K,D*24
$GPGGA,124910.60,4612.0640477,N,00607.4235634,E,4,12,0.8,368.544,M,49.479,M,0.30,0195*73
$GPVTG,359.1644,T,359.1644,M,1.692,N,3.135,K,D*2E
$GPGGA,124910.80,4612.0641422,N,00607.4235587,E,4,12,0.8,368.536,M,49.479,M,0.50,0195*74
$GPVTG,358.1590,T,358.1590,M,1.712,N,3.173,K,D*25
$RDENS,2022,4614944,PC
$GPGGA,124911.20,4612.0643303,N,00607.4235519,E,4,12,0.8,368.519,M,49.479,M,0.90,0195*7F
$GPVTG,358.9779,T,358.9779,M,1.687,N,3.126,K,D*28
$GPGGA,124911.40,4612.0644201,N,00607.4235524,E,4,12,0.8,368.523,M,49.479,M,1.10,0195*73
$GPVTG,0.2564,T,0.2564,M,1.518,N,2.813,K,D*23
$GPVTG,359.8465,T,359.8465,M,1.600,N,2.964,K,D*28
$GPGGA,124911.80,4612.0645930,N,00607.4235524,E,4,12,0.8,368.535,M,49.479,M,1.50,0195*74
$RDENS,2023,4615030,PC
$GPVTG,1.1413,T,1.1413,M,1.423,N,2.637,K,D*22
$GPGGA,124912.00,4612.0646723,N,00607.4235548,E,4,12,0.8,368.558,M,49.479,M,1.70,0195*73
$GPVTG,355.2960,T,355.2960,M,1.628,N,3.017,K,D*2E
$GPGGA,124912.40,4612.0648478,N,00607.4235428,E,4,12,0.8,368.539,M,49.479,M,2.10,0195*71
$GPVTG,356.5726,T,356.5726,M,1.561,N,2.894,K,D*22
$RDENS,2024,4615116,PC
$GPGGA,124912.80,4612.0650161,N,00607.4235308,E,4,12,0.8,368.519,M,49.479,M,2.50,0195*7A
$GPVTG,357.7875,T,357.7875,M,1.482,N,2.746,K,D*2E
$GPGGA,124913.00,4612.0650949,N,00607.4235288,E,4,12,0.8,368.521,M,49.479,M,2.70,0195*71
$GPVTG,0.0742,T,0.0742,M,1.431,N,2.651,K,D*21
$GPGGA,124913.20,4612.0651741,N,00607.4235291,E,4,12,0.8,368.532,M,49.479,M,2.90,0195*70
$GPVTG,359.7833,T,359.7833,M,1.429,N,2.649,K,D*21
$RDENS,2025,4615202,PC
$GPGGA,124913.60,4612.0653282,N,00607.4235248,E,4,12,0.8,368.516,M,49.479,M,3.30,0195*75
$GPVTG,359.8289,T,359.8289,M,1.362,N,2.525,K,D*20
$GPGGA,124914.00,4612.0654772,N,00607.4235213,E,4,12,0.8,368.521,M,49.479,M,3.70,0195*77
$GPVTG,358.2434,T,358.2434,M,1.327,N,2.460,K,D*21
$GPGGA,124914.20,4612.0655484,N,00607.4235167,E,4,12,0.8,368.527,M,49.479,M,3.90,0195*76
$GPVTG,358.9436,T,358.9436,M,1.290,N,2.391,K,D*25
$RDENS,2026,4615288,PC
$GPGGA,124914.40,4612.0656199,N,00607.4235148,E,4,12,0.8,368.539,M,49.479,M,4.10,0195*77
$GPVTG,356.8600,T,356.8600,M,1.232,N,2.283,K,D*2F
$GPGGA,124914.80,4612.0657569,N,00607.4235078,E,4,12,0.8,368.528,M,49.479,M,4.50,0195*77
$GPVTG,359.0258,T,359.0258,M,1.244,N,2.306,K,D*22
$GPGGA,124915.00,4612.0658244,N,00607.4235029,E,4,12,0.8,368.518,M,49.479,M,4.70,0195*7C
$GPVTG,0.3422,T,0.3422,M,1.196,N,2.216,K,D*2E
$GPVTG,0.1894,T,0.1894,M,1.156,N,2.142,K,D*20
$RDENS,2027,4615373,PC
$GPGGA,124915.40,4612.0659547,N,00607.4235038,E,4,12,0.8,368.523,M,49.479,M,5.10,0195*72
$GPVTG,357.8093,T,357.8093,M,1.138,N,2.109,K,D*27
$GPGGA,124915.80,4612.0660785,N,00607.4234916,E,4,12,0.8,368.533,M,49.479,M,5.50,0195*79
$GPVTG,354.3280,T,354.3280,M,1.105,N,2.047,K,D*22
$GPGGA,124916.00,4612.0661382,N,00607.4234879,E,4,12,0.8,368.536,M,49.479,M,5.70,0195*7F
$GPVTG,354.7042,T,354.7042,M,1.056,N,1.958,K,D*21
$RDENS,2028,4615459,PC
$GPGGA,124916.40,4612.0662549,N,00607.4234715,E,4,12,0.8,368.527,M,49.479,M,6.10,0195*79
$GPVTG,354.2193,T,354.2193,M,1.061,N,1.966,K,D*28
$GPGGA,124916.60,4612.0663102,N,00607.4234677,E,4,12,0.8,368.522,M,49.479,M,6.30,0195*73
$GPVTG,353.9388,T,353.9388,M,0.961,N,1.781,K,D*27
$GPGGA,124917.00,4612.0664164,N,00607.4234479,E,4,12,0.8,368.517,M,49.479,M,6.70,0195*7D
$GPVTG,351.4541,T,351.4541,M,0.976,N,1.809,K,D*2E
$RDENS,2029,4615556,PC
$GPGGA,124917.20,4612.0664715,N,00607.4234434,E,4,12,0.8,368.531,M,49.479,M,6.90,0195*7C
$GPVTG,353.3968,T,353.3968,M,0.943,N,1.748,K,D*22
$GPGGA,124917.60,4612.0665721,N,00607.4234286,E,4,12,0.8,368.535,M,49.479,M,7.30,0195*7E
$GPVTG,355.1289,T,355.1289,M,0.884,N,1.639,K,D*2F
$GPGGA,124917.80,4612.0666250,N,00607.4234280,E,4,12,0.8,368.526,M,49.479,M,0.06,0195*76
$GPVTG,2.5653,T,2.5653,M,0.959,N,1.776,K,D*24
$GPGGA,124918.00,4612.0666782,N,00607.4234319,E,4,12,0.8,368.522,M,49.479,M,0.14,0195*7D
$RDENS,2030,4615653,PC
$GPVTG,3.4441,T,3.4441,M,0.874,N,1.620,K,D*28
$GPGGA,124918.20,4612.0667267,N,00607.4234362,E,4,12,0.8,368.518,M,49.479,M,0.11,0195*70
$GPVTG,4.7111,T,4.7111,M,0.940,N,1.742,K,D*2B
$GPGGA,124918.60,4612.0668257,N,00607.4234506,E,4,12,0.8,368.475,M,49.479,M,0.15,0195*72
$GPVTG,9.2265,T,9.2265,M,0.890,N,1.649,K,D*2D
$GPGGA,124918.80,4612.0668741,N,00607.4234621,E,4,12,0.8,368.494,M,49.479,M,0.35,0195*75
$GPVTG,8.8649,T,8.8649,M,0.830,N,1.537,K,D*2D
$RDENS,2031,4615750,PC
$GPGGA,124919.20,4612.0669654,N,00607.4234831,E,4,12,0.8,368.486,M,49.479,M,0.75,0195*72
$GPVTG,4.5124,T,4.5124,M,0.859,N,1.592,K,D*2D
$GPGGA,124919.40,4612.0670125,N,00607.4234886,E,4,12,0.8,368.473,M,49.479,M,0.95,0195*75
$GPVTG,5.1773,T,5.1773,M,0.801,N,1.485,K,D*27
$GPGGA,124919.80,4612.0670992,N,00607.4235030,E,4,12,0.8,368.473,M,49.479,M,1.35,0195*72
$GPVTG,6.4739,T,6.4739,M,0.746,N,1.382,K,D*2B
$RDENS,2032,4615847,PC
$GPGGA,124920.00,4612.0671399,N,00607.4235097,E,4,12,0.8,368.479,M,49.479,M,1.55,0195*71
$GPVTG,6.0971,T,6.0971,M,0.800,N,1.482,K,D*21
$GPGGA,124920.20,4612.0671837,N,00607.4235165,E,4,12,0.8,368.472,M,49.479,M,1.75,0195*79
$GPVTG,2.8593,T,2.8593,M,0.753,N,1.395,K,D*29
$GPGGA,124920.60,4612.0672678,N,00607.4235259,E,4,12,0.8,368.466,M,49.479,M,2.15,0195*77
$GPVTG,6.5572,T,6.5572,M,0.712,N,1.320,K,D*22
$GPGGA,124920.80,4612.0673066,N,00607.4235324,E,4,12,0.8,368.467,M,49.479,M,2.35,0195*79
$RDENS,2033,4615944,PC
$GPVTG,357.5706,T,357.5706,M,0.751,N,1.392,K,D*2C
$GPGGA,124921.20,4612.0673882,N,00607.4235293,E,4,11,0.9,368.460,M,49.479,M,2.75,0195*7C
$GPVTG,6.8562,T,6.8562,M,0.708,N,1.312,K,D*28
$GPGGA,124921.40,4612.0674270,N,00607.4235360,E,4,11,0.9,368.459,M,49.479,M,2.95,0195*73
$GPVTG,355.4419,T,355.4419,M,0.717,N,1.329,K,D*2E
$GPGGA,124921.80,4612.0675080,N,00607.4235322,E,4,11,0.9,368.454,M,49.479,M,3.35,0195*73
$GPVTG,1.3679,T,1.3679,M,0.595,N,1.102,K,D*2D
$RDENS,2034,4616041,PC
$GPGGA,124922.00,4612.0675428,N,00607.4235332,E,4,11,0.9,368.455,M,49.479,M,3.55,0195*78
$GPVTG,355.8633,T,355.8633,M,0.773,N,1.433,K,D*20
$GPGGA,124922.40,4612.0676182,N,00607.4235207,E,4,11,0.9,368.461,M,49.479,M,3.95,0195*76
$GPVTG,359.8904,T,359.8904,M,0.689,N,1.277,K,D*22
$GPGGA,124922.60,4612.0676589,N,00607.4235205,E,4,11,0.9,368.449,M,49.479,M,4.15,0195*7C
$GPVTG,353.6549,T,353.6549,M,0.658,N,1.219,K,D*26
$RDENS,2035,4616130,PC
$GPGGA,124923.00,4612.0677303,N,00607.4235139,E,4,11,0.9,368.457,M,49.479,M,4.55,0195*79
$GPVTG,359.2841,T,359.2841,M,0.603,N,1.118,K,D*2A
$GPGGA,124923.20,4612.0677686,N,00607.4235070,E,4,11,0.9,368.463,M,49.479,M,4.75,0195*7A
$GPVTG,359.2471,T,359.2471,M,0.641,N,1.188,K,D*25
$GPGGA,124923.60,4612.0678386,N,00607.4234994,E,4,11,0.9,368.466,M,49.479,M,5.15,0195*74
$GPVTG,352.1881,T,352.1881,M,0.639,N,1.184,K,D*26
$RDENS,2036,4616219,PC
$GPGGA,124923.80,4612.0678776,N,00607.4234977,E,4,11,0.9,368.455,M,49.479,M,5.35,0195*7E
$GPVTG,346.3264,T,346.3264,M,0.598,N,1.107,K,D*25
$GPGGA,124924.20,4612.0679445,N,00607.4234890,E,4,11,0.9,368.472,M,49.479,M,5.75,0195*78
$GPVTG,2.8982,T,2.8982,M,0.640,N,1.185,K,D*29
$GPGGA,124924.40,4612.0679784,N,00607.4234826,E,4,11,0.9,368.495,M,49.479,M,5.95,0195*7A
$GPVTG,349.2260,T,349.2260,M,0.625,N,1.158,K,D*2A
$RDENS,2037,4616308,PC
