$GPVTG,83.6378,T,83.6378,M,0.481,N,0.892,K,A*2D
$GPVTG,73.5111,T,73.5111,M,0.459,N,0.850,K,A*26
$GPVTG,74.9764,T,74.9764,M,0.501,N,0.928,K,A*24
$GPVTG,60.3017,T,60.3017,M,0.438,N,0.811,K,A*24
$GPVTG,69.9286,T,69.9286,M,0.353,N,0.655,K,A*20
$GPVTG,67.8991,T,67.8991,M,0.385,N,0.714,K,A*2F
$GPVTG,65.0087,T,65.0087,M,0.307,N,0.568,K,A*2C
$GPVTG,48.0527,T,48.0527,M,0.266,N,0.492,K,A*2E
$GPVTG,37.5544,T,37.5544,M,0.349,N,0.646,K,A*29
$GPVTG,29.9000,T,29.9000,M,0.339,N,0.628,K,A*26
$GPVTG,15.6698,T,15.6698,M,0.369,N,0.685,K,A*24
$RDENS,1048,4966825,PC
$GPVTG,10.0517,T,10.0517,M,0.418,N,0.775,K,A*2B
$GPVTG,10.2649,T,10.2649,M,0.372,N,0.689,K,A*22
$GPVTG,17.5872,T,17.5872,M,0.423,N,0.785,K,A*2C
$GPVTG,18.9686,T,18.9686,M,0.424,N,0.786,K,A*28
$RDENS,1049,4966913,PC
$GPVTG,13.0140,T,13.0140,M,0.367,N,0.680,K,A*2F
$GPVTG,354.4865,T,354.4865,M,0.442,N,0.818,K,A*20
$GPVTG,358.1854,T,358.1854,M,0.652,N,1.208,K,A*29
$GPVTG,352.0230,T,352.0230,M,0.528,N,0.979,K,A*2B
$RDENS,1050,4967001,PC
$GPVTG,343.6435,T,343.6435,M,0.753,N,1.395,K,D*29
$GPVTG,341.9310,T,341.9310,M,0.577,N,1.069,K,D*2D
$GPVTG,345.6914,T,345.6914,M,0.720,N,1.335,K,D*27
$GPVTG,348.4661,T,348.4661,M,0.710,N,1.315,K,D*26
$RDENS,1051,4967089,PC
$GPVTG,344.2184,T,344.2184,M,0.749,N,1.388,K,D*2E
$GPVTG,348.6466,T,348.6466,M,0.724,N,1.341,K,D*20
$GPVTG,347.1238,T,347.1238,M,0.715,N,1.324,K,D*21
$GPVTG,344.6321,T,344.6321,M,0.722,N,1.338,K,D*28
$RDENS,1052,4967177,PC
$GPVTG,345.0149,T,345.0149,M,0.686,N,1.272,K,D*28
$GPVTG,335.6547,T,335.6547,M,0.615,N,1.139,K,D*2E
$GPVTG,344.7600,T,344.7600,M,0.613,N,1.137,K,D*26
$GPVTG,353.7474,T,353.7474,M,0.679,N,1.258,K,D*20
$RDENS,1053,4967265,PC
$GPVTG,348.4969,T,348.4969,M,0.645,N,1.196,K,D*2E
$GPVTG,346.2769,T,346.2769,M,0.548,N,1.016,K,D*29
$GPVTG,351.1449,T,351.1449,M,0.777,N,1.440,K,D*20
$GPVTG,351.8648,T,351.8648,M,0.546,N,1.012,K,D*23
$GPVTG,348.9761,T,348.9761,M,0.657,N,1.217,K,D*27
$RDENS,1054,4967353,PC
$GPVTG,355.8750,T,355.8750,M,0.634,N,1.176,K,D*26
$GPVTG,358.2121,T,358.2121,M,0.543,N,1.006,K,D*23
$GPVTG,6.8141,T,6.8141,M,0.555,N,1.029,K,D*29
$GPVTG,9.7885,T,9.7885,M,0.444,N,0.823,K,D*2B
$RDENS,1055,4967441,PC
$GPVTG,11.9519,T,11.9519,M,0.484,N,0.898,K,D*27
$GPVTG,11.8089,T,11.8089,M,0.478,N,0.886,K,D*2B
$GPVTG,24.7083,T,24.7083,M,0.362,N,0.672,K,D*22
$GPVTG,28.9244,T,28.9244,M,0.350,N,0.650,K,D*23
$GPVTG,34.4830,T,34.4830,M,0.323,N,0.599,K,D*21
$RDENS,1056,4967529,PC
$GPVTG,38.5339,T,38.5339,M,0.316,N,0.586,K,D*29
$GPVTG,46.6656,T,46.6656,M,0.254,N,0.472,K,D*24
$GPVTG,62.8597,T,62.8597,M,0.217,N,0.403,K,D*25
$GPVTG,107.7533,T,107.7533,M,0.194,N,0.359,K,D*25
$RDENS,1057,4967617,PC
$GPVTG,112.6573,T,112.6573,M,0.170,N,0.315,K,A*22
$GPVTG,128.5753,T,128.5753,M,0.257,N,0.476,K,A*26
$GPVTG,154.0114,T,154.0114,M,0.347,N,0.642,K,A*23
$GPVTG,143.5275,T,143.5275,M,0.359,N,0.666,K,A*2A
$GPVTG,161.9156,T,161.9156,M,0.498,N,0.923,K,A*2E
$RDENS,1058,4967705,PC
$GPVTG,164.9273,T,164.9273,M,0.608,N,1.126,K,A*29
$GPVTG,160.1187,T,160.1187,M,0.570,N,1.056,K,A*23
$GPVTG,165.6394,T,165.6394,M,0.815,N,1.511,K,A*2B
$GPVTG,164.2719,T,164.2719,M,0.832,N,1.541,K,A*2B
$RDENS,1059,4967793,PC
$GPVTG,169.2924,T,169.2924,M,1.017,N,1.884,K,A*21
$GPVTG,146.5372,T,146.5372,M,0.785,N,1.456,K,A*2F
$GPVTG,171.2781,T,171.2781,M,1.376,N,2.550,K,A*22
$GPVTG,168.9020,T,168.9020,M,1.345,N,2.492,K,A*2D
$RDENS,1060,4967881,PC
$GPVTG,167.5147,T,167.5147,M,1.495,N,2.771,K,A*29
$GPVTG,168.3827,T,168.3827,M,1.513,N,2.804,K,A*2B
$GPVTG,168.0670,T,168.0670,M,1.654,N,3.066,K,A*26
$GPVTG,173.1429,T,173.1429,M,1.684,N,3.121,K,A*29
$GPVTG,172.8465,T,172.8465,M,1.885,N,3.493,K,A*2A
$RDENS,1061,4967969,PC
$GPVTG,171.1205,T,171.1205,M,1.765,N,3.270,K,A*20
$GPVTG,177.2640,T,177.2640,M,2.248,N,4.165,K,A*29
$GPVTG,176.3582,T,176.3582,M,2.186,N,4.052,K,A*2D
$GPVTG,178.8007,T,178.8007,M,2.384,N,4.417,K,A*28
$RDENS,1062,4968057,PC
$GPVTG,181.6800,T,181.6800,M,2.412,N,4.470,K,A*21
$GPVTG,181.0702,T,181.0702,M,2.459,N,4.556,K,A*2B
$GPVTG,183.2867,T,183.2867,M,2.507,N,4.645,K,A*20
$GPVTG,184.3848,T,184.3848,M,2.559,N,4.743,K,A*2C
$GPVTG,185.4504,T,185.4504,M,2.469,N,4.575,K,A*29
$RDENS,1063,4968145,PC
$GPVTG,185.5223,T,185.5223,M,2.721,N,5.043,K,A*27
$GPVTG,184.9101,T,184.9101,M,2.751,N,5.098,K,A*26
$GPVTG,186.5516,T,186.5516,M,2.757,N,5.110,K,A*21
$GPVTG,186.8582,T,186.8582,M,2.838,N,5.259,K,A*29
$RDENS,1064,4968233,PC
$GPVTG,187.3015,T,187.3015,M,2.780,N,5.152,K,A*2D
$GPVTG,186.2938,T,186.2938,M,2.751,N,5.098,K,A*26
$GPVTG,187.3210,T,187.3210,M,2.911,N,5.395,K,A*22
$GPVTG,187.2510,T,187.2510,M,2.767,N,5.128,K,A*29
$RDENS,1065,4968321,PC
$GPVTG,186.0154,T,186.0154,M,2.852,N,5.286,K,A*27
$GPVTG,187.3021,T,187.3021,M,2.859,N,5.298,K,A*23
$GPVTG,185.7704,T,185.7704,M,2.804,N,5.196,K,A*26
$GPVTG,186.0372,T,186.0372,M,2.873,N,5.325,K,A*2C
$GPVTG,184.6094,T,184.6094,M,2.718,N,5.037,K,A*2E
$RDENS,1066,4968409,PC
$GPVTG,185.2261,T,185.2261,M,2.887,N,5.350,K,A*25
$GPVTG,184.8978,T,184.8978,M,2.809,N,5.206,K,A*21
$GPVTG,185.4939,T,185.4939,M,2.861,N,5.303,K,D*2E
$RDENS,1067,4968497,PC
$GPVTG,183.6962,T,183.6962,M,2.740,N,5.077,K,D*22
$GPVTG,184.8835,T,184.8835,M,2.810,N,5.208,K,D*22
$GPVTG,182.1209,T,182.1209,M,2.773,N,5.138,K,D*28
$GPVTG,184.8434,T,184.8434,M,2.632,N,4.877,K,D*2F
$GPVTG,182.0127,T,182.0127,M,2.716,N,5.033,K,D*21
$RDENS,1068,4968585,PC
$GPVTG,182.7271,T,182.7271,M,2.638,N,4.889,K,D*24
$GPVTG,183.3103,T,183.3103,M,2.601,N,4.820,K,D*2D
$GPVTG,181.1248,T,181.1248,M,2.638,N,4.890,K,D*2C
$GPVTG,182.7504,T,182.7504,M,2.440,N,4.523,K,D*24
$RDENS,1069,4968673,PC
$GPVTG,181.2270,T,181.2270,M,2.572,N,4.767,K,D*26
$GPVTG,181.5487,T,181.5487,M,2.551,N,4.728,K,D*2C
$GPVTG,182.0680,T,182.0680,M,2.566,N,4.755,K,D*22
$GPVTG,180.6603,T,180.6603,M,2.471,N,4.580,K,D*2F
$RDENS,1070,4968761,PC
$GPVTG,181.1309,T,181.1309,M,2.400,N,4.448,K,D*2C
$GPVTG,180.5286,T,180.5286,M,2.441,N,4.524,K,D*22
$GPVTG,180.7198,T,180.7198,M,2.347,N,4.350,K,D*26
$GPVTG,178.7874,T,178.7874,M,2.347,N,4.349,K,D*2E
$GPVTG,180.3818,T,180.3818,M,2.258,N,4.184,K,D*22
$RDENS,1071,4968849,PC
$GPVTG,179.0940,T,179.0940,M,2.181,N,4.041,K,D*2D
$GPVTG,179.0630,T,179.0630,M,2.147,N,3.980,K,D*24
$GPVTG,180.6849,T,180.6849,M,2.065,N,3.826,K,D*28
$GPVTG,177.8980,T,177.8980,M,2.069,N,3.834,K,D*27
$RDENS,1072,4968937,PC
$GPVTG,181.8655,T,181.8655,M,1.917,N,3.553,K,D*28
$GPGGA,134811.20,4612.0735829,N,00607.2098679,E,2,10,1.0,368.483,M,49.481,M,0.01,0195*7A
$GPVTG,178.2232,T,178.2232,M,1.948,N,3.609,K,D*2E
$GPGGA,134811.60,4612.0733856,N,00607.2098700,E,2,10,1.0,368.472,M,49.481,M,0.20,0195*72
$GPVTG,179.6709,T,179.6709,M,1.710,N,3.168,K,D*2D
$GPGGA,134811.80,4612.0732855,N,00607.2098771,E,2,10,1.0,368.465,M,49.481,M,0.40,0195*78
$RDENS,1073,4969025,PC
$GPVTG,177.6550,T,177.6550,M,1.655,N,3.067,K,D*23
$GPGGA,134812.00,4612.0731964,N,00607.2098824,E,2,10,1.0,368.457,M,49.481,M,0.60,0195*7F
$GPVTG,174.7155,T,174.7155,M,1.587,N,2.941,K,D*23
$GPGGA,134812.40,4612.0730256,N,00607.2099005,E,2,10,1.0,368.455,M,49.481,M,0.07,0195*79
$GPVTG,172.4011,T,172.4011,M,1.472,N,2.728,K,D*29
$RDENS,1074,4969113,PC
$GPGGA,134812.60,4612.0729363,N,00607.2099272,E,2,10,1.0,368.447,M,49.481,M,0.01,0195*73
$GPVTG,171.5014,T,171.5014,M,1.489,N,2.759,K,D*2B
$GPGGA,134813.00,4612.0727874,N,00607.2099618,E,2,10,1.0,368.433,M,49.481,M,0.41,0195*78
$GPVTG,169.4121,T,169.4121,M,1.378,N,2.553,K,D*2A
$GPGGA,134813.20,4612.0726966,N,00607.2100000,E,2,10,1.0,368.453,M,49.481,M,0.07,0195*73
$GPVTG,168.8566,T,168.8566,M,1.374,N,2.546,K,D*22
$RDENS,1075,4969201,PC
$GPGGA,134813.60,4612.0722941,N,00607.2102488,E,2,11,0.8,368.743,M,49.481,M,0.08,0195*75
$GPVTG,167.6074,T,167.6074,M,1.366,N,2.532,K,D*22
$GPGGA,134814.00,4612.0722038,N,00607.2103408,E,4,04,12.6,368.345,M,49.481,M,0.13,0195*4D
$GPVTG,168.7513,T,168.7513,M,1.361,N,2.521,K,D*27
$GPGGA,134814.20,4612.0721235,N,00607.2103673,E,4,04,12.6,368.343,M,49.481,M,0.33,0195*49
$GPVTG,169.3905,T,169.3905,M,1.307,N,2.422,K,D*25
$RDENS,1076,4969289,PC
$GPGGA,134814.60,4612.0720874,N,00607.2103333,E,4,04,12.6,368.411,M,49.481,M,0.09,0195*4B
$GPVTG,168.1546,T,168.1546,M,1.294,N,2.398,K,D*28
$GPGGA,134814.80,4612.0720276,N,00607.2103387,E,4,04,12.6,368.433,M,49.481,M,0.03,0195*48
$GPVTG,173.5977,T,173.5977,M,1.395,N,2.585,K,D*22
$GPGGA,134815.00,4612.0719280,N,00607.2103626,E,4,04,12.6,368.429,M,49.481,M,0.23,0195*45
$GPVTG,171.1250,T,171.1250,M,1.359,N,2.518,K,D*26
$RDENS,1077,4969377,PC
$GPGGA,134815.40,4612.0717686,N,00607.2103998,E,4,04,12.6,368.435,M,49.481,M,0.63,0195*4E
$GPVTG,174.7466,T,174.7466,M,1.351,N,2.505,K,D*22
$GPGGA,134815.60,4612.0717102,N,00607.2103998,E,4,04,12.6,368.437,M,49.481,M,0.83,0195*4B
$GPVTG,173.9447,T,173.9447,M,1.339,N,2.481,K,D*21
$GPGGA,134816.00,4612.0715606,N,00607.2104267,E,4,04,12.6,368.409,M,49.481,M,1.23,0195*45
$GPVTG,172.2830,T,172.2830,M,1.358,N,2.517,K,D*28
$RDENS,1078,4969465,PC
$GPGGA,134816.20,4612.0714629,N,00607.2104537,E,4,04,12.6,368.422,M,49.481,M,1.43,0195*46
$GPVTG,172.7968,T,172.7968,M,1.381,N,2.559,K,D*26
$GPGGA,134816.60,4612.0713389,N,00607.2104607,E,4,04,12.5,368.400,M,49.481,M,1.83,0195*45
$GPVTG,174.0096,T,174.0096,M,1.344,N,2.490,K,D*2B
$GPGGA,134816.80,4612.0712614,N,00607.2104732,E,4,04,12.5,368.419,M,49.481,M,2.03,0195*4F
$GPVTG,176.1420,T,176.1420,M,1.386,N,2.569,K,D*22
$RDENS,1079,4969553,PC
$GPGGA,134817.20,4612.0711049,N,00607.2104978,E,4,04,12.5,368.400,M,49.481,M,2.43,0195*45
$GPVTG,174.2453,T,174.2453,M,1.288,N,2.387,K,D*2B
$GPGGA,134817.40,4612.0710132,N,00607.2105230,E,4,04,12.5,368.407,M,49.481,M,2.63,0195*4C
$GPVTG,173.6052,T,173.6052,M,1.316,N,2.438,K,D*2E
$GPGGA,134817.80,4612.0708659,N,00607.2105549,E,4,04,12.5,368.425,M,49.481,M,3.03,0195*4D
$GPVTG,171.5157,T,171.5157,M,1.286,N,2.382,K,D*20
$RDENS,1080,4969640,PC
$GPGGA,134818.00,4612.0707922,N,00607.2105791,E,4,04,12.5,368.423,M,49.481,M,3.23,0195*45
$GPVTG,168.5097,T,168.5097,M,1.241,N,2.299,K,D*20
$GPGGA,134818.40,4612.0706417,N,00607.2106264,E,4,04,12.5,368.426,M,49.481,M,3.63,0195*46
$GPVTG,169.0994,T,169.0994,M,1.265,N,2.344,K,D*27
$GPGGA,134818.60,4612.0705722,N,00607.2106506,E,4,04,12.5,368.423,M,49.481,M,3.83,0195*4A
$GPVTG,164.5995,T,164.5995,M,1.236,N,2.290,K,D*29
$RDENS,1081,4969727,PC
$GPGGA,134819.00,4612.0704616,N,00607.2106884,E,4,04,12.5,368.433,M,49.481,M,4.23,0195*41
$GPVTG,168.8199,T,168.8199,M,1.259,N,2.334,K,D*2F
$GPGGA,134819.20,4612.0704079,N,00607.2107048,E,4,04,12.5,368.438,M,49.481,M,4.43,0195*48
$GPVTG,165.5838,T,165.5838,M,1.378,N,2.554,K,D*2D
$GPGGA,134819.60,4612.0702454,N,00607.2107726,E,4,04,12.5,368.409,M,49.481,M,4.83,0195*40
$GPVTG,164.6647,T,164.6647,M,1.374,N,2.546,K,D*22
$RDENS,1082,4969814,PC
$GPGGA,134819.80,4612.0701809,N,00607.2107895,E,4,04,12.5,368.410,M,49.481,M,5.03,0195*4F
$GPVTG,167.4476,T,167.4476,M,1.477,N,2.737,K,D*22
$GPGGA,134820.20,4612.0699850,N,00607.2108601,E,4,04,12.5,368.401,M,49.481,M,5.43,0195*4B
$GPVTG,168.5244,T,168.5244,M,1.604,N,2.973,K,D*2A
$GPGGA,134820.40,4612.0699026,N,00607.2108861,E,4,04,12.5,368.384,M,49.481,M,5.63,0195*44
$GPVTG,168.5216,T,168.5216,M,1.674,N,3.103,K,D*23
$RDENS,1083,4969901,PC
$GPGGA,134820.80,4612.0697234,N,00607.2109258,E,4,04,12.5,368.391,M,49.481,M,6.03,0195*47
$GPVTG,170.5920,T,170.5920,M,1.790,N,3.317,K,D*2F
$GPGGA,134821.00,4612.0696167,N,00607.2109464,E,4,04,12.5,368.374,M,49.481,M,6.23,0195*4A
$GPVTG,174.8566,T,174.8566,M,1.979,N,3.667,K,D*24
$GPGGA,134821.40,4612.0693499,N,00607.2110053,E,4,04,12.4,368.320,M,49.481,M,6.63,0195*43
$GPVTG,173.3078,T,173.3078,M,2.004,N,3.714,K,D*21
$RDENS,1084,4969988,PC
$GPGGA,134821.60,4612.0692305,N,00607.2110192,E,4,04,12.4,368.316,M,49.481,M,6.83,0195*45
$GPVTG,175.2458,T,175.2458,M,2.284,N,4.233,K,D*2C
$GPGGA,134821.80,4612.0690843,N,00607.2110440,E,4,04,12.4,368.295,M,49.481,M,7.03,0195*49
$GPVTG,178.4324,T,178.4324,M,2.374,N,4.400,K,D*24
$GPGGA,134822.20,4612.0688355,N,00607.2110476,E,4,04,12.4,368.278,M,49.481,M,7.43,0195*47
$GPVTG,178.4035,T,178.4035,M,2.419,N,4.483,K,D*23
$RDENS,1085,4970075,PC
$GPGGA,134822.40,4612.0686549,N,00607.2110629,E,4,04,12.4,368.263,M,49.481,M,7.63,0195*44
$GPVTG,181.9199,T,181.9199,M,2.590,N,4.799,K,D*2B
$GPGGA,134822.80,4612.0683785,N,00607.2110305,E,4,04,12.4,368.253,M,49.481,M,8.03,0195*4E
$GPVTG,184.4205,T,184.4205,M,2.645,N,4.901,K,D*2F
$GPGGA,134823.00,4612.0682348,N,00607.2110053,E,4,04,12.4,368.249,M,49.481,M,8.23,0195*4A
$RDENS,1086,4970161,PC
$GPVTG,185.6694,T,185.6694,M,2.750,N,5.097,K,D*2D
$GPGGA,134823.40,4612.0679524,N,00607.2109465,E,4,04,12.4,368.260,M,49.481,M,8.63,0195*40
$GPVTG,187.3893,T,187.3893,M,2.712,N,5.026,K,D*21
$GPGGA,134823.60,4612.0678048,N,00607.2109198,E,4,04,12.4,368.274,M,49.481,M,8.83,0195*40
$GPVTG,186.8047,T,186.8047,M,2.792,N,5.174,K,D*2F
$GPGGA,134824.00,4612.0674797,N,00607.2108833,E,4,04,12.4,368.304,M,49.481,M,9.23,0195*4C
$RDENS,1087,4970247,PC
$GPVTG,187.0165,T,187.0165,M,2.743,N,5.084,K,D*2D
$GPGGA,134824.20,4612.0673398,N,00607.2108523,E,4,04,12.4,368.310,M,49.481,M,9.43,0195*4D
$GPVTG,185.4218,T,185.4218,M,2.654,N,4.918,K,D*27
$GPGGA,134824.60,4612.0670678,N,00607.2108088,E,4,04,12.4,368.320,M,49.481,M,9.83,0195*4A
$GPVTG,184.4373,T,184.4373,M,2.548,N,4.721,K,D*2D
$GPGGA,134824.80,4612.0669443,N,00607.2107932,E,4,04,12.4,368.331,M,49.481,M,10.03,0195*71
$RDENS,1088,4970333,PC
$GPVTG,183.8053,T,183.8053,M,2.292,N,4.248,K,D*27
$GPGGA,134825.20,4612.0667020,N,00607.2107725,E,4,04,12.4,368.352,M,49.481,M,10.43,0195*7C
$GPVTG,183.1330,T,183.1330,M,2.280,N,4.225,K,D*2F
$GPGGA,134825.40,4612.0665603,N,00607.2107875,E,4,04,12.4,368.343,M,49.481,M,10.63,0195*77
$GPVTG,177.7150,T,177.7150,M,2.120,N,3.930,K,D*2E
$GPGGA,134825.80,4612.0663123,N,00607.2108282,E,4,04,12.4,368.343,M,49.481,M,11.03,0195*72
$RDENS,1089,4970419,PC
$GPVTG,174.0337,T,174.0337,M,1.839,N,3.408,K,D*2A
$GPGGA,134826.00,4612.0661996,N,00607.2108573,E,4,04,12.3,368.340,M,49.481,M,11.23,0195*72
$GPVTG,169.1370,T,169.1370,M,1.747,N,3.238,K,D*29
$GPGGA,134826.40,4612.0660312,N,00607.2108992,E,4,04,12.3,368.342,M,49.481,M,11.63,0195*74
$GPVTG,166.8310,T,166.8310,M,1.656,N,3.070,K,D*26
$RDENS,1090,4970505,PC
$GPGGA,134826.60,4612.0659607,N,00607.2109225,E,4,04,12.3,368.364,M,49.481,M,11.83,0195*71
$GPVTG,161.2948,T,161.2948,M,1.554,N,2.881,K,D*20
$GPGGA,134827.00,4612.0657896,N,00607.2110057,E,4,04,12.3,368.352,M,49.481,M,12.23,0195*7D
$GPVTG,162.0111,T,162.0111,M,1.536,N,2.846,K,D*2F
$GPGGA,134827.20,4612.0657146,N,00607.2110559,E,2,04,12.3,368.347,M,49.481,M,12.43,0195*74
$GPVTG,159.2635,T,159.2635,M,1.532,N,2.839,K,D*23
$RDENS,1091,4970591,PC
$GPGGA,134827.60,4612.0655716,N,00607.2111460,E,2,04,12.3,368.359,M,49.481,M,12.83,0195*78
$GPVTG,154.0848,T,154.0848,M,1.512,N,2.802,K,D*29
$GPGGA,134827.80,4612.0654840,N,00607.2112100,E,2,04,12.3,368.341,M,49.481,M,13.03,0195*7B
$GPVTG,152.0723,T,152.0723,M,1.610,N,2.983,K,D*20
$GPGGA,134828.20,4612.0653404,N,00607.2113334,E,2,04,12.3,368.352,M,49.481,M,13.43,0195*77
$GPVTG,149.6344,T,149.6344,M,1.643,N,3.045,K,D*24
$RDENS,1092,4970677,PC
$GPGGA,134828.40,4612.0652469,N,00607.2114000,E,2,04,12.3,368.345,M,49.481,M,0.10,0195*4A
$GPVTG,151.5771,T,151.5771,M,1.715,N,3.179,K,D*28
$GPGGA,134828.80,4612.0650810,N,00607.2115253,E,4,04,12.3,368.345,M,49.481,M,0.30,0195*47
$GPVTG,152.6283,T,152.6283,M,1.846,N,3.422,K,D*2A
$GPGGA,134829.00,4612.0650047,N,00607.2115737,E,4,04,12.3,368.354,M,49.481,M,0.07,0195*47
$GPVTG,155.3237,T,155.3237,M,1.893,N,3.508,K,D*2B
$RDENS,1093,4970763,PC
$GPGGA,134829.40,4612.0648453,N,00607.2116615,E,4,04,12.3,368.369,M,49.481,M,0.20,0195*42
$GPVTG,158.5440,T,158.5440,M,1.997,N,3.700,K,D*24
$GPGGA,134829.60,4612.0647455,N,00607.2117190,E,4,04,12.3,368.362,M,49.481,M,0.40,0195*4F
$GPVTG,159.3345,T,159.3345,M,2.060,N,3.818,K,D*20
$GPGGA,134830.00,4612.0645119,N,00607.2118470,E,4,04,12.3,368.343,M,49.481,M,0.80,0195*45
$GPVTG,160.1116,T,160.1116,M,2.068,N,3.833,K,D*21
$RDENS,1094,4970849,PC
$GPGGA,134830.20,4612.0643999,N,00607.2119031,E,4,04,12.3,368.365,M,49.481,M,1.00,0195*4C
$GPVTG,161.5994,T,161.5994,M,2.145,N,3.975,K,D*2C
$GPGGA,134830.60,4612.0641407,N,00607.2120340,E,4,04,12.3,368.377,M,49.481,M,1.40,0195*48
$GPVTG,160.9667,T,160.9667,M,2.191,N,4.060,K,D*2F
$GPGGA,134830.80,4612.0640301,N,00607.2120873,E,4,04,12.3,368.371,M,49.481,M,1.60,0195*49
$GPVTG,162.7627,T,162.7627,M,2.219,N,4.112,K,D*28
$RDENS,1095,4970935,PC
$GPGGA,134831.00,4612.0639257,N,00607.2121354,E,4,04,12.2,368.373,M,49.481,M,1.80,0195*4E
$GPVTG,160.5539,T,160.5539,M,2.238,N,4.148,K,D*24
$GPGGA,134831.40,4612.0637088,N,00607.2122443,E,4,04,12.2,368.380,M,49.481,M,2.20,0195*43
$GPVTG,160.6516,T,160.6516,M,2.164,N,4.011,K,D*23
$GPGGA,134831.60,4612.0635882,N,00607.2123074,E,4,04,12.2,368.393,M,49.481,M,2.40,0195*44
$RDENS,1096,4971020,PC
$GPVTG,157.5491,T,157.5491,M,2.190,N,4.059,K,D*24
$GPGGA,134832.00,4612.0633791,N,00607.2124282,E,4,04,12.2,368.416,M,49.481,M,2.80,0195*40
$GPVTG,158.7196,T,158.7196,M,2.262,N,4.193,K,D*2D
$GPGGA,134832.20,4612.0632506,N,00607.2125089,E,4,04,12.2,368.414,M,49.481,M,3.00,0195*4C
$GPVTG,156.2698,T,156.2698,M,2.290,N,4.244,K,D*29
$GPGGA,134832.60,4612.0630164,N,00607.2126663,E,4,04,12.2,368.394,M,49.481,M,3.40,0195*40
$RDENS,1097,4971105,PC
$GPVTG,153.7890,T,153.7890,M,2.194,N,4.066,K,D*2C
$GPVTG,155.5499,T,155.5499,M,2.282,N,4.229,K,D*21
$GPGGA,134833.00,4612.0627826,N,00607.2128311,E,4,04,12.2,368.375,M,49.481,M,3.80,0195*43
$GPVTG,155.0822,T,155.0822,M,2.272,N,4.211,K,D*25
$GPGGA,134833.20,4612.0626880,N,00607.2128933,E,4,04,12.2,368.387,M,49.481,M,4.00,0195*44
$GPVTG,157.6684,T,157.6684,M,2.302,N,4.267,K,D*22
$RDENS,1098,4971202,PC
$GPGGA,134833.60,4612.0624371,N,00607.2130345,E,4,04,12.2,368.373,M,49.481,M,4.40,0195*4A
$GPVTG,160.0249,T,160.0249,M,2.307,N,4.276,K,D*27
$GPGGA,134833.80,4612.0622976,N,00607.2131005,E,4,04,12.2,368.347,M,49.481,M,4.60,0195*4C
$GPVTG,163.4423,T,163.4423,M,2.379,N,4.409,K,D*20
$GPGGA,134834.20,4612.0620353,N,00607.2132161,E,4,04,12.2,368.345,M,49.481,M,5.00,0195*4B
$GPVTG,162.4511,T,162.4511,M,2.355,N,4.365,K,D*23
$GPGGA,134834.40,4612.0619169,N,00607.2132579,E,4,04,12.2,368.364,M,49.481,M,5.20,0195*40
$RDENS,1099,4971299,PC
$GPVTG,165.8300,T,165.8300,M,2.374,N,4.400,K,D*24
$GPGGA,134834.80,4612.0616723,N,00607.2133309,E,4,04,12.2,368.373,M,49.481,M,5.60,0195*49
$GPVTG,169.3382,T,169.3382,M,2.484,N,4.604,K,D*2A
$GPGGA,134835.00,4612.0615545,N,00607.2133581,E,4,04,12.2,368.387,M,49.481,M,5.80,0195*42
$GPVTG,171.8555,T,171.8555,M,2.550,N,4.726,K,D*23
$GPGGA,134835.40,4612.0612554,N,00607.2134270,E,4,04,12.2,368.400,M,49.481,M,6.20,0195*4E
$RDENS,1100,4971390,PC
$GPVTG,172.6773,T,172.6773,M,2.508,N,4.648,K,D*27
$GPGGA,134835.60,4612.0611191,N,00607.2134489,E,4,04,12.2,368.418,M,49.481,M,6.40,0195*4D
$GPVTG,174.0020,T,174.0020,M,2.565,N,4.753,K,D*27
$GPGGA,134836.00,4612.0608263,N,00607.2134955,E,4,04,12.1,368.406,M,49.481,M,6.80,0195*42
$GPVTG,174.9396,T,174.9396,M,2.643,N,4.899,K,D*29
$GPGGA,134836.20,4612.0606847,N,00607.2135085,E,4,04,12.1,368.406,M,49.481,M,7.00,0195*4E
$GPVTG,177.0820,T,177.0820,M,2.683,N,4.972,K,D*21
$RDENS,1101,4971481,PC
$GPGGA,134836.60,4612.0604020,N,00607.2135178,E,4,04,12.1,368.408,M,49.481,M,7.40,0195*48
$GPVTG,178.0464,T,178.0464,M,2.719,N,5.040,K,D*2A
$GPGGA,134836.80,4612.0602316,N,00607.2135359,E,4,04,12.1,368.409,M,49.481,M,0.11,0195*45
$GPVTG,179.4142,T,179.4142,M,2.747,N,5.091,K,D*2D
$GPGGA,134837.20,4612.0599378,N,00607.2135300,E,4,04,12.1,368.410,M,49.481,M,0.29,0195*48
$GPVTG,179.0503,T,179.0503,M,2.778,N,5.148,K,D*24
$RDENS,1102,4971572,PC
$GPGGA,134837.40,4612.0597993,N,00607.2135241,E,4,04,12.1,368.419,M,49.481,M,0.49,0195*44
$GPVTG,179.4653,T,179.4653,M,2.819,N,5.225,K,D*24
$GPGGA,134837.80,4612.0594803,N,00607.2135347,E,4,04,12.1,368.431,M,49.481,M,0.89,0195*42
$GPVTG,179.4571,T,179.4571,M,2.840,N,5.263,K,D*2A
$GPGGA,134838.00,4612.0593191,N,00607.2135393,E,4,04,12.1,368.423,M,49.481,M,1.09,0195*43
$GPVTG,179.1256,T,179.1256,M,2.869,N,5.317,K,D*23
$RDENS,1103,4971663,PC
$GPGGA,134838.40,4612.0589952,N,00607.2135510,E,4,04,12.1,368.406,M,49.481,M,1.49,0195*45
$GPVTG,177.9051,T,177.9051,M,2.882,N,5.342,K,D*26
$GPGGA,134838.60,4612.0588319,N,00607.2135567,E,4,04,12.1,368.403,M,49.481,M,1.69,0195*44
$GPVTG,179.0175,T,179.0175,M,2.938,N,5.445,K,D*26
$GPGGA,134839.00,4612.0585168,N,00607.2135614,E,4,04,12.1,368.400,M,49.481,M,2.09,0195*4B
$GPVTG,178.2457,T,178.2457,M,2.919,N,5.410,K,D*25
$RDENS,1104,4971755,PC
$GPGGA,134839.20,4612.0583503,N,00607.2135666,E,4,04,12.1,368.405,M,49.481,M,2.29,0195*44
$GPVTG,178.8820,T,178.8820,M,2.964,N,5.492,K,D*25
$GPGGA,134839.60,4612.0579942,N,00607.2135959,E,4,04,12.1,368.405,M,49.481,M,2.69,0195*4B
$GPVTG,178.0961,T,178.0961,M,2.939,N,5.448,K,D*2A
$GPGGA,134839.80,4612.0578285,N,00607.2136090,E,4,04,12.1,368.423,M,49.481,M,2.89,0195*41
$GPVTG,176.7210,T,176.7210,M,2.944,N,5.455,K,D*2C
$RDENS,1105,4971847,PC
$GPGGA,134840.00,4612.0576980,N,00607.2136027,E,4,04,12.1,368.433,M,49.481,M,0.07,0195*4E
$GPVTG,176.5967,T,176.5967,M,2.972,N,5.508,K,D*20
$GPGGA,134840.40,4612.0573593,N,00607.2136362,E,4,04,12.1,368.432,M,49.481,M,0.08,0195*4D
$GPVTG,175.0283,T,175.0283,M,2.965,N,5.495,K,D*23
$GPGGA,134840.60,4612.0571928,N,00607.2136431,E,4,04,12.1,368.434,M,49.481,M,0.09,0195*47
$GPVTG,175.3863,T,175.3863,M,2.956,N,5.479,K,D*21
$RDENS,1106,4971938,PC
$GPGGA,134841.00,4612.0568715,N,00607.2136835,E,4,04,12.1,368.425,M,49.481,M,0.31,0195*4B
$GPVTG,174.4873,T,174.4873,M,2.960,N,5.485,K,D*27
$GPGGA,134841.20,4612.0567231,N,00607.2136939,E,4,04,12.0,368.432,M,49.481,M,0.51,0195*49
$GPVTG,174.5168,T,174.5168,M,2.992,N,5.545,K,D*27
$GPGGA,134841.60,4612.0563741,N,00607.2137513,E,4,04,12.0,368.416,M,49.481,M,0.91,0195*44
$GPVTG,174.2282,T,174.2282,M,3.011,N,5.580,K,D*2D
$RDENS,1107,4972029,PC
$GPGGA,134841.80,4612.0562073,N,00607.2137794,E,4,04,12.0,368.426,M,49.481,M,1.11,0195*4A
$GPVTG,173.6068,T,173.6068,M,3.059,N,5.669,K,D*25
$GPGGA,134842.20,4612.0558677,N,00607.2138290,E,4,04,12.0,368.432,M,49.481,M,1.51,0195*47
$GPVTG,174.3290,T,174.3290,M,3.031,N,5.616,K,D*23
$GPGGA,134842.40,4612.0557081,N,00607.2138473,E,4,04,12.0,368.450,M,49.481,M,1.71,0195*4C
$GPVTG,175.2618,T,175.2618,M,3.106,N,5.756,K,D*23
$GPGGA,134842.80,4612.0553545,N,00607.2138933,E,4,04,12.0,368.436,M,49.481,M,2.11,0195*45
$RDENS,1108,4972120,PC
$GPVTG,175.4113,T,175.4113,M,3.142,N,5.824,K,D*29
$GPGGA,134843.00,4612.0551784,N,00607.2139122,E,4,04,12.0,368.422,M,49.481,M,2.31,0195*4F
$GPVTG,176.6018,T,176.6018,M,3.214,N,5.956,K,D*2D
$GPGGA,134843.40,4612.0548184,N,00607.2139453,E,4,04,12.0,368.431,M,49.481,M,2.71,0195*40
$GPVTG,176.0064,T,176.0064,M,3.331,N,6.174,K,D*20
$GPGGA,134843.60,4612.0546383,N,00607.2139561,E,4,04,12.0,368.432,M,49.481,M,2.91,0195*44
$RDENS,1109,4972211,PC
$GPVTG,177.6137,T,177.6137,M,3.411,N,6.322,K,D*24
$GPGGA,134844.00,4612.0542565,N,00607.2139830,E,4,04,12.0,368.429,M,49.481,M,3.31,0195*47
$GPVTG,178.1116,T,178.1116,M,3.316,N,6.145,K,D*27
$GPGGA,134844.20,4612.0540730,N,00607.2139864,E,4,04,12.0,368.423,M,49.481,M,3.51,0195*48
$GPVTG,180.1222,T,180.1222,M,3.451,N,6.396,K,D*2F
$GPGGA,134844.60,4612.0537008,N,00607.2139759,E,4,04,12.0,368.426,M,49.481,M,3.91,0195*48
$RDENS,1110,4972302,PC
$GPVTG,180.6269,T,180.6269,M,3.474,N,6.438,K,D*2B
$GPGGA,134844.80,4612.0534893,N,00607.2139787,E,4,04,12.0,368.401,M,49.481,M,4.11,0195*46
$GPVTG,182.6317,T,182.6317,M,3.474,N,6.438,K,D*2B
$GPGGA,134845.20,4612.0530853,N,00607.2139600,E,4,04,12.0,368.393,M,49.481,M,4.51,0195*43
$GPVTG,183.6785,T,183.6785,M,3.476,N,6.443,K,D*25
$GPGGA,134845.40,4612.0529026,N,00607.2139322,E,4,04,12.0,368.391,M,49.481,M,4.71,0195*42
$RDENS,1111,4972394,PC
$GPVTG,183.9525,T,183.9525,M,3.508,N,6.500,K,D*2B
$GPGGA,134845.80,4612.0525097,N,00607.2138840,E,4,04,12.0,368.399,M,49.481,M,5.11,0195*49
$GPVTG,185.7242,T,185.7242,M,3.552,N,6.583,K,D*2F
$GPGGA,134846.00,4612.0523229,N,00607.2138524,E,4,04,12.0,368.404,M,49.481,M,5.31,0195*4D
$GPVTG,185.9085,T,185.9085,M,3.518,N,6.519,K,D*22
$GPGGA,134846.40,4612.0519245,N,00607.2138026,E,4,04,11.9,368.400,M,49.481,M,5.71,0195*47
$GPVTG,186.1440,T,186.1440,M,3.517,N,6.519,K,D*2D
$RDENS,1112,4972485,PC
$GPGGA,134846.60,4612.0517421,N,00607.2137675,E,4,04,11.9,368.408,M,49.481,M,5.91,0195*46
$GPVTG,185.4614,T,185.4614,M,3.526,N,6.534,K,D*20
$GPGGA,134846.80,4612.0515429,N,00607.2137438,E,4,04,11.9,368.401,M,49.481,M,6.11,0195*4B
$GPVTG,185.9979,T,185.9979,M,3.482,N,6.454,K,D*28
$GPGGA,134847.20,4612.0511602,N,00607.2136838,E,4,04,11.9,368.406,M,49.481,M,6.51,0195*41
$GPVTG,187.0294,T,187.0294,M,3.485,N,6.459,K,D*22
$RDENS,1113,4972576,PC
$GPGGA,134847.40,4612.0509463,N,00607.2136674,E,4,04,11.9,368.386,M,49.481,M,6.71,0195*40
$GPVTG,186.7122,T,186.7122,M,3.462,N,6.416,K,D*20
$GPGGA,134847.80,4612.0505690,N,00607.2136033,E,4,04,11.9,368.383,M,49.481,M,7.11,0195*49
$GPVTG,186.2441,T,186.2441,M,3.492,N,6.472,K,D*2D
$GPGGA,134848.00,4612.0503758,N,00607.2135758,E,4,04,11.9,368.381,M,49.481,M,7.31,0195*44
$GPVTG,186.0980,T,186.0980,M,3.425,N,6.348,K,D*2F
$RDENS,1114,4972667,PC
$GPGGA,134848.40,4612.0499962,N,00607.2135224,E,4,04,11.9,368.385,M,49.481,M,7.71,0195*4B
$GPVTG,185.0831,T,185.0831,M,3.417,N,6.332,K,D*23
$GPGGA,134848.60,4612.0498168,N,00607.2134936,E,4,04,11.9,368.380,M,49.481,M,7.91,0195*48
$GPVTG,184.6983,T,184.6983,M,3.315,N,6.144,K,D*25
$GPGGA,134849.00,4612.0494610,N,00607.2134438,E,4,04,11.9,368.382,M,49.481,M,8.31,0195*4F
$GPVTG,184.6494,T,184.6494,M,3.316,N,6.146,K,D*24
$RDENS,1115,4972758,PC
$GPGGA,134849.20,4612.0492847,N,00607.2134217,E,4,04,11.9,368.392,M,49.481,M,8.51,0195*4B
$GPVTG,184.5457,T,184.5457,M,3.300,N,6.116,K,D*26
$GPGGA,134849.60,4612.0489405,N,00607.2133777,E,4,04,11.9,368.388,M,49.481,M,0.11,0195*4C
$GPVTG,183.8412,T,183.8412,M,3.183,N,5.899,K,D*22
$GPGGA,134849.80,4612.0487580,N,00607.2133683,E,4,04,11.9,368.383,M,49.481,M,0.31,0195*43
$GPVTG,182.7100,T,182.7100,M,3.151,N,5.839,K,D*27
$RDENS,1116,4972849,PC
$GPGGA,134850.20,4612.0484361,N,00607.2133261,E,4,04,11.9,368.397,M,49.481,M,0.71,0195*42
$GPVTG,184.1678,T,184.1678,M,3.022,N,5.601,K,D*27
$GPGGA,134850.40,4612.0482628,N,00607.2133153,E,4,04,11.9,368.402,M,49.481,M,0.91,0195*4D
$GPVTG,182.3449,T,182.3449,M,2.993,N,5.547,K,D*24
$GPGGA,134850.80,4612.0479348,N,00607.2132923,E,4,04,11.9,368.426,M,49.481,M,1.31,0195*45
$GPVTG,182.0359,T,182.0359,M,2.909,N,5.390,K,D*2B
$RDENS,1117,4972939,PC
$GPGGA,134851.00,4612.0477950,N,00607.2132800,E,4,04,11.9,368.435,M,49.481,M,1.51,0195*45
$GPVTG,179.8222,T,179.8222,M,2.820,N,5.227,K,D*2C
$GPGGA,134851.40,4612.0474553,N,00607.2132917,E,4,04,11.9,368.429,M,49.481,M,0.02,0195*40
$GPVTG,180.3874,T,180.3874,M,2.765,N,5.125,K,D*23
$GPGGA,134851.60,4612.0473242,N,00607.2132775,E,4,04,11.8,368.442,M,49.481,M,0.00,0195*46
$GPVTG,177.0503,T,177.0503,M,2.641,N,4.894,K,D*26
$RDENS,1118,4973031,PC
$GPGGA,134852.00,4612.0470721,N,00607.2132750,E,4,04,11.8,368.480,M,49.481,M,0.40,0195*4D
$GPVTG,177.4360,T,177.4360,M,2.614,N,4.844,K,D*2B
$GPGGA,134852.20,4612.0469266,N,00607.2132908,E,4,04,11.8,368.470,M,49.481,M,0.60,0195*4F
$GPVTG,174.8670,T,174.8670,M,2.457,N,4.553,K,D*25
$GPGGA,134852.60,4612.0466519,N,00607.2133311,E,4,04,11.8,368.502,M,49.481,M,1.00,0195*4B
$GPVTG,173.3528,T,173.3528,M,2.419,N,4.483,K,D*23
$RDENS,1119,4973122,PC
$GPGGA,134852.80,4612.0465120,N,00607.2133676,E,4,04,11.8,368.478,M,49.481,M,1.20,0195*42
$GPVTG,171.3237,T,171.3237,M,2.304,N,4.270,K,D*22
$GPGGA,134853.20,4612.0462667,N,00607.2134257,E,4,04,11.8,368.490,M,49.481,M,1.60,0195*48
$GPVTG,169.5496,T,169.5496,M,2.318,N,4.296,K,D*27
$GPGGA,134853.40,4612.0461487,N,00607.2134617,E,4,04,11.8,368.483,M,49.481,M,1.80,0195*4D
$GPVTG,166.9760,T,166.9760,M,2.239,N,4.150,K,D*2C
$GPGGA,134853.80,4612.0459263,N,00607.2135388,E,4,04,11.8,368.486,M,49.481,M,2.20,0195*48
$RDENS,1120,4973214,PC
$GPVTG,165.1175,T,165.1175,M,2.180,N,4.041,K,D*2C
$GPGGA,134854.00,4612.0458128,N,00607.2135821,E,4,04,11.8,368.500,M,49.481,M,2.40,0195*4B
$GPVTG,164.2051,T,164.2051,M,2.181,N,4.041,K,D*2D
$GPGGA,134854.20,4612.0456958,N,00607.2136275,E,4,04,11.8,368.481,M,49.481,M,2.60,0195*4A
$GPVTG,163.2729,T,163.2729,M,2.101,N,3.894,K,D*22
$GPGGA,134854.60,4612.0454536,N,00607.2137369,E,4,04,11.8,368.475,M,49.481,M,3.00,0195*49
$RDENS,1121,4973305,PC
$GPVTG,162.7968,T,162.7968,M,2.103,N,3.898,K,D*2C
$GPVTG,159.8906,T,159.8906,M,2.078,N,3.851,K,D*24
$GPGGA,134855.00,4612.0452480,N,00607.2138385,E,4,04,11.8,368.499,M,49.481,M,3.40,0195*4F
$GPVTG,160.2680,T,160.2680,M,2.145,N,3.975,K,D*2C
$GPGGA,134855.20,4612.0451530,N,00607.2138858,E,4,04,11.8,368.516,M,49.481,M,3.60,0195*4B
$GPVTG,159.5265,T,159.5265,M,2.144,N,3.974,K,D*2C
$RDENS,1122,4973395,PC
$GPGGA,134855.60,4612.0449011,N,00607.2140217,E,4,04,11.8,368.486,M,49.481,M,4.00,0195*47
$GPVTG,160.2088,T,160.2088,M,2.166,N,4.014,K,D*24
$GPGGA,134855.80,4612.0447882,N,00607.2140815,E,4,04,11.8,368.476,M,49.481,M,4.20,0195*40
$GPVTG,161.2152,T,161.2152,M,2.124,N,3.935,K,D*2F
$GPGGA,134856.20,4612.0445482,N,00607.2142063,E,4,04,11.8,368.453,M,49.481,M,4.60,0195*4F
$GPVTG,159.8023,T,159.8023,M,2.162,N,4.008,K,D*2D
$RDENS,1123,4973488,PC
$GPGGA,134856.40,4612.0444326,N,00607.2142635,E,4,04,11.8,368.451,M,49.481,M,4.80,0195*48
$GPVTG,162.0698,T,162.0698,M,2.144,N,3.973,K,D*2B
$GPGGA,134856.80,4612.0442186,N,00607.2143620,E,4,04,11.8,368.448,M,49.481,M,5.20,0195*4C
$GPVTG,162.0190,T,162.0190,M,2.216,N,4.106,K,D*22
$GPGGA,134857.00,4612.0440992,N,00607.2144163,E,4,04,11.7,368.449,M,49.481,M,5.40,0195*45
$GPVTG,162.9549,T,162.9549,M,2.258,N,4.184,K,D*22
$RDENS,1124,4973579,PC
$GPGGA,134857.40,4612.0438599,N,00607.2145196,E,4,04,11.7,368.441,M,49.481,M,5.80,0195*46
$GPVTG,163.0434,T,163.0434,M,2.258,N,4.185,K,D*23
$GPGGA,134857.60,4612.0437407,N,00607.2145682,E,4,04,11.7,368.434,M,49.481,M,6.00,0195*46
$GPVTG,164.4400,T,164.4400,M,2.212,N,4.099,K,D*21
$GPGGA,134858.00,4612.0435062,N,00607.2146571,E,4,04,11.7,368.457,M,49.481,M,6.40,0195*47
$GPVTG,165.7122,T,165.7122,M,2.278,N,4.221,K,D*2C
$GPGGA,134858.20,4612.0433788,N,00607.2147018,E,4,04,11.7,368.457,M,49.481,M,6.60,0195*49
$RDENS,1125,4973670,PC
$GPVTG,166.1703,T,166.1703,M,2.273,N,4.213,K,D*26
$GPGGA,134858.60,4612.0431447,N,00607.2147786,E,4,04,11.7,368.453,M,49.481,M,7.00,0195*4C
$GPVTG,166.6670,T,166.6670,M,2.380,N,4.411,K,D*2F
$GPGGA,134858.80,4612.0430327,N,00607.2148119,E,4,04,11.7,368.467,M,49.481,M,7.20,0195*48
$GPVTG,168.8457,T,168.8457,M,2.359,N,4.371,K,D*2A
$GPGGA,134859.20,4612.0427781,N,00607.2148829,E,4,04,11.7,368.490,M,49.481,M,7.60,0195*4B
$RDENS,1126,4973760,PC
$GPVTG,168.5193,T,168.5193,M,2.361,N,4.375,K,D*25
$GPGGA,134859.40,4612.0426506,N,00607.2149289,E,4,04,11.7,368.469,M,49.481,M,7.80,0195*48
$GPVTG,168.8736,T,168.8736,M,2.340,N,4.336,K,D*21
$GPGGA,134859.80,4612.0424283,N,00607.2149795,E,4,04,11.7,368.513,M,49.481,M,8.20,0195*4D
$GPVTG,168.7295,T,168.7295,M,2.280,N,4.225,K,D*2F
$GPGGA,134900.00,4612.0423092,N,00607.2150171,E,4,04,11.7,368.532,M,49.481,M,8.40,0195*4C
$RDENS,1127,4973850,PC
$GPVTG,166.5583,T,166.5583,M,2.295,N,4.252,K,D*2B
$GPGGA,134900.40,4612.0420559,N,00607.2151062,E,4,04,11.7,368.523,M,49.481,M,8.80,0195*47
$GPVTG,166.3160,T,166.3160,M,2.158,N,3.999,K,D*22
$GPGGA,134900.60,4612.0419346,N,00607.2151495,E,4,04,11.7,368.522,M,49.481,M,9.00,0195*43
$GPVTG,164.0284,T,164.0284,M,2.224,N,4.122,K,D*25
$GPGGA,134901.00,4612.0417216,N,00607.2152363,E,4,04,11.7,368.528,M,49.481,M,9.40,0195*4D
$RDENS,1128,4973940,PC
$GPVTG,163.8428,T,163.8428,M,2.138,N,3.962,K,D*20
$GPGGA,134901.20,4612.0416174,N,00607.2152819,E,4,04,11.7,368.524,M,49.481,M,9.60,0195*41
$GPVTG,162.0415,T,162.0415,M,2.162,N,4.007,K,D*22
$GPGGA,134901.60,4612.0413832,N,00607.2153969,E,4,04,11.7,368.517,M,49.481,M,10.00,0195*72
$GPVTG,160.5528,T,160.5528,M,2.074,N,3.844,K,D*2C
$GPGGA,134901.80,4612.0412744,N,00607.2154489,E,4,04,11.7,368.517,M,49.481,M,10.20,0195*75
$RDENS,1129,4974031,PC
$GPVTG,158.4616,T,158.4616,M,2.157,N,3.998,K,D*2C
$GPGGA,134902.00,4612.0411708,N,00607.2155030,E,4,04,11.7,368.514,M,49.481,M,10.40,0195*77
$GPVTG,160.0999,T,160.0999,M,2.119,N,3.926,K,D*23
$GPGGA,134902.40,4612.0409479,N,00607.2156194,E,2,04,11.6,368.512,M,49.481,M,10.80,0195*7E
$GPVTG,158.1472,T,158.1472,M,2.195,N,4.068,K,D*23
$GPGGA,134902.60,4612.0408283,N,00607.2156955,E,2,04,11.6,368.516,M,49.481,M,11.00,0195*76
$RDENS,1130,4974120,PC
$GPVTG,158.8343,T,158.8343,M,2.130,N,3.947,K,D*2F
$GPGGA,134903.00,4612.0405812,N,00607.2158300,E,2,04,11.6,368.516,M,49.481,M,11.40,0195*7E
$GPVTG,159.0989,T,159.0989,M,2.188,N,4.055,K,D*21
$GPGGA,134903.20,4612.0404903,N,00607.2158851,E,2,04,11.6,368.523,M,49.481,M,11.60,0195*77
$GPVTG,158.8073,T,158.8073,M,2.159,N,4.002,K,D*2F
$GPGGA,134903.60,4612.0402611,N,00607.2160180,E,2,04,11.6,368.532,M,49.481,M,12.00,0195*72
$RDENS,1131,4974210,PC
$GPVTG,157.0282,T,157.0282,M,2.177,N,4.035,K,D*27
$GPGGA,134903.80,4612.0401563,N,00607.2160802,E,2,04,11.6,368.540,M,49.481,M,0.10,0195*4D
$GPVTG,157.8693,T,157.8693,M,2.203,N,4.083,K,D*2A
$GPGGA,134904.20,4612.0398190,N,00607.2162831,E,4,04,11.6,368.439,M,49.481,M,0.09,0195*4C
$GPVTG,156.3017,T,156.3017,M,2.117,N,3.923,K,D*28
$GPGGA,134904.40,4612.0397091,N,00607.2163479,E,4,04,11.6,368.440,M,49.481,M,0.29,0195*48
$GPVTG,158.7434,T,158.7434,M,2.248,N,4.166,K,D*2F
$RDENS,1132,4974301,PC
$GPGGA,134904.80,4612.0395036,N,00607.2164654,E,4,04,11.6,368.424,M,49.481,M,0.69,0195*47
$GPVTG,157.3596,T,157.3596,M,2.259,N,4.187,K,D*20
$GPGGA,134905.00,4612.0394084,N,00607.2165225,E,4,04,11.6,368.426,M,49.481,M,0.89,0195*49
$GPVTG,158.4951,T,158.4951,M,2.186,N,4.051,K,D*2B
$GPGGA,134905.40,4612.0391694,N,00607.2166582,E,4,04,11.6,368.427,M,49.481,M,1.29,0195*4C
$GPVTG,159.5196,T,159.5196,M,2.137,N,3.960,K,D*2D
$RDENS,1133,4974391,PC
$GPGGA,134905.60,4612.0390706,N,00607.2167126,E,4,04,11.6,368.431,M,49.481,M,1.49,0195*4F
$GPVTG,158.4223,T,158.4223,M,2.129,N,3.946,K,D*26
$GPGGA,134906.00,4612.0388245,N,00607.2168549,E,4,04,11.6,368.430,M,49.481,M,0.07,0195*49
$GPVTG,158.0723,T,158.0723,M,2.186,N,4.051,K,D*2B
$GPGGA,134906.20,4612.0387092,N,00607.2169231,E,4,04,11.6,368.432,M,49.480,M,0.13,0195*43
$GPVTG,156.4273,T,156.4273,M,2.101,N,3.893,K,D*25
$RDENS,1134,4974481,PC
$GPGGA,134906.60,4612.0385221,N,00607.2170447,E,4,04,11.6,368.436,M,49.480,M,0.53,0195*40
$GPVTG,155.2901,T,155.2901,M,2.061,N,3.819,K,D*20
$GPGGA,134906.80,4612.0384042,N,00607.2171169,E,4,04,11.6,368.441,M,49.480,M,0.73,0195*42
$GPVTG,154.0679,T,154.0679,M,1.965,N,3.642,K,D*2E
$GPGGA,134907.20,4612.0382029,N,00607.2172613,E,4,04,11.6,368.467,M,49.480,M,1.13,0195*48
$GPVTG,153.9266,T,153.9266,M,2.072,N,3.840,K,D*2E
$RDENS,1135,4974571,PC
$GPGGA,134907.40,4612.0380950,N,00607.2173479,E,4,04,11.6,368.441,M,49.480,M,1.33,0195*42
$GPVTG,151.8813,T,151.8813,M,2.022,N,3.748,K,D*2C
$GPGGA,134907.80,4612.0379115,N,00607.2175005,E,4,04,11.6,368.474,M,49.480,M,1.73,0195*4A
$GPVTG,148.7715,T,148.7715,M,2.052,N,3.803,K,D*2B
$GPGGA,134908.00,4612.0377982,N,00607.2176025,E,4,04,11.5,368.482,M,49.480,M,1.93,0195*40
$GPVTG,147.3288,T,147.3288,M,2.029,N,3.760,K,D*2D
$RDENS,1136,4974660,PC
$GPGGA,134908.40,4612.0376336,N,00607.2177729,E,4,04,11.5,368.477,M,49.480,M,2.33,0195*49
$GPVTG,143.6097,T,143.6097,M,2.090,N,3.873,K,D*22
$GPGGA,134908.60,4612.0375294,N,00607.2178739,E,4,04,11.5,368.478,M,49.480,M,2.53,0195*46
$GPVTG,145.0542,T,145.0542,M,2.059,N,3.815,K,D*27
$GPGGA,134909.00,4612.0373508,N,00607.2180495,E,4,04,11.5,368.470,M,49.480,M,2.93,0195*43
$GPVTG,146.8094,T,146.8094,M,1.961,N,3.634,K,D*2B
$RDENS,1137,4974751,PC
$GPGGA,134909.20,4612.0372562,N,00607.2181356,E,4,04,11.5,368.454,M,49.480,M,3.13,0195*4A
$GPVTG,148.3367,T,148.3367,M,1.843,N,3.416,K,D*28
$GPGGA,134909.60,4612.0370830,N,00607.2182820,E,4,04,11.5,368.459,M,49.480,M,3.53,0195*46
$GPVTG,150.4614,T,150.4614,M,1.848,N,3.425,K,D*23
$GPGGA,134909.80,4612.0369759,N,00607.2183659,E,4,04,11.5,368.445,M,49.480,M,3.73,0195*4E
$GPVTG,153.0027,T,153.0027,M,1.824,N,3.380,K,D*21
$RDENS,1138,4974842,PC
$GPGGA,134910.20,4612.0367562,N,00607.2185178,E,4,04,11.5,368.414,M,49.480,M,0.13,0195*4B
$GPVTG,153.8378,T,153.8378,M,1.778,N,3.295,K,D*22
$GPGGA,134910.40,4612.0366842,N,00607.2185719,E,4,04,11.5,368.445,M,49.480,M,0.33,0195*44
$GPVTG,152.9241,T,152.9241,M,1.747,N,3.237,K,D*26
$GPGGA,134910.60,4612.0365914,N,00607.2186384,E,4,04,11.5,368.450,M,49.480,M,0.53,0195*46
$GPVTG,154.7301,T,154.7301,M,1.730,N,3.206,K,D*24
$RDENS,1139,4974931,PC
$GPGGA,134911.00,4612.0364340,N,00607.2187384,E,4,04,11.5,368.454,M,49.480,M,0.93,0195*42
$GPVTG,156.5671,T,156.5671,M,1.683,N,3.118,K,D*21
$GPGGA,134911.20,4612.0363411,N,00607.2187992,E,4,04,11.5,368.440,M,49.480,M,1.13,0195*45
$GPVTG,159.4721,T,159.4721,M,1.564,N,2.899,K,D*2A
$GPGGA,134911.60,4612.0362001,N,00607.2188802,E,4,04,11.5,368.455,M,49.480,M,1.53,0195*42
$GPVTG,159.0826,T,159.0826,M,1.570,N,2.909,K,D*27
$RDENS,1140,4975021,PC
$GPGGA,134911.80,4612.0361330,N,00607.2189126,E,4,04,11.5,368.454,M,49.480,M,1.73,0195*43
$GPVTG,161.9118,T,161.9118,M,1.555,N,2.883,K,D*23
$GPGGA,134912.20,4612.0360051,N,00607.2189691,E,4,04,11.5,368.490,M,49.480,M,2.13,0195*49
$GPVTG,163.8529,T,163.8529,M,1.498,N,2.777,K,D*27
$GPGGA,134912.40,4612.0359031,N,00607.2190198,E,4,04,11.5,368.455,M,49.480,M,2.33,0195*4E
$GPVTG,163.5330,T,163.5330,M,1.521,N,2.819,K,D*23
$RDENS,1141,4975109,PC
$GPGGA,134912.80,4612.0357813,N,00607.2190660,E,4,04,11.5,368.482,M,49.480,M,2.73,0195*4A
$GPVTG,163.0629,T,163.0629,M,1.337,N,2.478,K,D*29
$GPGGA,134913.00,4612.0356899,N,00607.2191104,E,4,04,11.5,368.469,M,49.480,M,2.93,0195*4F
$GPVTG,164.8873,T,164.8873,M,1.356,N,2.513,K,D*22
$GPGGA,134913.40,4612.0355530,N,00607.2191664,E,4,04,11.5,368.468,M,49.480,M,3.33,0195*4D
$GPVTG,163.2299,T,163.2299,M,1.220,N,2.260,K,D*21
$RDENS,1142,4975197,PC
$GPGGA,134913.60,4612.0354964,N,00607.2191841,E,4,04,11.4,368.485,M,49.480,M,3.53,0195*4E
$GPVTG,162.1446,T,162.1446,M,1.238,N,2.294,K,D*23
$GPGGA,134914.00,4612.0353927,N,00607.2192292,E,4,04,11.4,368.514,M,49.480,M,3.93,0195*4D
$GPVTG,160.3643,T,160.3643,M,1.119,N,2.073,K,D*28
$GPGGA,134914.20,4612.0353099,N,00607.2192654,E,4,04,11.4,368.499,M,49.480,M,4.13,0195*46
$GPVTG,162.8073,T,162.8073,M,1.126,N,2.087,K,D*2F
$RDENS,1143,4975286,PC
$GPGGA,134914.60,4612.0352115,N,00607.2193067,E,4,04,11.4,368.498,M,49.480,M,4.53,0195*44
$GPVTG,162.7418,T,162.7418,M,1.046,N,1.938,K,D*26
$GPGGA,134914.80,4612.0351647,N,00607.2193270,E,4,04,11.4,368.490,M,49.480,M,4.73,0195*47
$GPVTG,162.1377,T,162.1377,M,0.862,N,1.597,K,D*20
$GPGGA,134915.20,4612.0350755,N,00607.2193710,E,4,04,11.4,368.487,M,49.480,M,5.13,0195*4D
$GPVTG,162.0451,T,162.0451,M,1.022,N,1.895,K,D*22
$RDENS,1144,4975375,PC
$GPGGA,134915.40,4612.0350407,N,00607.2193851,E,4,04,11.4,368.510,M,49.480,M,5.33,0195*48
$GPVTG,163.6968,T,163.6968,M,0.775,N,1.436,K,D*23
$GPGGA,134915.80,4612.0349085,N,00607.2194457,E,4,04,11.4,368.483,M,49.480,M,5.73,0195*40
$GPVTG,165.9716,T,165.9716,M,0.909,N,1.684,K,D*2D
$GPGGA,134916.00,4612.0348939,N,00607.2194519,E,4,04,11.4,368.495,M,49.480,M,5.93,0195*46
$GPVTG,155.9833,T,155.9833,M,0.779,N,1.443,K,D*2D
$RDENS,1145,4975464,PC
$GPGGA,134916.40,4612.0348193,N,00607.2194910,E,4,04,11.4,368.521,M,49.480,M,6.33,0195*48
$GPVTG,163.1424,T,163.1424,M,0.722,N,1.338,K,D*28
$GPVTG,162.1994,T,162.1994,M,0.631,N,1.169,K,D*2D
$GPGGA,134916.80,4612.0347608,N,00607.2195224,E,4,04,11.4,368.514,M,49.480,M,6.73,0195*41
$GPVTG,153.8670,T,153.8670,M,0.709,N,1.314,K,D*2F
$GPGGA,134917.00,4612.0347324,N,00607.2195421,E,4,04,11.4,368.515,M,49.480,M,6.93,0195*4F
$RDENS,1146,4975553,PC
$GPVTG,160.1339,T,160.1339,M,0.594,N,1.100,K,D*2E
$GPGGA,134917.40,4612.0346792,N,00607.2195720,E,4,04,11.4,368.519,M,49.480,M,7.33,0195*46
$GPVTG,159.6677,T,159.6677,M,0.476,N,0.882,K,D*21
$GPGGA,134917.60,4612.0346295,N,00607.2196052,E,4,04,11.4,368.495,M,49.480,M,7.53,0195*44
$GPVTG,159.2382,T,159.2382,M,0.676,N,1.253,K,D*24
$GPGGA,134918.00,4612.0345773,N,00607.2196361,E,4,04,11.4,368.495,M,49.480,M,7.93,0195*4C
$RDENS,1147,4975650,PC
$GPVTG,152.8813,T,152.8813,M,0.430,N,0.798,K,D*27
$GPGGA,134918.20,4612.0345548,N,00607.2196507,E,4,04,11.4,368.505,M,49.480,M,8.13,0195*4D
$GPVTG,154.8281,T,154.8281,M,0.539,N,0.999,K,D*20
$GPGGA,134918.60,4612.0345198,N,00607.2196788,E,4,04,11.4,368.516,M,49.480,M,8.53,0195*43
$GPVTG,155.4088,T,155.4088,M,0.423,N,0.785,K,D*29
$GPGGA,134918.80,4612.0344995,N,00607.2196930,E,4,04,11.4,368.519,M,49.480,M,8.73,0195*49
$GPVTG,157.7678,T,157.7678,M,0.542,N,1.005,K,D*21
$RDENS,1148,4975747,PC
$GPGGA,134919.20,4612.0344285,N,00607.2197415,E,4,04,11.4,368.475,M,49.480,M,0.07,0195*43
$GPVTG,151.5424,T,151.5424,M,0.384,N,0.712,K,D*2D
$GPGGA,134919.40,4612.0344169,N,00607.2197543,E,4,04,11.3,368.489,M,49.480,M,0.27,0195*40
$GPVTG,144.5920,T,144.5920,M,0.237,N,0.439,K,D*2E
$GPGGA,134919.80,4612.0343840,N,00607.2197852,E,4,04,11.3,368.501,M,49.480,M,0.67,0195*41
$GPVTG,145.8104,T,145.8104,M,0.379,N,0.702,K,D*2E
$RDENS,1149,4975833,PC
$GPGGA,134920.00,4612.0343666,N,00607.2198007,E,4,04,11.3,368.503,M,49.480,M,0.87,0195*42
$GPVTG,147.9273,T,147.9273,M,0.314,N,0.582,K,D*2F
$GPGGA,134920.40,4612.0343123,N,00607.2198385,E,4,04,11.3,368.509,M,49.480,M,1.27,0195*48
$GPVTG,151.4614,T,151.4614,M,0.362,N,0.670,K,D*20
$GPGGA,134920.60,4612.0343096,N,00607.2198444,E,4,04,11.3,368.518,M,49.480,M,1.47,0195*49
$GPVTG,140.5922,T,140.5922,M,0.218,N,0.403,K,D*2A
$RDENS,1150,4975919,PC
$GPGGA,134921.00,4612.0342829,N,00607.2198689,E,4,04,11.3,368.518,M,49.480,M,1.87,0195*4C
$GPVTG,150.5020,T,150.5020,M,0.257,N,0.476,K,D*23
$GPGGA,134921.20,4612.0342703,N,00607.2198801,E,4,04,11.3,368.515,M,49.480,M,2.07,0195*41
$GPVTG,134.3235,T,134.3235,M,0.187,N,0.347,K,D*28
$GPGGA,134921.60,4612.0342456,N,00607.2199070,E,4,04,11.3,368.503,M,49.480,M,2.47,0195*4A
$RDENS,1151,4976005,PC
$GPVTG,140.3256,T,140.3256,M,0.181,N,0.335,K,D*2B
$GPGGA,134921.80,4612.0342378,N,00607.2199206,E,4,04,11.3,368.498,M,49.480,M,2.67,0195*4D
$GPVTG,124.8420,T,124.8420,M,0.210,N,0.389,K,D*27
$GPGGA,134922.20,4612.0342001,N,00607.2199578,E,4,04,11.3,368.485,M,49.480,M,3.07,0195*4C
$GPVTG,151.4513,T,151.4513,M,0.400,N,0.742,K,D*23
$GPGGA,134922.40,4612.0341947,N,00607.2199639,E,4,04,11.3,368.488,M,49.480,M,3.27,0195*4B
$RDENS,1152,4976091,PC
$GPVTG,135.5052,T,135.5052,M,0.170,N,0.316,K,D*24
$GPGGA,134922.80,4612.0341798,N,00607.2199855,E,4,04,11.3,368.493,M,49.480,M,3.67,0195*41
$GPVTG,128.8532,T,128.8532,M,0.205,N,0.379,K,D*2C
$GPGGA,134923.00,4612.0341806,N,00607.2199876,E,4,04,11.3,368.490,M,49.480,M,3.87,0195*4C
$GPVTG,130.8701,T,130.8701,M,0.167,N,0.309,K,D*2C
$GPGGA,134923.20,4612.0341756,N,00607.2199947,E,4,04,11.3,368.499,M,49.480,M,4.07,0195*41
$RDENS,1153,4976177,PC
$GPVTG,109.3503,T,109.3503,M,0.065,N,0.120,K,D*26
$GPGGA,134923.60,4612.0341639,N,00607.2200121,E,4,04,11.3,368.496,M,49.480,M,4.47,0195*4D
$GPVTG,127.9144,T,127.9144,M,0.134,N,0.249,K,D*2F
$GPGGA,134923.80,4612.0341634,N,00607.2200197,E,4,04,11.3,368.504,M,49.480,M,4.67,0195*4B
