$GPVTG,275.2843,T,275.2843,M,0.323,N,0.599,K,D*21
$GPVTG,282.4681,T,282.4681,M,0.311,N,0.576,K,D*21
$GPGGA,130142.60,4612.0426620,N,00607.3058087,E,2,08,1.1,368.028,M,49.480,M,8.03,0195*7F
$GPVTG,296.9005,T,296.9005,M,0.267,N,0.494,K,D*2C
$GPGGA,130142.80,4612.0427207,N,00607.3057975,E,2,08,1.1,368.081,M,49.480,M,8.23,0195*7B
$GPVTG,293.5536,T,293.5536,M,0.370,N,0.686,K,D*2A
$GPGGA,130143.20,4612.0428167,N,00607.3057589,E,2,08,1.1,368.119,M,49.480,M,0.01,0195*7D
$GPVTG,284.9190,T,284.9190,M,0.325,N,0.603,K,D*27
$GPGGA,130143.40,4612.0428619,N,00607.3057387,E,2,08,1.1,368.132,M,49.480,M,0.07,0195*72
$GPVTG,285.8127,T,285.8127,M,0.275,N,0.510,K,D*22
$RDENS,2875,4690214,PC
$GPGGA,130143.80,4612.0429193,N,00607.3057045,E,2,08,1.1,368.156,M,49.480,M,0.47,0195*71
$GPVTG,304.1857,T,304.1857,M,0.247,N,0.457,K,D*21
$GPGGA,130144.00,4612.0429269,N,00607.3056843,E,2,07,1.3,368.137,M,49.480,M,0.67,0195*7F
$GPVTG,332.0150,T,332.0150,M,0.322,N,0.596,K,D*2F
$GPGGA,130144.40,4612.0429846,N,00607.3056365,E,2,07,1.3,368.080,M,49.480,M,0.12,0195*7C
$GPVTG,331.5434,T,331.5434,M,0.348,N,0.645,K,D*2E
$RDENS,2876,4690303,PC
$GPGGA,130144.60,4612.0430130,N,00607.3056143,E,2,07,1.3,368.056,M,49.480,M,0.00,0195*70
$GPVTG,338.0717,T,338.0717,M,0.438,N,0.813,K,D*23
$GPGGA,130145.00,4612.0430427,N,00607.3055918,E,2,07,1.3,368.096,M,49.480,M,0.40,0195*79
$GPVTG,328.3767,T,328.3767,M,0.301,N,0.558,K,D*2C
$GPGGA,130145.20,4612.0430433,N,00607.3055648,E,2,07,1.3,368.079,M,49.480,M,0.60,0195*77
$GPVTG,294.8082,T,294.8082,M,0.299,N,0.554,K,D*20
$RDENS,2877,4690392,PC
$GPGGA,130145.60,4612.0430867,N,00607.3055480,E,2,07,1.3,368.164,M,49.480,M,0.15,0195*77
$GPVTG,326.7118,T,326.7118,M,0.373,N,0.691,K,D*2F
$GPGGA,130145.80,4612.0431025,N,00607.3055364,E,2,07,1.3,368.196,M,49.480,M,0.35,0195*74
$GPVTG,321.8714,T,321.8714,M,0.425,N,0.788,K,D*22
$GPGGA,130146.20,4612.0431392,N,00607.3055131,E,2,07,1.3,368.280,M,49.480,M,0.75,0195*70
$GPVTG,322.2235,T,322.2235,M,0.440,N,0.815,K,D*2A
$RDENS,2878,4690481,PC
$GPGGA,130146.40,4612.0431515,N,00607.3054957,E,2,07,1.3,368.302,M,49.480,M,0.95,0195*73
$GPVTG,315.9100,T,315.9100,M,0.643,N,1.191,K,D*2F
$GPGGA,130146.80,4612.0431838,N,00607.3054354,E,2,07,1.3,368.252,M,49.480,M,1.35,0195*7B
$GPVTG,298.1596,T,298.1596,M,0.441,N,0.818,K,D*26
$GPGGA,130147.00,4612.0431971,N,00607.3054228,E,2,06,1.4,368.256,M,49.480,M,0.06,0195*77
$GPVTG,330.4521,T,330.4521,M,0.434,N,0.805,K,D*28
$RDENS,2879,4690570,PC
$GPGGA,130147.40,4612.0432379,N,00607.3053969,E,2,06,1.4,368.246,M,49.480,M,0.34,0195*7B
$GPVTG,352.9190,T,352.9190,M,0.363,N,0.673,K,D*22
$GPGGA,130147.60,4612.0432839,N,00607.3053753,E,2,06,1.4,368.158,M,49.480,M,0.12,0195*79
$GPVTG,8.5710,T,8.5710,M,0.475,N,0.880,K,D*20
$GPGGA,130147.80,4612.0432993,N,00607.3053756,E,2,06,1.4,368.174,M,49.480,M,0.32,0195*7F
$GPVTG,15.6317,T,15.6317,M,0.560,N,1.038,K,D*2F
$GPGGA,130148.20,4612.0436147,N,00607.3053742,E,2,07,1.1,368.269,M,49.480,M,0.72,0195*75
$RDENS,2880,4690659,PC
$GPVTG,6.6053,T,6.6053,M,1.088,N,2.016,K,D*22
$GPGGA,130148.40,4612.0436603,N,00607.3053855,E,2,07,1.1,368.296,M,49.480,M,0.92,0195*73
$GPVTG,21.4658,T,21.4658,M,0.814,N,1.509,K,D*26
$GPGGA,130148.80,4612.0437577,N,00607.3054221,E,2,07,1.1,368.267,M,49.480,M,1.32,0195*75
$GPVTG,8.8667,T,8.8667,M,0.936,N,1.735,K,D*2A
$GPGGA,130149.00,4612.0437613,N,00607.3054570,E,2,07,1.1,368.283,M,49.480,M,0.02,0195*76
$RDENS,2881,4690748,PC
$GPVTG,16.4163,T,16.4163,M,1.040,N,1.927,K,D*2E
$GPGGA,130149.40,4612.0436096,N,00607.3055175,E,2,06,1.4,368.082,M,49.480,M,0.42,0195*7B
$GPVTG,37.9099,T,37.9099,M,0.645,N,1.195,K,D*2D
$GPGGA,130149.60,4612.0436673,N,00607.3055214,E,2,06,1.4,368.046,M,49.480,M,0.62,0195*7A
$GPVTG,23.4220,T,23.4220,M,0.700,N,1.297,K,D*2C
$GPGGA,130149.80,4612.0437097,N,00607.3055322,E,2,06,1.4,368.015,M,49.480,M,0.10,0195*7E
$RDENS,2882,4690837,PC
$GPVTG,18.8802,T,18.8802,M,0.657,N,1.218,K,D*28
$GPGGA,130150.20,4612.0437760,N,00607.3055533,E,2,06,1.4,367.987,M,49.480,M,0.30,0195*7A
$GPVTG,23.0830,T,23.0830,M,1.389,N,2.574,K,D*21
$GPGGA,130150.40,4612.0438224,N,00607.3055505,E,2,07,1.3,367.915,M,49.480,M,0.50,0195*78
$GPVTG,2.3299,T,2.3299,M,0.482,N,0.892,K,D*2B
$GPVTG,20.5814,T,20.5814,M,0.535,N,0.992,K,D*27
$RDENS,2883,4690926,PC
$GPGGA,130150.80,4612.0438815,N,00607.3056099,E,2,07,1.3,368.032,M,49.480,M,0.90,0195*70
$GPVTG,19.3873,T,19.3873,M,0.507,N,0.940,K,D*29
$GPGGA,130151.20,4612.0439392,N,00607.3056518,E,2,07,1.3,368.112,M,49.480,M,1.30,0195*7A
$GPVTG,11.4305,T,11.4305,M,0.502,N,0.929,K,D*23
$GPGGA,130151.40,4612.0439806,N,00607.3056633,E,2,07,1.3,368.129,M,49.480,M,1.50,0195*7E
$GPVTG,12.8242,T,12.8242,M,0.572,N,1.060,K,D*21
$GPGGA,130151.80,4612.0440447,N,00607.3057090,E,2,07,1.3,368.222,M,49.480,M,1.90,0195*7F
$RDENS,2884,4691015,PC
$GPVTG,7.4243,T,7.4243,M,0.479,N,0.888,K,D*24
$GPGGA,130152.00,4612.0440785,N,00607.3057321,E,2,07,1.3,368.250,M,49.480,M,0.03,0195*7E
$GPVTG,4.1332,T,4.1332,M,0.535,N,0.992,K,D*27
$GPGGA,130152.20,4612.0441148,N,00607.3057438,E,2,07,1.3,368.238,M,49.480,M,0.23,0195*79
$GPVTG,7.0282,T,7.0282,M,0.504,N,0.933,K,D*2E
$GPGGA,130152.40,4612.0441420,N,00607.3057640,E,2,07,1.3,368.285,M,49.480,M,0.43,0195*79
$RDENS,2885,4691104,PC
$GPVTG,8.6508,T,8.6508,M,0.510,N,0.944,K,D*2B
$GPGGA,130152.80,4612.0441877,N,00607.3058092,E,2,07,1.3,368.380,M,49.480,M,0.83,0195*75
$GPVTG,4.2518,T,4.2518,M,0.445,N,0.824,K,D*2D
$GPGGA,130153.00,4612.0442195,N,00607.3058223,E,2,07,1.3,368.413,M,49.480,M,0.03,0195*77
$GPVTG,355.2227,T,355.2227,M,0.423,N,0.783,K,D*2F
$GPGGA,130153.40,4612.0442709,N,00607.3058423,E,2,07,1.3,368.464,M,49.480,M,0.07,0195*72
$RDENS,2886,4691193,PC
$GPVTG,0.2678,T,0.2678,M,0.507,N,0.940,K,D*29
$GPGGA,130153.60,4612.0443057,N,00607.3058510,E,2,07,1.3,368.497,M,49.480,M,0.12,0195*74
$GPVTG,358.6407,T,358.6407,M,0.375,N,0.696,K,D*2E
$GPGGA,130154.00,4612.0443481,N,00607.3058630,E,2,07,1.3,368.525,M,49.480,M,0.28,0195*7A
$GPVTG,358.2830,T,358.2830,M,0.469,N,0.870,K,D*22
$GPVTG,355.7303,T,355.7303,M,0.272,N,0.504,K,D*20
$RDENS,2887,4691282,PC
$GPVTG,302.7212,T,302.7212,M,0.188,N,0.348,K,D*28
$GPGGA,130154.60,4612.0443900,N,00607.3058255,E,2,07,1.3,368.460,M,49.480,M,0.88,0195*75
$GPVTG,295.1438,T,295.1438,M,0.405,N,0.750,K,D*25
$GPGGA,130154.80,4612.0445273,N,00607.3058141,E,2,09,1.0,368.667,M,49.480,M,1.08,0195*75
$GPVTG,12.3144,T,12.3144,M,0.168,N,0.311,K,D*2A
$GPGGA,130155.20,4612.0445206,N,00607.3057994,E,2,08,1.1,368.528,M,49.480,M,1.48,0195*7F
$GPVTG,341.2970,T,341.2970,M,0.228,N,0.422,K,D*2A
$RDENS,2888,4691371,PC
$GPGGA,130155.40,4612.0445492,N,00607.3057884,E,2,08,1.1,368.542,M,49.480,M,1.68,0195*7C
$GPVTG,333.4057,T,333.4057,M,0.366,N,0.678,K,D*2C
$GPGGA,130155.80,4612.0445781,N,00607.3057845,E,2,08,1.1,368.600,M,49.480,M,2.08,0195*7C
$GPVTG,337.6750,T,337.6750,M,0.242,N,0.448,K,D*2A
$GPGGA,130156.00,4612.0446048,N,00607.3057629,E,2,08,1.1,368.585,M,49.480,M,2.28,0195*7E
$GPVTG,332.1306,T,332.1306,M,0.331,N,0.613,K,D*23
$RDENS,2889,4691460,PC
$GPGGA,130156.40,4612.0446640,N,00607.3057358,E,2,08,1.1,368.604,M,49.480,M,2.68,0195*79
$GPVTG,336.8278,T,336.8278,M,0.243,N,0.451,K,D*23
$GPGGA,130156.60,4612.0446889,N,00607.3057289,E,2,08,1.1,368.628,M,49.480,M,2.88,0195*7D
$GPVTG,341.8785,T,341.8785,M,0.310,N,0.575,K,D*23
$GPGGA,130157.00,4612.0447417,N,00607.3057258,E,2,08,1.1,368.654,M,49.480,M,3.28,0195*7C
$GPVTG,339.8034,T,339.8034,M,0.310,N,0.575,K,D*23
$RDENS,2890,4691549,PC
$GPGGA,130157.20,4612.0447659,N,00607.3057219,E,2,08,1.1,368.674,M,49.480,M,3.48,0195*77
$GPVTG,350.8954,T,350.8954,M,0.298,N,0.553,K,D*26
$GPGGA,130157.60,4612.0447019,N,00607.3057264,E,2,07,1.3,368.639,M,49.480,M,3.88,0195*73
$GPVTG,345.4127,T,345.4127,M,0.359,N,0.665,K,D*2C
$GPGGA,130157.80,4612.0447217,N,00607.3057362,E,2,07,1.3,368.661,M,49.480,M,4.08,0195*74
$GPVTG,356.6418,T,356.6418,M,0.336,N,0.623,K,D*27
$RDENS,2891,4691638,PC
$GPGGA,130158.20,4612.0447758,N,00607.3057347,E,2,07,1.3,368.638,M,49.480,M,4.48,0195*70
$GPVTG,0.6014,T,0.6014,M,0.373,N,0.691,K,D*2F
$GPGGA,130158.40,4612.0447902,N,00607.3057401,E,2,07,1.3,368.625,M,49.480,M,4.68,0195*7C
$GPVTG,25.6987,T,25.6987,M,0.339,N,0.629,K,D*22
$GPGGA,130158.60,4612.0448078,N,00607.3057510,E,2,07,1.3,368.597,M,49.480,M,4.88,0195*70
$GPVTG,11.5163,T,11.5163,M,0.594,N,1.101,K,D*2F
$RDENS,2892,4691727,PC
$GPGGA,130159.00,4612.0448597,N,00607.3057482,E,2,07,1.3,368.492,M,49.480,M,5.28,0195*76
$GPVTG,14.2038,T,14.2038,M,0.493,N,0.913,K,D*23
$GPGGA,130159.20,4612.0448941,N,00607.3057556,E,2,07,1.3,368.463,M,49.480,M,5.48,0195*73
$GPVTG,31.8263,T,31.8263,M,0.825,N,1.528,K,D*27
$GPGGA,130159.60,4612.0449551,N,00607.3057930,E,2,07,1.3,368.453,M,49.480,M,5.88,0195*78
$GPVTG,28.3630,T,28.3630,M,0.801,N,1.485,K,D*27
$RDENS,2893,4691816,PC
$GPGGA,130159.80,4612.0449894,N,00607.3058040,E,2,07,1.3,368.434,M,49.480,M,0.05,0195*72
$GPVTG,25.5393,T,25.5393,M,0.750,N,1.389,K,D*27
$GPGGA,130200.20,4612.0450678,N,00607.3058451,E,2,07,1.3,368.461,M,49.480,M,0.04,0195*76
$GPVTG,12.6763,T,12.6763,M,0.815,N,1.511,K,D*2E
$GPGGA,130200.40,4612.0451053,N,00607.3058605,E,2,08,1.0,368.450,M,49.480,M,0.24,0195*71
$GPVTG,14.4593,T,14.4593,M,0.721,N,1.337,K,D*24
$RDENS,2894,4691905,PC
$GPGGA,130200.80,4612.0451673,N,00607.3059113,E,2,07,1.3,368.512,M,49.480,M,0.20,0195*77
$GPVTG,16.8369,T,16.8369,M,0.658,N,1.220,K,D*2C
$GPVTG,14.3280,T,14.3280,M,0.743,N,1.377,K,D*24
$GPVTG,33.6014,T,33.6014,M,0.574,N,1.064,K,D*23
$GPVTG,38.4725,T,38.4725,M,0.767,N,1.421,K,D*26
$GPVTG,12.5146,T,12.5146,M,0.597,N,1.106,K,D*2B
$RDENS,2895,4691994,PC
$GPVTG,12.3684,T,12.3684,M,0.706,N,1.308,K,D*2D
$GPVTG,19.1225,T,19.1225,M,0.611,N,1.132,K,D*21
$GPVTG,35.5857,T,35.5857,M,0.623,N,1.154,K,D*20
$GPVTG,12.8948,T,12.8948,M,0.580,N,1.074,K,D*29
$GPVTG,13.5507,T,13.5507,M,0.495,N,0.917,K,D*21
$RDENS,2896,4692083,PC
$GPVTG,348.7234,T,348.7234,M,0.841,N,1.559,K,D*23
$GPVTG,16.8065,T,16.8065,M,0.644,N,1.193,K,D*2A
$GPVTG,15.9724,T,15.9724,M,0.656,N,1.217,K,D*26
$GPVTG,30.6000,T,30.6000,M,0.571,N,1.058,K,D*29
$RDENS,2897,4692172,PC
$GPVTG,9.4256,T,9.4256,M,0.697,N,1.291,K,D*25
$GPVTG,27.9944,T,27.9944,M,0.546,N,1.011,K,D*20
$GPVTG,357.2128,T,357.2128,M,0.791,N,1.466,K,D*2C
$GPVTG,356.0367,T,356.0367,M,0.581,N,1.077,K,D*2B
$RDENS,2898,4692261,PC
$GPVTG,349.6836,T,349.6836,M,0.804,N,1.490,K,D*26
$GPGGA,130204.40,4612.0458933,N,00607.3058772,E,2,07,1.3,368.285,M,49.480,M,1.95,0195*7B
$GPVTG,346.8955,T,346.8955,M,0.703,N,1.303,K,D*23
$GPGGA,130204.60,4612.0459248,N,00607.3058624,E,2,07,1.3,368.290,M,49.480,M,2.15,0195*72
$GPVTG,345.0939,T,345.0939,M,0.743,N,1.377,K,D*24
$GPGGA,130205.00,4612.0459991,N,00607.3058213,E,2,07,1.3,368.245,M,49.480,M,0.10,0195*75
$RDENS,2899,4692350,PC
$GPVTG,353.0401,T,353.0401,M,0.733,N,1.358,K,D*2E
$GPGGA,130205.20,4612.0460316,N,00607.3058078,E,2,07,1.3,368.264,M,49.480,M,0.30,0195*76
$GPVTG,354.3865,T,354.3865,M,0.707,N,1.309,K,D*2D
$GPGGA,130205.60,4612.0461073,N,00607.3057884,E,2,07,1.3,368.297,M,49.480,M,0.15,0195*7C
$GPVTG,344.7740,T,344.7740,M,0.792,N,1.468,K,D*21
$GPGGA,130205.80,4612.0461397,N,00607.3057825,E,2,07,1.3,368.331,M,49.480,M,0.08,0195*71
$GPVTG,353.9490,T,353.9490,M,0.650,N,1.205,K,D*23
$RDENS,2900,4692439,PC
$GPGGA,130206.20,4612.0465639,N,00607.3057765,E,2,08,1.1,368.696,M,49.480,M,0.48,0195*77
$GPVTG,333.4217,T,333.4217,M,0.914,N,1.694,K,D*20
$GPGGA,130206.40,4612.0465936,N,00607.3057644,E,2,08,1.1,368.703,M,49.480,M,0.68,0195*7C
$GPVTG,336.8446,T,336.8446,M,0.750,N,1.391,K,D*2E
$GPGGA,130206.80,4612.0466133,N,00607.3057069,E,2,08,1.1,368.607,M,49.480,M,0.22,0195*7C
$GPVTG,339.8214,T,339.8214,M,0.764,N,1.417,K,D*20
$RDENS,2901,4692528,PC
$GPGGA,130207.00,4612.0466025,N,00607.3056846,E,2,08,1.1,368.565,M,49.480,M,0.42,0195*76
$GPVTG,346.8830,T,346.8830,M,0.901,N,1.669,K,D*26
$GPGGA,130207.40,4612.0466332,N,00607.3056589,E,2,08,1.1,368.509,M,49.480,M,0.82,0195*7F
$GPVTG,357.3694,T,357.3694,M,0.752,N,1.393,K,D*2E
$GPGGA,130207.60,4612.0466719,N,00607.3056418,E,2,08,1.1,368.497,M,49.480,M,0.11,0195*75
$GPVTG,352.5160,T,352.5160,M,1.022,N,1.894,K,D*23
$RDENS,2902,4692624,PC
$GPGGA,130208.00,4612.0467727,N,00607.3056198,E,2,08,1.1,368.478,M,49.480,M,0.51,0195*78
$GPVTG,356.8634,T,356.8634,M,1.001,N,1.855,K,D*2F
$GPGGA,130208.20,4612.0468247,N,00607.3056161,E,2,08,1.1,368.459,M,49.480,M,0.71,0195*71
$GPVTG,359.3868,T,359.3868,M,0.964,N,1.787,K,D*24
$GPGGA,130208.60,4612.0469235,N,00607.3056064,E,2,08,1.1,368.462,M,49.480,M,1.11,0195*7A
$GPVTG,355.9940,T,355.9940,M,0.886,N,1.642,K,D*21
$GPGGA,130208.80,4612.0469770,N,00607.3056071,E,2,08,1.1,368.447,M,49.480,M,0.10,0195*73
$RDENS,2903,4692722,PC
$GPVTG,355.1972,T,355.1972,M,0.840,N,1.556,K,D*2D
$GPGGA,130209.00,4612.0469827,N,00607.3055993,E,2,08,1.1,368.446,M,49.480,M,0.10,0195*70
$GPVTG,350.1227,T,350.1227,M,1.031,N,1.910,K,D*2C
$GPGGA,130209.40,4612.0470898,N,00607.3056026,E,2,08,1.1,368.499,M,49.480,M,0.50,0195*7A
$GPVTG,357.0994,T,357.0994,M,0.770,N,1.427,K,D*26
$GPGGA,130209.60,4612.0471301,N,00607.3055944,E,2,08,1.1,368.512,M,49.480,M,0.13,0195*79
$RDENS,2904,4692819,PC
$GPVTG,348.4016,T,348.4016,M,1.000,N,1.854,K,D*2F
$GPGGA,130210.00,4612.0472177,N,00607.3055916,E,2,08,1.1,368.532,M,49.480,M,0.27,0195*75
$GPVTG,351.9887,T,351.9887,M,0.906,N,1.679,K,D*20
$GPGGA,130210.20,4612.0472667,N,00607.3055864,E,2,08,1.1,368.541,M,49.480,M,0.47,0195*77
$GPVTG,356.2874,T,356.2874,M,0.976,N,1.809,K,D*2E
$GPGGA,130210.60,4612.0473785,N,00607.3055724,E,2,08,1.1,368.524,M,49.480,M,0.87,0195*7B
$GPVTG,0.0228,T,0.0228,M,1.044,N,1.935,K,D*29
$RDENS,2905,4692915,PC
$GPGGA,130210.80,4612.0474238,N,00607.3055830,E,2,08,1.1,368.538,M,49.480,M,0.11,0195*79
$GPVTG,0.9729,T,0.9729,M,1.068,N,1.979,K,D*2F
$GPGGA,130211.00,4612.0474902,N,00607.3055743,E,2,08,1.1,368.515,M,49.480,M,0.31,0195*74
$GPVTG,359.0209,T,359.0209,M,1.007,N,1.866,K,D*29
$GPGGA,130211.40,4612.0476023,N,00607.3055786,E,2,08,1.1,368.522,M,49.480,M,0.71,0195*71
$GPVTG,9.3083,T,9.3083,M,1.097,N,2.033,K,D*2B
$GPGGA,130211.60,4612.0476765,N,00607.3055829,E,2,08,1.1,368.523,M,49.480,M,0.91,0195*73
$RDENS,2906,4693012,PC
$GPVTG,1.5349,T,1.5349,M,1.102,N,2.043,K,D*21
$GPGGA,130211.80,4612.0477429,N,00607.3055826,E,2,08,1.1,368.513,M,49.480,M,1.11,0195*72
$GPVTG,359.9703,T,359.9703,M,1.143,N,2.118,K,D*2B
$GPGGA,130212.20,4612.0478614,N,00607.3055787,E,2,08,1.1,368.509,M,49.480,M,0.03,0195*75
$GPVTG,359.5579,T,359.5579,M,0.994,N,1.843,K,D*2C
$GPGGA,130212.60,4612.0480760,N,00607.3055834,E,2,09,1.0,368.755,M,49.480,M,0.43,0195*7C
$RDENS,2907,4693110,PC
$GPVTG,359.7190,T,359.7190,M,1.108,N,2.054,K,D*2D
$GPGGA,130212.80,4612.0480958,N,00607.3055883,E,2,09,1.0,368.699,M,49.480,M,0.09,0195*74
$GPVTG,355.9055,T,355.9055,M,1.209,N,2.241,K,D*29
$GPGGA,130213.20,4612.0481345,N,00607.3055788,E,2,08,1.1,368.537,M,49.480,M,0.49,0195*7F
$GPVTG,355.6002,T,355.6002,M,0.856,N,1.586,K,D*27
$GPGGA,130213.40,4612.0481999,N,00607.3055703,E,2,08,1.1,368.546,M,49.480,M,0.05,0195*7F
$GPVTG,354.5489,T,354.5489,M,0.929,N,1.722,K,D*22
$RDENS,2908,4693207,PC
$GPGGA,130213.80,4612.0482995,N,00607.3055640,E,2,08,1.1,368.548,M,49.480,M,0.35,0195*77
$GPVTG,352.5406,T,352.5406,M,0.798,N,1.480,K,D*2D
$GPGGA,130214.00,4612.0483098,N,00607.3055528,E,2,07,1.3,368.485,M,49.480,M,0.55,0195*7B
$GPVTG,353.0871,T,353.0871,M,0.968,N,1.794,K,D*2A
$GPGGA,130214.40,4612.0484215,N,00607.3055319,E,2,07,1.3,368.491,M,49.480,M,0.95,0195*72
$GPVTG,349.3096,T,349.3096,M,0.925,N,1.715,K,D*2A
$RDENS,2909,4693304,PC
$GPGGA,130214.60,4612.0484845,N,00607.3055135,E,2,07,1.3,368.491,M,49.480,M,0.09,0195*76
$GPVTG,342.1038,T,342.1038,M,1.038,N,1.923,K,D*25
$GPGGA,130215.00,4612.0485971,N,00607.3054674,E,2,07,1.3,368.454,M,49.480,M,0.49,0195*78
$GPVTG,351.8616,T,351.8616,M,0.898,N,1.664,K,D*2A
$GPGGA,130215.20,4612.0486521,N,00607.3054447,E,2,07,1.3,368.456,M,49.480,M,0.69,0195*72
$GPVTG,352.3650,T,352.3650,M,1.002,N,1.856,K,D*2F
$GPGGA,130215.60,4612.0487546,N,00607.3054001,E,2,07,1.3,368.427,M,49.480,M,1.09,0195*71
$RDENS,2910,4693401,PC
$GPVTG,344.3453,T,344.3453,M,1.068,N,1.979,K,D*2F
$GPGGA,130215.80,4612.0488079,N,00607.3053654,E,2,07,1.3,368.391,M,49.480,M,0.01,0195*7B
$GPVTG,339.5755,T,339.5755,M,1.042,N,1.930,K,D*2A
$GPGGA,130216.20,4612.0489085,N,00607.3053016,E,2,07,1.3,368.342,M,49.480,M,0.41,0195*7A
$GPVTG,344.2718,T,344.2718,M,1.032,N,1.913,K,D*2C
$GPGGA,130216.40,4612.0489580,N,00607.3052739,E,2,07,1.3,368.333,M,49.480,M,0.61,0195*73
$GPVTG,340.1100,T,340.1100,M,1.025,N,1.899,K,D*29
$RDENS,2911,4693498,PC
$GPGGA,130216.60,4612.0490133,N,00607.3052400,E,2,07,1.3,368.308,M,49.480,M,0.81,0195*7A
$GPVTG,341.0898,T,341.0898,M,0.988,N,1.831,K,D*24
$GPGGA,130217.00,4612.0491252,N,00607.3051860,E,2,07,1.3,368.320,M,49.480,M,1.21,0195*70
$GPVTG,339.6320,T,339.6320,M,1.007,N,1.866,K,D*29
$GPGGA,130217.20,4612.0491823,N,00607.3051570,E,2,07,1.3,368.306,M,49.480,M,1.41,0195*70
$GPVTG,334.2104,T,334.2104,M,0.984,N,1.823,K,D*2B
$RDENS,2912,4693595,PC
$GPGGA,130217.60,4612.0492885,N,00607.3051087,E,2,07,1.3,368.335,M,49.480,M,0.09,0195*7B
$GPVTG,341.7168,T,341.7168,M,0.950,N,1.760,K,D*2A
$GPGGA,130217.80,4612.0493307,N,00607.3050817,E,2,07,1.3,368.379,M,49.480,M,0.01,0195*75
$GPVTG,340.8140,T,340.8140,M,1.018,N,1.887,K,D*28
$GPGGA,130218.20,4612.0495504,N,00607.3050280,E,2,08,1.1,368.494,M,49.480,M,0.41,0195*7A
$GPVTG,333.3543,T,333.3543,M,1.036,N,1.919,K,D*22
$GPGGA,130218.40,4612.0495993,N,00607.3049976,E,2,08,1.1,368.494,M,49.480,M,0.61,0195*76
$RDENS,2913,4693692,PC
$GPVTG,334.3070,T,334.3070,M,1.123,N,2.080,K,D*2D
$GPGGA,130218.80,4612.0496962,N,00607.3049452,E,2,08,1.1,368.548,M,49.480,M,0.04,0195*7F
$GPVTG,333.0764,T,333.0764,M,0.989,N,1.832,K,D*26
$GPGGA,130219.00,4612.0497476,N,00607.3049038,E,2,08,1.1,368.539,M,49.480,M,0.16,0195*72
$GPVTG,336.0882,T,336.0882,M,0.888,N,1.646,K,D*2B
$GPGGA,130219.40,4612.0498348,N,00607.3048463,E,2,08,1.1,368.578,M,49.480,M,0.05,0195*7F
$GPVTG,330.9730,T,330.9730,M,0.968,N,1.795,K,D*2B
$RDENS,2914,4693789,PC
$GPGGA,130219.60,4612.0498863,N,00607.3048041,E,2,08,1.1,368.583,M,49.480,M,0.15,0195*7E
$GPVTG,337.1852,T,337.1852,M,1.077,N,1.996,K,D*20
$GPGGA,130220.00,4612.0499935,N,00607.3047366,E,2,08,1.1,368.580,M,49.480,M,0.55,0195*7F
$GPVTG,340.1637,T,340.1637,M,1.074,N,1.990,K,D*25
$GPGGA,130220.20,4612.0500524,N,00607.3047087,E,2,08,1.1,368.582,M,49.480,M,0.75,0195*7C
$GPVTG,338.1549,T,338.1549,M,1.215,N,2.251,K,D*25
$RDENS,2915,4693886,PC
$GPGGA,130220.60,4612.0501759,N,00607.3046499,E,2,08,1.1,368.576,M,49.480,M,1.15,0195*77
$GPVTG,341.7127,T,341.7127,M,1.380,N,2.558,K,D*26
$GPGGA,130220.80,4612.0502444,N,00607.3046267,E,2,08,1.1,368.557,M,49.480,M,1.35,0195*73
$GPVTG,345.3397,T,345.3397,M,1.260,N,2.335,K,D*24
$GPGGA,130221.20,4612.0503697,N,00607.3045785,E,2,08,1.1,368.562,M,49.480,M,1.75,0195*7D
$GPVTG,345.0882,T,345.0882,M,1.412,N,2.617,K,D*22
$GPGGA,130221.40,4612.0504492,N,00607.3045412,E,2,08,1.1,368.505,M,49.480,M,0.01,0195*75
$RDENS,2916,4693983,PC
$GPVTG,349.1847,T,349.1847,M,1.440,N,2.670,K,D*24
$GPGGA,130221.60,4612.0505211,N,00607.3045191,E,2,08,1.1,368.487,M,49.480,M,0.09,0195*76
$GPVTG,348.0958,T,348.0958,M,1.502,N,2.784,K,D*29
$GPGGA,130222.00,4612.0506778,N,00607.3044728,E,2,08,1.1,368.467,M,49.480,M,0.31,0195*7A
$GPVTG,352.6516,T,352.6516,M,1.485,N,2.752,K,D*2C
$GPGGA,130222.20,4612.0507620,N,00607.3044546,E,2,08,1.1,368.454,M,49.480,M,0.51,0195*79
$RDENS,2917,4694080,PC
$GPVTG,356.8335,T,356.8335,M,1.404,N,2.603,K,D*20
$GPGGA,130222.60,4612.0509245,N,00607.3044342,E,2,08,1.1,368.458,M,49.480,M,0.91,0195*76
$GPVTG,352.3428,T,352.3428,M,1.562,N,2.894,K,D*21
$GPGGA,130222.80,4612.0510107,N,00607.3044251,E,2,08,1.1,368.430,M,49.480,M,1.11,0195*71
$GPVTG,357.1941,T,357.1941,M,1.478,N,2.738,K,D*22
$GPGGA,130223.20,4612.0511847,N,00607.3044129,E,2,08,1.1,368.439,M,49.480,M,0.00,0195*72
$GPVTG,358.1901,T,358.1901,M,1.534,N,2.844,K,D*2F
$RDENS,2918,4694169,PC
$GPGGA,130223.40,4612.0512691,N,00607.3044173,E,2,08,1.1,368.454,M,49.480,M,0.20,0195*74
$GPVTG,358.0640,T,358.0640,M,1.505,N,2.789,K,D*23
$GPGGA,130223.80,4612.0514333,N,00607.3044144,E,2,08,1.1,368.454,M,49.480,M,0.60,0195*73
$GPVTG,359.9547,T,359.9547,M,1.585,N,2.938,K,D*2F
$GPGGA,130224.00,4612.0515147,N,00607.3044224,E,2,08,1.1,368.476,M,49.480,M,0.13,0195*7D
$GPVTG,357.4193,T,357.4193,M,1.601,N,2.967,K,D*2A
$RDENS,2919,4694259,PC
$GPGGA,130224.40,4612.0517049,N,00607.3044184,E,2,09,1.0,368.534,M,49.480,M,0.53,0195*7E
$GPVTG,359.6114,T,359.6114,M,1.446,N,2.680,K,D*2D
$GPGGA,130224.60,4612.0517762,N,00607.3044238,E,2,09,1.0,368.513,M,49.480,M,0.12,0195*76
$GPVTG,0.2673,T,0.2673,M,1.406,N,2.605,K,D*24
$GPGGA,130224.80,4612.0518519,N,00607.3044240,E,2,09,1.0,368.505,M,49.480,M,0.32,0195*73
$GPVTG,357.0240,T,357.0240,M,1.478,N,2.738,K,D*22
$RDENS,2920,4694348,PC
$GPGGA,130225.20,4612.0519894,N,00607.3044162,E,2,08,1.1,368.466,M,49.480,M,0.72,0195*72
$GPVTG,356.6853,T,356.6853,M,1.348,N,2.499,K,D*2E
$GPGGA,130225.60,4612.0521411,N,00607.3043960,E,2,08,1.1,368.463,M,49.480,M,0.11,0195*71
$GPVTG,357.0210,T,357.0210,M,1.378,N,2.554,K,D*2D
$GPGGA,130225.80,4612.0522117,N,00607.3044017,E,2,08,1.1,368.475,M,49.480,M,0.31,0195*74
$GPVTG,359.8118,T,359.8118,M,1.404,N,2.602,K,D*21
$RDENS,2921,4694438,PC
$GPGGA,130226.00,4612.0522922,N,00607.3043864,E,2,08,1.1,368.451,M,49.480,M,0.51,0195*7A
$GPVTG,356.9529,T,356.9529,M,1.429,N,2.648,K,D*20
$GPVTG,0.9768,T,0.9768,M,1.428,N,2.647,K,D*2E
$GPGGA,130226.60,4612.0525150,N,00607.3043973,E,2,08,1.1,368.481,M,49.480,M,1.11,0195*79
$GPVTG,0.4819,T,0.4819,M,1.432,N,2.653,K,D*20
$RDENS,2922,4694527,PC
$GPGGA,130226.80,4612.0525964,N,00607.3043895,E,2,08,1.1,368.454,M,49.480,M,1.31,0195*7B
$GPVTG,2.1853,T,2.1853,M,1.408,N,2.610,K,D*2E
$GPGGA,130227.00,4612.0526705,N,00607.3043991,E,2,08,1.1,368.465,M,49.480,M,1.51,0195*79
$GPVTG,1.3529,T,1.3529,M,1.416,N,2.625,K,D*27
$GPGGA,130227.40,4612.0528315,N,00607.3044045,E,2,08,1.1,368.465,M,49.480,M,1.91,0195*7D
$GPVTG,1.7773,T,1.7773,M,1.546,N,2.864,K,D*28
$GPGGA,130227.60,4612.0529143,N,00607.3044157,E,2,08,1.1,368.478,M,49.480,M,2.11,0195*7A
$RDENS,2923,4694617,PC
$GPVTG,359.3779,T,359.3779,M,1.579,N,2.926,K,D*23
$GPGGA,130228.00,4612.0530816,N,00607.3044340,E,2,08,1.1,368.475,M,49.480,M,0.11,0195*79
$GPVTG,0.7296,T,0.7296,M,1.442,N,2.672,K,D*24
$GPGGA,130228.20,4612.0531670,N,00607.3044327,E,2,08,1.1,368.466,M,49.480,M,0.31,0195*75
$GPVTG,0.2260,T,0.2260,M,1.452,N,2.692,K,D*2B
$GPGGA,130228.40,4612.0532493,N,00607.3044374,E,2,08,1.1,368.471,M,49.480,M,0.51,0195*79
$RDENS,2924,4694706,PC
$GPVTG,358.6452,T,358.6452,M,1.415,N,2.622,K,D*23
$GPGGA,130228.80,4612.0534164,N,00607.3044320,E,2,08,1.1,368.452,M,49.480,M,0.10,0195*7B
$GPVTG,359.2109,T,359.2109,M,1.417,N,2.626,K,D*25
$GPGGA,130229.20,4612.0535781,N,00607.3044342,E,2,08,1.1,368.448,M,49.480,M,0.30,0195*71
$GPVTG,359.2876,T,359.2876,M,1.351,N,2.504,K,D*23
$GPGGA,130229.40,4612.0536602,N,00607.3044203,E,2,08,1.1,368.430,M,49.480,M,0.50,0195*73
$RDENS,2925,4694796,PC
$GPVTG,356.7589,T,356.7589,M,1.332,N,2.468,K,D*2D
$GPGGA,130229.80,4612.0538088,N,00607.3044090,E,2,08,1.1,368.422,M,49.480,M,0.90,0195*72
$GPVTG,355.3639,T,355.3639,M,1.322,N,2.450,K,D*27
$GPGGA,130230.00,4612.0538801,N,00607.3044022,E,2,08,1.1,368.439,M,49.480,M,1.10,0195*71
$GPVTG,355.8153,T,355.8153,M,1.282,N,2.377,K,D*2E
$GPGGA,130230.40,4612.0540075,N,00607.3043660,E,2,09,1.0,368.328,M,49.480,M,1.50,0195*75
$RDENS,2926,4694886,PC
$GPVTG,350.7117,T,350.7117,M,1.395,N,2.585,K,D*22
$GPGGA,130230.60,4612.0540839,N,00607.3043558,E,2,09,1.0,368.342,M,49.480,M,0.12,0195*74
$GPVTG,352.5965,T,352.5965,M,1.175,N,2.177,K,D*27
$GPGGA,130231.00,4612.0542181,N,00607.3043098,E,2,09,1.0,368.323,M,49.480,M,0.28,0195*7C
$GPVTG,350.6369,T,350.6369,M,1.234,N,2.286,K,D*2C
$GPGGA,130231.20,4612.0542781,N,00607.3042741,E,2,09,1.0,368.269,M,49.480,M,0.09,0195*76
$GPVTG,349.7790,T,349.7790,M,1.265,N,2.344,K,D*27
$RDENS,2927,4694975,PC
$GPGGA,130231.60,4612.0544126,N,00607.3042230,E,2,09,1.0,368.233,M,49.480,M,0.49,0195*77
$GPVTG,349.6322,T,349.6322,M,1.242,N,2.302,K,D*20
$GPGGA,130231.80,4612.0544704,N,00607.3042019,E,2,09,1.0,368.265,M,49.480,M,0.69,0195*77
$GPVTG,346.1609,T,346.1609,M,1.232,N,2.284,K,D*28
$GPGGA,130232.20,4612.0546021,N,00607.3041477,E,2,09,1.0,368.257,M,49.480,M,1.09,0195*75
$GPVTG,346.7058,T,346.7058,M,1.321,N,2.448,K,D*2D
$RDENS,2928,4695064,PC
$GPGGA,130232.40,4612.0546634,N,00607.3041139,E,2,09,1.0,368.229,M,49.480,M,1.29,0195*75
$GPVTG,342.0331,T,342.0331,M,1.126,N,2.087,K,D*2F
$GPGGA,130232.60,4612.0547219,N,00607.3040903,E,2,09,1.0,368.259,M,49.480,M,1.49,0195*7C
$GPVTG,342.9941,T,342.9941,M,1.193,N,2.211,K,D*2C
$GPGGA,130233.00,4612.0548532,N,00607.3040296,E,2,09,1.0,368.304,M,49.480,M,1.89,0195*78
$GPVTG,338.1616,T,338.1616,M,1.204,N,2.231,K,D*23
$RDENS,2929,4695154,PC
$GPGGA,130233.20,4612.0549159,N,00607.3039959,E,2,09,1.0,368.286,M,49.480,M,2.09,0195*74
$GPVTG,338.5800,T,338.5800,M,1.185,N,2.197,K,D*26
$GPGGA,130233.60,4612.0550066,N,00607.3039413,E,2,09,1.0,368.322,M,49.480,M,2.49,0195*7D
$GPVTG,336.7726,T,336.7726,M,1.108,N,2.053,K,D*2A
$GPGGA,130233.80,4612.0550923,N,00607.3039009,E,2,09,1.0,368.355,M,49.480,M,2.69,0195*76
$GPVTG,335.9625,T,335.9625,M,1.131,N,2.097,K,D*28
$RDENS,2930,4695243,PC
$GPGGA,130234.20,4612.0551870,N,00607.3038422,E,2,08,1.1,368.417,M,49.480,M,3.09,0195*77
$GPVTG,335.6658,T,335.6658,M,1.178,N,2.182,K,D*20
$GPGGA,130234.40,4612.0552445,N,00607.3038010,E,2,08,1.1,368.406,M,49.480,M,3.29,0195*7F
$GPVTG,335.4052,T,335.4052,M,1.129,N,2.092,K,D*24
$GPGGA,130234.80,4612.0553428,N,00607.3037296,E,2,08,1.1,368.429,M,49.480,M,3.69,0195*73
$GPVTG,332.8323,T,332.8323,M,1.193,N,2.211,K,D*2C
$RDENS,2931,4695332,PC
$GPGGA,130235.00,4612.0554010,N,00607.3036900,E,2,08,1.1,368.443,M,49.480,M,3.89,0195*75
$GPVTG,332.7770,T,332.7770,M,1.281,N,2.373,K,D*29
$GPGGA,130235.40,4612.0555073,N,00607.3036141,E,2,08,1.1,368.473,M,49.480,M,4.29,0195*76
$GPVTG,330.5844,T,330.5844,M,1.219,N,2.259,K,D*21
$GPGGA,130235.60,4612.0555629,N,00607.3035747,E,2,08,1.1,368.493,M,49.480,M,4.49,0195*76
$GPVTG,329.5321,T,329.5321,M,1.192,N,2.208,K,D*25
$RDENS,2932,4695422,PC
$GPGGA,130236.00,4612.0556743,N,00607.3034832,E,2,08,1.1,368.515,M,49.480,M,4.89,0195*72
$GPVTG,327.2841,T,327.2841,M,1.190,N,2.205,K,D*2A
$GPGGA,130236.20,4612.0557249,N,00607.3034342,E,2,09,1.0,368.513,M,49.480,M,0.10,0195*70
$GPVTG,326.4718,T,326.4718,M,1.209,N,2.241,K,D*29
$GPGGA,130236.60,4612.0558406,N,00607.3033392,E,2,09,1.0,368.533,M,49.480,M,0.50,0195*7A
$GPVTG,328.2703,T,328.2703,M,1.168,N,2.164,K,D*29
$RDENS,2933,4695512,PC
$GPGGA,130236.80,4612.0559012,N,00607.3032849,E,2,09,1.0,368.536,M,49.480,M,0.02,0195*7A
$GPVTG,326.6730,T,326.6730,M,1.212,N,2.247,K,D*25
$GPGGA,130237.20,4612.0560217,N,00607.3031725,E,2,09,1.0,368.525,M,49.480,M,0.42,0195*7C
$GPVTG,323.3997,T,323.3997,M,1.274,N,2.360,K,D*21
$GPGGA,130237.40,4612.0560752,N,00607.3031198,E,2,09,1.0,368.542,M,49.480,M,0.62,0195*7D
$GPVTG,326.1859,T,326.1859,M,1.203,N,2.230,K,D*25
$RDENS,2934,4695602,PC
$GPGGA,130237.60,4612.0561337,N,00607.3030635,E,2,09,1.0,368.524,M,49.480,M,0.82,0195*76
$GPVTG,324.7423,T,324.7423,M,1.260,N,2.334,K,D*25
$GPGGA,130238.00,4612.0562586,N,00607.3029375,E,2,09,1.0,368.489,M,49.480,M,0.14,0195*70
$GPVTG,326.9529,T,326.9529,M,1.251,N,2.318,K,D*29
$GPGGA,130238.20,4612.0563212,N,00607.3028767,E,2,09,1.0,368.478,M,49.480,M,0.34,0195*73
$GPVTG,327.9788,T,327.9788,M,1.430,N,2.651,K,D*20
$RDENS,2935,4695691,PC
$GPGGA,130238.60,4612.0564649,N,00607.3027615,E,2,09,1.0,368.471,M,49.480,M,0.74,0195*7C
$GPVTG,333.3923,T,333.3923,M,1.420,N,2.631,K,D*27
$GPGGA,130238.80,4612.0565372,N,00607.3026992,E,2,09,1.0,368.444,M,49.480,M,0.13,0195*78
$GPVTG,332.6250,T,332.6250,M,1.367,N,2.533,K,D*22
$GPGGA,130239.20,4612.0566784,N,00607.3025836,E,2,09,1.0,368.435,M,49.480,M,0.27,0195*70
$GPVTG,328.1743,T,328.1743,M,1.544,N,2.862,K,D*2C
$RDENS,2936,4695781,PC
$GPGGA,130239.40,4612.0567464,N,00607.3025246,E,2,09,1.0,368.447,M,49.480,M,0.06,0195*71
$GPVTG,329.5986,T,329.5986,M,1.372,N,2.543,K,D*21
$GPGGA,130239.80,4612.0568768,N,00607.3024063,E,2,09,1.0,368.415,M,49.480,M,0.34,0195*7F
$GPVTG,327.6684,T,327.6684,M,1.421,N,2.634,K,D*23
$GPGGA,130240.00,4612.0569395,N,00607.3023473,E,2,09,1.0,368.437,M,49.480,M,0.54,0195*7A
$GPVTG,327.9906,T,327.9906,M,1.389,N,2.575,K,D*20
$RDENS,2937,4695871,PC
$GPGGA,130240.40,4612.0570628,N,00607.3022395,E,2,09,1.0,368.473,M,49.480,M,0.94,0195*77
$GPVTG,326.9582,T,326.9582,M,1.379,N,2.556,K,D*2E
$GPGGA,130240.60,4612.0571257,N,00607.3021786,E,2,09,1.0,368.479,M,49.480,M,0.13,0195*78
$GPVTG,328.7927,T,328.7927,M,1.368,N,2.535,K,D*2B
$GPGGA,130241.00,4612.0572539,N,00607.3020685,E,2,09,1.0,368.480,M,49.480,M,0.27,0195*71
$GPVTG,328.0085,T,328.0085,M,1.427,N,2.645,K,D*23
$RDENS,2938,4695962,PC
$GPGGA,130241.20,4612.0573151,N,00607.3020172,E,2,09,1.0,368.522,M,49.480,M,0.47,0195*78
$GPVTG,332.1703,T,332.1703,M,1.400,N,2.594,K,D*29
$GPGGA,130241.60,4612.0574604,N,00607.3019073,E,2,09,1.0,368.511,M,49.480,M,0.87,0195*7A
$GPVTG,332.1414,T,332.1414,M,1.559,N,2.890,K,D*2D
$GPGGA,130241.80,4612.0575280,N,00607.3018538,E,2,09,1.0,368.541,M,49.480,M,0.09,0195*75
$GPVTG,335.5378,T,335.5378,M,1.475,N,2.734,K,D*23
$GPGGA,130242.00,4612.0576051,N,00607.3017991,E,2,09,1.0,368.534,M,49.480,M,0.11,0195*78
$RDENS,2939,4696052,PC
$GPVTG,333.5171,T,333.5171,M,1.528,N,2.831,K,D*20
$GPGGA,130242.40,4612.0577498,N,00607.3017037,E,2,10,0.9,368.557,M,49.480,M,0.51,0195*78
$GPVTG,336.8702,T,336.8702,M,1.544,N,2.862,K,D*2C
$GPGGA,130242.60,4612.0578432,N,00607.3016532,E,2,10,0.9,368.590,M,49.480,M,0.71,0195*7D
$GPVTG,337.8593,T,337.8593,M,1.629,N,3.019,K,D*21
$GPGGA,130243.00,4612.0579676,N,00607.3017774,E,2,11,0.8,369.271,M,49.480,M,1.11,0195*76
$RDENS,2940,4696142,PC
$GPVTG,338.2946,T,338.2946,M,1.570,N,2.909,K,D*27
$GPGGA,130243.20,4612.0580422,N,00607.3017850,E,2,11,0.8,369.445,M,49.480,M,1.31,0195*7B
$GPVTG,339.4474,T,339.4474,M,1.636,N,3.032,K,D*26
$GPGGA,130243.60,4612.0582180,N,00607.3016541,E,2,11,0.8,369.327,M,49.480,M,1.71,0195*7B
$GPVTG,340.7694,T,340.7694,M,1.569,N,2.909,K,D*2F
$GPGGA,130243.80,4612.0583159,N,00607.3015950,E,2,11,0.8,369.313,M,49.480,M,1.91,0195*76
$RDENS,2941,4696234,PC
$GPVTG,340.8322,T,340.8322,M,1.565,N,2.901,K,D*2B
$GPGGA,130244.20,4612.0584787,N,00607.3014646,E,2,11,0.8,369.210,M,49.480,M,2.31,0195*7B
$GPVTG,335.4852,T,335.4852,M,1.574,N,2.918,K,D*23
$GPGGA,130244.40,4612.0585254,N,00607.3015874,E,2,11,0.8,369.730,M,49.480,M,2.51,0195*78
$GPVTG,337.4441,T,337.4441,M,1.476,N,2.736,K,D*22
$GPGGA,130244.80,4612.0587622,N,00607.3011089,E,2,10,0.9,368.597,M,49.480,M,2.91,0195*7F
$RDENS,2942,4696323,PC
$GPVTG,335.8309,T,335.8309,M,1.606,N,2.976,K,D*2D
$GPGGA,130245.00,4612.0588694,N,00607.3010564,E,2,10,0.9,368.689,M,49.480,M,0.13,0195*77
$GPVTG,335.3121,T,335.3121,M,1.506,N,2.791,K,D*29
$GPGGA,130245.40,4612.0590175,N,00607.3009456,E,2,10,0.9,368.661,M,49.480,M,0.53,0195*78
$GPVTG,335.4324,T,335.4324,M,1.584,N,2.936,K,D*20
$GPGGA,130245.60,4612.0590858,N,00607.3008919,E,2,10,0.9,368.680,M,49.480,M,0.73,0195*76
$GPVTG,335.9174,T,335.9174,M,1.524,N,2.825,K,D*29
$RDENS,2943,4696420,PC
$GPGGA,130246.00,4612.0592224,N,00607.3007788,E,2,10,0.9,368.616,M,49.480,M,1.13,0195*71
$GPVTG,332.7677,T,332.7677,M,1.591,N,2.948,K,D*2D
$GPGGA,130246.20,4612.0592785,N,00607.3007218,E,2,10,0.9,368.538,M,49.480,M,1.33,0195*7C
$GPVTG,333.9107,T,333.9107,M,1.525,N,2.826,K,D*2B
$GPGGA,130246.60,4612.0594655,N,00607.3006178,E,2,10,0.9,368.603,M,49.480,M,1.73,0195*79
$GPVTG,339.0327,T,339.0327,M,1.614,N,2.991,K,D*27
$RDENS,2944,4696517,PC
$GPGGA,130246.80,4612.0595457,N,00607.3005671,E,2,10,0.9,368.611,M,49.480,M,1.93,0195*76
$GPVTG,335.3423,T,335.3423,M,1.576,N,2.921,K,D*2B
$GPGGA,130247.00,4612.0596318,N,00607.3005187,E,2,10,0.9,368.606,M,49.480,M,2.13,0195*73
$GPVTG,337.9161,T,337.9161,M,1.651,N,3.060,K,D*20
$GPGGA,130247.40,4612.0598040,N,00607.3004252,E,2,10,0.9,368.612,M,49.480,M,2.53,0195*7C
$GPVTG,340.2247,T,340.2247,M,1.622,N,3.006,K,D*24
$GPGGA,130247.60,4612.0598905,N,00607.3003655,E,2,10,0.9,368.528,M,49.480,M,0.09,0195*75
$RDENS,2945,4696614,PC
$GPVTG,338.9868,T,338.9868,M,1.607,N,2.979,K,D*23
$GPGGA,130248.00,4612.0600840,N,00607.3002677,E,2,10,0.9,368.550,M,49.480,M,0.31,0195*7B
$GPVTG,343.4504,T,343.4504,M,1.765,N,3.271,K,D*24
$GPGGA,130248.20,4612.0601769,N,00607.3002184,E,2,10,0.9,368.550,M,49.480,M,0.51,0195*71
$GPVTG,344.0162,T,344.0162,M,1.708,N,3.165,K,D*29
$GPVTG,342.3661,T,342.3661,M,1.761,N,3.264,K,D*24
$RDENS,2946,4696711,PC
$GPGGA,130248.80,4612.0604452,N,00607.3001039,E,2,10,0.9,368.571,M,49.480,M,1.11,0195*77
$GPVTG,344.4675,T,344.4675,M,1.732,N,3.209,K,D*29
$GPGGA,130249.00,4612.0605367,N,00607.3000643,E,2,10,0.9,368.576,M,49.480,M,1.31,0195*71
$GPVTG,341.6595,T,341.6595,M,1.797,N,3.331,K,D*2C
$GPGGA,130249.40,4612.0607064,N,00607.2999731,E,2,10,0.9,368.535,M,49.480,M,1.71,0195*78
$GPVTG,340.8398,T,340.8398,M,1.667,N,3.090,K,D*2A
$RDENS,2947,4696808,PC
$GPGGA,130249.60,4612.0607901,N,00607.2999295,E,2,10,0.9,368.518,M,49.480,M,1.91,0195*7A
$GPVTG,338.5377,T,338.5377,M,1.719,N,3.186,K,D*24
$GPGGA,130250.00,4612.0609952,N,00607.2998406,E,2,10,0.9,368.632,M,49.480,M,2.31,0195*73
$GPVTG,337.8965,T,337.8965,M,1.604,N,2.973,K,D*2A
$GPGGA,130250.20,4612.0611029,N,00607.2997977,E,2,10,0.9,368.696,M,49.480,M,2.51,0195*71
$GPVTG,337.1376,T,337.1376,M,1.662,N,3.080,K,D*2E
$GPGGA,130250.60,4612.0612212,N,00607.2997071,E,2,10,0.9,368.599,M,49.480,M,2.91,0195*73
$RDENS,2948,4696905,PC
$GPVTG,338.1974,T,338.1974,M,1.565,N,2.900,K,D*2A
$GPGGA,130250.80,4612.0613027,N,00607.2996556,E,2,10,0.9,368.595,M,49.480,M,3.11,0195*7C
$GPVTG,338.2375,T,338.2375,M,1.551,N,2.874,K,D*2F
$GPGGA,130251.20,4612.0614537,N,00607.2995551,E,2,10,0.9,368.599,M,49.480,M,3.51,0195*78
$GPVTG,333.4306,T,333.4306,M,1.593,N,2.953,K,D*25
$GPGGA,130251.40,4612.0615194,N,00607.2995025,E,2,10,0.9,368.575,M,49.480,M,3.71,0195*74
$RDENS,2949,4696991,PC
$GPVTG,334.8784,T,334.8784,M,1.451,N,2.689,K,D*22
$GPGGA,130251.80,4612.0616692,N,00607.2994041,E,2,10,0.9,368.617,M,49.480,M,4.11,0195*7F
$GPVTG,332.2430,T,332.2430,M,1.578,N,2.924,K,D*20
$GPGGA,130252.00,4612.0617623,N,00607.2993478,E,2,10,0.9,368.628,M,49.480,M,4.31,0195*78
$GPVTG,330.0911,T,330.0911,M,1.525,N,2.826,K,D*2B
$GPGGA,130252.40,4612.0619057,N,00607.2992386,E,2,10,0.9,368.654,M,49.480,M,4.71,0195*7F
$RDENS,2950,4697077,PC
$GPVTG,333.8083,T,333.8083,M,1.499,N,2.779,K,D*28
$GPGGA,130252.60,4612.0619528,N,00607.2991872,E,2,09,1.0,368.614,M,49.480,M,4.91,0195*79
$GPVTG,331.6345,T,331.6345,M,1.530,N,2.836,K,D*2E
$GPGGA,130252.80,4612.0620294,N,00607.2991227,E,2,09,1.0,368.582,M,49.480,M,5.11,0195*72
$GPVTG,331.6914,T,331.6914,M,1.437,N,2.663,K,D*26
$GPGGA,130253.20,4612.0621717,N,00607.2990106,E,2,09,1.0,368.604,M,49.480,M,5.51,0195*7E
$RDENS,2951,4697163,PC
$GPVTG,330.5990,T,330.5990,M,1.419,N,2.630,K,D*2C
$GPGGA,130253.60,4612.0623078,N,00607.2988964,E,2,09,1.0,368.614,M,49.480,M,5.91,0195*7E
$GPVTG,328.3843,T,328.3843,M,1.440,N,2.669,K,D*2C
$GPGGA,130253.80,4612.0623837,N,00607.2988358,E,2,09,1.0,368.600,M,49.480,M,6.11,0195*78
$GPVTG,328.9982,T,328.9982,M,1.341,N,2.485,K,D*2A
$RDENS,2952,4697249,PC
$GPGGA,130254.00,4612.0624473,N,00607.2987805,E,2,09,1.0,368.612,M,49.480,M,6.31,0195*71
$GPVTG,330.0922,T,330.0922,M,1.478,N,2.739,K,D*23
$GPGGA,130254.40,4612.0625894,N,00607.2986640,E,2,10,0.9,368.631,M,49.480,M,6.71,0195*7A
$GPVTG,327.8791,T,327.8791,M,1.364,N,2.528,K,D*2B
$GPGGA,130254.60,4612.0626560,N,00607.2986074,E,2,10,0.9,368.638,M,49.480,M,6.91,0195*7B
$GPVTG,326.8516,T,326.8516,M,1.321,N,2.448,K,D*2D
$RDENS,2953,4697335,PC
$GPGGA,130255.00,4612.0627953,N,00607.2984844,E,2,10,0.9,368.629,M,49.480,M,7.31,0195*73
$GPVTG,328.5939,T,328.5939,M,1.459,N,2.705,K,D*2F
$GPGGA,130255.20,4612.0628630,N,00607.2984256,E,2,10,0.9,368.623,M,49.480,M,0.01,0195*73
$GPVTG,328.9381,T,328.9381,M,1.336,N,2.477,K,D*27
$GPGGA,130255.60,4612.0629981,N,00607.2983067,E,2,10,0.9,368.633,M,49.480,M,0.05,0195*71
$GPVTG,322.7697,T,322.7697,M,1.378,N,2.554,K,D*2D
$RDENS,2954,4697421,PC
$GPGGA,130255.80,4612.0630670,N,00607.2982293,E,2,10,0.9,368.548,M,49.480,M,0.08,0195*7C
$GPVTG,324.3833,T,324.3833,M,1.290,N,2.391,K,D*25
$GPGGA,130256.20,4612.0631824,N,00607.2981067,E,2,10,0.9,368.537,M,49.480,M,0.48,0195*7D
$GPVTG,327.2449,T,327.2449,M,1.307,N,2.422,K,D*25
$GPGGA,130256.40,4612.0632450,N,00607.2980466,E,2,10,0.9,368.521,M,49.480,M,0.05,0195*7D
$GPVTG,331.9538,T,331.9538,M,1.335,N,2.473,K,D*20
$RDENS,2955,4697507,PC
$GPGGA,130256.80,4612.0633803,N,00607.2979273,E,2,10,0.9,368.506,M,49.480,M,0.35,0195*78
$GPVTG,329.8054,T,329.8054,M,1.442,N,2.673,K,D*25
$GPGGA,130257.00,4612.0634559,N,00607.2978712,E,2,10,0.9,368.481,M,49.480,M,0.55,0195*7F
$GPVTG,333.0761,T,333.0761,M,1.494,N,2.769,K,D*24
$GPGGA,130257.40,4612.0636076,N,00607.2977533,E,2,10,0.9,368.388,M,49.480,M,0.95,0195*7D
$GPVTG,335.2603,T,335.2603,M,1.563,N,2.896,K,D*22
$RDENS,2956,4697593,PC
$GPGGA,130257.60,4612.0636751,N,00607.2977018,E,2,10,0.9,368.393,M,49.480,M,1.15,0195*72
$GPVTG,335.9223,T,335.9223,M,1.599,N,2.964,K,D*2B
$GPGGA,130258.00,4612.0638395,N,00607.2976001,E,2,10,0.9,368.344,M,49.480,M,1.55,0195*7E
$GPVTG,340.7292,T,340.7292,M,1.518,N,2.813,K,D*23
$GPGGA,130258.20,4612.0639282,N,00607.2975449,E,2,09,1.0,368.331,M,49.480,M,1.75,0195*71
$GPVTG,345.7231,T,345.7231,M,1.548,N,2.869,K,D*2B
$RDENS,2957,4697679,PC
$GPGGA,130258.40,4612.0640122,N,00607.2975078,E,2,09,1.0,368.317,M,49.480,M,1.95,0195*7C
$GPVTG,341.0681,T,341.0681,M,1.641,N,3.042,K,D*21
$GPGGA,130258.80,4612.0641641,N,00607.2974215,E,2,09,1.0,368.248,M,49.480,M,2.35,0195*79
$GPVTG,345.5120,T,345.5120,M,1.480,N,2.742,K,D*28
$GPGGA,130259.00,4612.0642509,N,00607.2973804,E,2,09,1.0,368.213,M,49.480,M,0.13,0195*79
$GPVTG,348.6987,T,348.6987,M,1.579,N,2.926,K,D*23
$RDENS,2958,4697765,PC
$GPGGA,130259.40,4612.0644495,N,00607.2973057,E,2,09,1.0,368.178,M,49.480,M,0.27,0195*78
$GPVTG,345.9621,T,345.9621,M,1.582,N,2.932,K,D*22
$GPGGA,130259.60,4612.0645240,N,00607.2972739,E,2,09,1.0,368.131,M,49.480,M,0.47,0195*70
$GPVTG,349.6559,T,349.6559,M,1.567,N,2.904,K,D*2C
$GPGGA,130300.00,4612.0647045,N,00607.2972182,E,2,09,1.0,368.103,M,49.480,M,0.87,0195*75
$GPVTG,349.5135,T,349.5135,M,1.529,N,2.834,K,D*24
$RDENS,2959,4697851,PC
$GPGGA,130300.20,4612.0647943,N,00607.2971959,E,2,09,1.0,368.092,M,49.480,M,1.07,0195*75
$GPVTG,351.8303,T,351.8303,M,1.538,N,2.851,K,D*27
$GPGGA,130300.60,4612.0649762,N,00607.2971477,E,2,09,1.0,368.083,M,49.480,M,0.04,0195*71
$GPVTG,352.6206,T,352.6206,M,1.502,N,2.783,K,D*2E
$GPGGA,130300.80,4612.0650609,N,00607.2971410,E,2,09,1.0,368.087,M,49.480,M,0.05,0195*7F
$RDENS,2960,4697936,PC
$GPVTG,351.9754,T,351.9754,M,1.543,N,2.859,K,D*23
$GPGGA,130301.20,4612.0652437,N,00607.2971096,E,2,09,1.0,368.079,M,49.480,M,0.11,0195*77
$GPVTG,354.0507,T,354.0507,M,1.508,N,2.795,K,D*23
$GPGGA,130301.40,4612.0653203,N,00607.2970982,E,2,09,1.0,368.061,M,49.480,M,0.31,0195*77
$GPVTG,356.3948,T,356.3948,M,1.475,N,2.733,K,D*24
$GPGGA,130301.80,4612.0654908,N,00607.2970867,E,2,09,1.0,368.073,M,49.480,M,0.19,0195*7F
$RDENS,2961,4698022,PC
$GPVTG,356.7231,T,356.7231,M,1.491,N,2.763,K,D*2B
$GPGGA,130302.00,4612.0655744,N,00607.2971245,E,2,10,0.8,368.215,M,49.480,M,0.39,0195*79
$GPVTG,356.9217,T,356.9217,M,1.515,N,2.807,K,D*2B
$GPGGA,130302.40,4612.0657434,N,00607.2970849,E,2,10,0.8,368.105,M,49.480,M,0.79,0195*7A
$GPVTG,358.3145,T,358.3145,M,1.497,N,2.774,K,D*2B
$GPGGA,130302.60,4612.0658258,N,00607.2970851,E,2,10,0.8,368.113,M,49.480,M,0.99,0195*7B
$RDENS,2962,4698108,PC
$GPVTG,357.4802,T,357.4802,M,1.541,N,2.856,K,D*2E
$GPGGA,130303.00,4612.0659954,N,00607.2970898,E,2,10,0.8,368.162,M,49.480,M,1.39,0195*72
$GPVTG,358.0177,T,358.0177,M,1.456,N,2.698,K,D*25
$GPGGA,130303.20,4612.0660591,N,00607.2971602,E,2,10,0.8,368.392,M,49.480,M,1.59,0195*78
$GPVTG,356.9574,T,356.9574,M,1.425,N,2.640,K,D*24
$GPGGA,130303.40,4612.0661363,N,00607.2971559,E,2,10,0.8,368.396,M,49.480,M,1.79,0195*7F
$RDENS,2963,4698194,PC
$GPVTG,355.8108,T,355.8108,M,1.352,N,2.506,K,D*22
$GPGGA,130303.80,4612.0662714,N,00607.2971362,E,2,10,0.8,368.380,M,49.480,M,0.11,0195*72
$GPVTG,352.8993,T,352.8993,M,1.339,N,2.481,K,D*21
$GPGGA,130304.00,4612.0663323,N,00607.2971466,E,2,10,0.8,368.426,M,49.480,M,0.31,0195*76
$GPVTG,353.4064,T,353.4064,M,1.258,N,2.331,K,D*2B
$GPGGA,130304.40,4612.0664418,N,00607.2971961,E,2,10,0.8,368.617,M,49.480,M,0.71,0195*74
$RDENS,2964,4698280,PC
$GPVTG,352.6517,T,352.6517,M,1.307,N,2.423,K,D*24
$GPGGA,130304.60,4612.0665316,N,00607.2971066,E,2,10,0.8,368.409,M,49.480,M,0.91,0195*73
$GPVTG,352.2044,T,352.2044,M,1.307,N,2.423,K,D*24
$GPGGA,130305.00,4612.0666911,N,00607.2970807,E,2,10,0.8,368.501,M,49.480,M,1.31,0195*76
$GPVTG,353.7011,T,353.7011,M,1.226,N,2.272,K,D*24
$RDENS,2965,4698367,PC
$GPGGA,130305.20,4612.0667547,N,00607.2970714,E,2,10,0.8,368.522,M,49.480,M,0.07,0195*72
$GPVTG,348.9630,T,348.9630,M,1.244,N,2.305,K,D*21
$GPGGA,130305.60,4612.0668718,N,00607.2971290,E,2,10,0.8,368.861,M,49.480,M,0.33,0195*74
$GPVTG,348.5582,T,348.5582,M,1.194,N,2.213,K,D*29
$GPGGA,130305.80,4612.0669654,N,00607.2969722,E,2,10,0.8,368.470,M,49.480,M,0.53,0195*7D
$GPVTG,347.4726,T,347.4726,M,1.154,N,2.139,K,D*2E
$RDENS,2966,4698452,PC
$GPGGA,130306.20,4612.0670640,N,00607.2969990,E,2,10,0.8,368.673,M,49.480,M,0.93,0195*73
$GPVTG,342.0643,T,342.0643,M,1.261,N,2.337,K,D*27
$GPGGA,130306.40,4612.0671276,N,00607.2969594,E,2,10,0.8,368.613,M,49.480,M,1.13,0195*72
$GPVTG,342.9092,T,342.9092,M,1.184,N,2.194,K,D*24
$GPGGA,130306.80,4612.0672335,N,00607.2969743,E,2,10,0.8,368.784,M,49.480,M,1.53,0195*78
$GPVTG,347.0178,T,347.0178,M,1.163,N,2.156,K,D*23
$RDENS,2967,4698538,PC
$GPGGA,130307.00,4612.0672918,N,00607.2969871,E,2,10,0.8,368.873,M,49.480,M,1.73,0195*7F
$GPVTG,353.4963,T,353.4963,M,1.230,N,2.280,K,D*2E
$GPGGA,130307.40,4612.0673931,N,00607.2970525,E,2,10,0.8,369.142,M,49.480,M,2.13,0195*7A
$GPVTG,356.5636,T,356.5636,M,1.145,N,2.123,K,D*25
$GPGGA,130307.60,4612.0674925,N,00607.2968871,E,2,10,0.8,368.737,M,49.480,M,2.33,0195*78
$GPVTG,353.8775,T,353.8775,M,1.156,N,2.142,K,D*20
$RDENS,2968,4698624,PC
$GPGGA,130307.80,4612.0675311,N,00607.2969510,E,2,10,0.8,368.958,M,49.480,M,2.53,0195*70
$GPVTG,343.3885,T,343.3885,M,1.197,N,2.218,K,D*21
$GPGGA,130308.20,4612.0676345,N,00607.2969441,E,2,10,0.8,369.047,M,49.480,M,2.93,0195*78
$GPVTG,343.4561,T,343.4561,M,1.153,N,2.138,K,D*28
$GPGGA,130308.40,4612.0677142,N,00607.2968457,E,2,10,0.8,368.813,M,49.480,M,3.13,0195*7D
$GPVTG,346.7876,T,346.7876,M,1.080,N,2.001,K,D*2C
$RDENS,2969,4698710,PC
$GPGGA,130308.80,4612.0678327,N,00607.2967852,E,2,10,0.8,368.750,M,49.480,M,3.53,0195*75
$GPVTG,347.1046,T,347.1046,M,1.052,N,1.950,K,D*2D
$GPGGA,130309.00,4612.0679139,N,00607.2966964,E,2,10,0.8,368.588,M,49.480,M,3.73,0195*70
$GPVTG,342.5933,T,342.5933,M,1.103,N,2.044,K,D*27
$GPGGA,130309.40,4612.0680074,N,00607.2966970,E,2,10,0.8,368.686,M,49.480,M,4.13,0195*73
$GPVTG,341.6549,T,341.6549,M,1.010,N,1.873,K,D*2B
$RDENS,2970,4698797,PC
$GPGGA,130309.60,4612.0680350,N,00607.2967784,E,2,10,0.8,369.005,M,49.480,M,4.33,0195*7E
$GPVTG,337.9467,T,337.9467,M,0.991,N,1.837,K,D*2A
$GPGGA,130310.00,4612.0681306,N,00607.2967740,E,2,10,0.8,369.103,M,49.480,M,4.73,0195*79
$GPVTG,345.9577,T,345.9577,M,0.891,N,1.650,K,D*24
$GPGGA,130310.20,4612.0681795,N,00607.2967343,E,2,10,0.8,369.042,M,49.480,M,4.93,0195*78
$GPVTG,338.3024,T,338.3024,M,0.872,N,1.616,K,D*2B
$RDENS,2971,4698883,PC
$GPGGA,130310.60,4612.0682770,N,00607.2966904,E,2,11,0.8,369.084,M,49.481,M,5.33,0195*7D
$GPVTG,333.8919,T,333.8919,M,0.782,N,1.449,K,D*23
$GPVTG,337.9839,T,337.9839,M,0.803,N,1.488,K,D*28
$GPGGA,130311.00,4612.0683769,N,00607.2965678,E,2,11,0.8,368.854,M,49.481,M,5.73,0195*74
$GPVTG,335.0119,T,335.0119,M,0.726,N,1.345,K,D*26
$RDENS,2972,4698969,PC
$GPGGA,130311.40,4612.0684650,N,00607.2965120,E,2,11,0.8,368.849,M,49.481,M,6.13,0195*7F
$GPVTG,336.6650,T,336.6650,M,0.732,N,1.356,K,D*21
$GPGGA,130311.60,4612.0685136,N,00607.2964488,E,2,11,0.8,368.761,M,49.481,M,6.33,0195*7A
$GPVTG,336.3096,T,336.3096,M,0.672,N,1.245,K,D*27
$GPGGA,130311.80,4612.0685247,N,00607.2965232,E,2,11,0.8,369.048,M,49.481,M,6.53,0195*7C
$GPVTG,338.0105,T,338.0105,M,0.619,N,1.147,K,D*2B
$RDENS,2973,4699055,PC
$GPGGA,130312.20,4612.0686242,N,00607.2963508,E,2,11,0.8,368.685,M,49.481,M,0.08,0195*75
$GPVTG,330.8733,T,330.8733,M,0.648,N,1.202,K,D*2D
$GPGGA,130312.60,4612.0686849,N,00607.2963022,E,2,11,0.8,368.688,M,49.481,M,0.48,0195*74
$GPVTG,331.7318,T,331.7318,M,0.648,N,1.202,K,D*2D
$GPGGA,130312.80,4612.0686932,N,00607.2963601,E,2,11,0.8,368.909,M,49.481,M,0.09,0195*73
$GPVTG,338.4294,T,338.4294,M,0.559,N,1.037,K,D*2A
$RDENS,2974,4699141,PC
$GPGGA,130313.20,4612.0687481,N,00607.2963136,E,2,11,0.8,368.851,M,49.481,M,0.06,0195*7C
$GPVTG,332.8927,T,332.8927,M,0.469,N,0.869,K,D*2A
$GPGGA,130313.40,4612.0687720,N,00607.2963027,E,2,11,0.8,368.864,M,49.481,M,0.09,0195*7A
$GPVTG,344.4457,T,344.4457,M,0.471,N,0.873,K,D*28
$GPGGA,130313.60,4612.0687858,N,00607.2963648,E,2,11,0.8,369.099,M,49.481,M,0.11,0195*75
$GPVTG,343.0118,T,343.0118,M,0.543,N,1.006,K,D*23
$RDENS,2975,4699227,PC
$GPGGA,130314.00,4612.0688236,N,00607.2964017,E,2,11,0.8,369.249,M,49.481,M,0.51,0195*79
$GPVTG,350.2942,T,350.2942,M,0.494,N,0.916,K,D*21
$GPGGA,130314.20,4612.0688415,N,00607.2964172,E,2,12,0.7,369.297,M,49.481,M,0.71,0195*73
$GPVTG,359.6649,T,359.6649,M,0.514,N,0.952,K,D*28
$GPGGA,130314.60,4612.0689073,N,00607.2963374,E,2,12,0.7,369.051,M,49.481,M,1.11,0195*7E
$GPVTG,8.4619,T,8.4619,M,0.500,N,0.927,K,D*2F
$RDENS,2976,4699313,PC
$GPGGA,130314.80,4612.0689302,N,00607.2963738,E,2,12,0.7,369.142,M,49.481,M,1.31,0195*78
$GPVTG,9.3987,T,9.3987,M,0.549,N,1.017,K,D*29
$GPGGA,130315.00,4612.0689732,N,00607.2962903,E,2,12,0.7,368.872,M,49.481,M,1.51,0195*7C
$GPVTG,19.3812,T,19.3812,M,0.525,N,0.972,K,D*28
$GPGGA,130315.40,4612.0690344,N,00607.2962845,E,2,12,0.7,368.794,M,49.481,M,1.91,0195*7D
$GPVTG,31.0230,T,31.0230,M,0.539,N,0.999,K,D*20
$RDENS,2977,4699399,PC
$GPGGA,130315.80,4612.0690723,N,00607.2963659,E,2,12,0.7,368.927,M,49.481,M,0.15,0195*7D
$GPVTG,30.5124,T,30.5124,M,0.543,N,1.007,K,D*22
$GPGGA,130316.00,4612.0691043,N,00607.2963762,E,2,12,0.7,368.890,M,49.481,M,0.35,0195*70
$GPVTG,27.4213,T,27.4213,M,0.557,N,1.033,K,D*20
$GPGGA,130316.40,4612.0691744,N,00607.2963527,E,2,12,0.7,368.685,M,49.481,M,0.75,0195*79
$GPVTG,37.9216,T,37.9216,M,0.564,N,1.045,K,D*21
$RDENS,2978,4699485,PC
$GPGGA,130316.60,4612.0691861,N,00607.2964244,E,2,12,0.7,368.821,M,49.481,M,0.95,0195*78
$GPVTG,41.5426,T,41.5426,M,0.619,N,1.147,K,D*2B
$GPGGA,130316.80,4612.0692132,N,00607.2964501,E,2,12,0.7,368.801,M,49.481,M,1.15,0195*77
$GPVTG,40.9050,T,40.9050,M,0.589,N,1.091,K,D*2B
$GPGGA,130317.20,4612.0692324,N,00607.2966129,E,2,11,0.8,369.114,M,49.481,M,1.55,0195*71
$GPVTG,37.3504,T,37.3504,M,0.521,N,0.965,K,D*2A
$RDENS,2979,4699571,PC
$GPGGA,130317.40,4612.0692898,N,00607.2965043,E,2,10,0.8,368.692,M,49.481,M,1.75,0195*7E
$GPVTG,41.4958,T,41.4958,M,0.595,N,1.103,K,D*2C
$GPGGA,130317.80,4612.0693215,N,00607.2966621,E,2,10,0.8,368.968,M,49.481,M,0.02,0195*76
$GPVTG,41.6445,T,41.6445,M,0.630,N,1.168,K,D*2D
$GPGGA,130318.00,4612.0693520,N,00607.2966926,E,2,10,0.8,368.942,M,49.481,M,0.22,0195*72
$GPVTG,37.5085,T,37.5085,M,0.690,N,1.280,K,D*22
$RDENS,2980,4699656,PC
$GPGGA,130318.40,4612.0694258,N,00607.2966317,E,4,08,1.0,368.449,M,49.481,M,0.62,0195*75
$GPVTG,40.7068,T,40.7068,M,0.757,N,1.403,K,D*25
$GPGGA,130318.60,4612.0694634,N,00607.2966686,E,4,08,1.0,368.441,M,49.481,M,0.82,0195*72
$GPVTG,51.5430,T,51.5430,M,0.776,N,1.439,K,D*2F
$GPGGA,130319.00,4612.0695272,N,00607.2967560,E,4,08,1.0,368.435,M,49.481,M,1.22,0195*70
$RDENS,2981,4699742,PC
$GPVTG,35.6670,T,35.6670,M,0.821,N,1.522,K,D*29
$GPGGA,130319.20,4612.0695582,N,00607.2967990,E,4,08,1.0,368.435,M,49.481,M,0.14,0195*7D
$GPVTG,39.9542,T,39.9542,M,0.842,N,1.560,K,D*2A
$GPGGA,130319.40,4612.0695943,N,00607.2968417,E,4,08,1.0,368.436,M,49.481,M,0.34,0195*76
$GPVTG,41.8592,T,41.8592,M,0.859,N,1.591,K,D*2E
$GPGGA,130319.80,4612.0696657,N,00607.2969303,E,4,08,1.0,368.446,M,49.481,M,0.74,0195*73
$RDENS,2982,4699829,PC
$GPVTG,39.2723,T,39.2723,M,0.846,N,1.568,K,D*26
$GPGGA,130320.00,4612.0697011,N,00607.2969746,E,4,08,1.0,368.448,M,49.481,M,0.94,0195*71
$GPVTG,36.3260,T,36.3260,M,0.872,N,1.615,K,D*28
$GPGGA,130320.40,4612.0697804,N,00607.2970652,E,4,08,1.0,368.452,M,49.481,M,1.34,0195*75
$GPVTG,40.5679,T,40.5679,M,0.958,N,1.776,K,D*25
$GPGGA,130320.60,4612.0698204,N,00607.2971027,E,4,08,1.0,368.442,M,49.481,M,0.07,0195*77
$RDENS,2983,4699915,PC
$GPVTG,36.4539,T,36.4539,M,0.943,N,1.748,K,D*22
$GPGGA,130321.00,4612.0699011,N,00607.2971908,E,4,08,1.0,368.429,M,49.481,M,0.47,0195*7A
$GPVTG,37.9917,T,37.9917,M,0.883,N,1.636,K,D*27
$GPGGA,130321.20,4612.0699465,N,00607.2972349,E,4,07,1.6,368.411,M,49.481,M,0.67,0195*73
$GPVTG,38.2226,T,38.2226,M,0.938,N,1.738,K,D*29
$GPGGA,130321.60,4612.0700268,N,00607.2973342,E,4,07,1.6,368.416,M,49.481,M,1.07,0195*77
$RDENS,2984,4700001,PC
$GPVTG,39.5578,T,39.5578,M,0.968,N,1.794,K,D*2A
$GPGGA,130321.80,4612.0700684,N,00607.2973826,E,4,07,1.6,368.432,M,49.481,M,1.27,0195*72
$GPVTG,35.9130,T,35.9130,M,1.018,N,1.887,K,D*28
$GPGGA,130322.20,4612.0701551,N,00607.2974830,E,4,07,1.6,368.449,M,49.481,M,0.11,0195*79
$GPVTG,38.5536,T,38.5536,M,0.997,N,1.847,K,D*2B
$GPGGA,130322.40,4612.0702031,N,00607.2975284,E,4,07,1.6,368.437,M,49.481,M,0.31,0195*70
$RDENS,2985,4700087,PC
$GPVTG,37.4101,T,37.4101,M,1.004,N,1.861,K,D*2D
$GPGGA,130322.60,4612.0702414,N,00607.2975858,E,4,07,1.6,368.464,M,49.481,M,0.01,0195*7F
$GPVTG,35.3461,T,35.3461,M,1.060,N,1.964,K,D*2B
$GPGGA,130323.00,4612.0703324,N,00607.2976882,E,4,07,1.6,368.465,M,49.481,M,0.41,0195*7C
$GPVTG,40.1108,T,40.1108,M,1.028,N,1.905,K,D*20
$GPGGA,130323.20,4612.0703749,N,00607.2977395,E,4,07,1.6,368.460,M,49.481,M,0.10,0195*7C
$RDENS,2986,4700173,PC
$GPVTG,39.8528,T,39.8528,M,0.997,N,1.847,K,D*2B
$GPGGA,130323.60,4612.0704597,N,00607.2978417,E,4,07,1.6,368.464,M,49.481,M,0.21,0195*7A
$GPVTG,37.2470,T,37.2470,M,1.000,N,1.853,K,D*28
$GPGGA,130323.80,4612.0705048,N,00607.2978910,E,4,07,1.6,368.467,M,49.481,M,0.41,0195*7D
$GPVTG,35.1633,T,35.1633,M,0.996,N,1.846,K,D*2B
$GPGGA,130324.20,4612.0705901,N,00607.2979875,E,4,07,1.6,368.454,M,49.481,M,0.81,0195*7B
$RDENS,2987,4700259,PC
$GPVTG,43.3670,T,43.3670,M,0.953,N,1.766,K,D*2F
$GPGGA,130324.40,4612.0706327,N,00607.2980350,E,4,07,1.6,368.450,M,49.481,M,1.01,0195*77
$GPVTG,38.2577,T,38.2577,M,0.981,N,1.818,K,D*26
$GPGGA,130324.80,4612.0707162,N,00607.2981317,E,4,07,1.6,368.450,M,49.481,M,1.41,0195*7F
$GPVTG,42.3935,T,42.3935,M,0.954,N,1.769,K,D*27
$GPGGA,130325.00,4612.0707579,N,00607.2981785,E,4,07,1.6,368.435,M,49.481,M,0.08,0195*78
$RDENS,2988,4700345,PC
$GPVTG,39.0161,T,39.0161,M,0.953,N,1.766,K,D*2F
$GPGGA,130325.20,4612.0707965,N,00607.2982301,E,4,07,1.6,368.462,M,49.481,M,0.12,0195*79
$GPVTG,40.8538,T,40.8538,M,0.950,N,1.761,K,D*2B
$GPGGA,130325.60,4612.0708761,N,00607.2983314,E,4,07,1.6,368.473,M,49.481,M,0.03,0195*7D
$GPVTG,39.2427,T,39.2427,M,0.958,N,1.775,K,D*26
$GPGGA,130325.80,4612.0709156,N,00607.2983801,E,4,07,1.6,368.452,M,49.481,M,0.23,0195*7E
$RDENS,2989,4700431,PC
$GPVTG,39.1277,T,39.1277,M,0.998,N,1.850,K,D*22
$GPGGA,130326.20,4612.0709980,N,00607.2984880,E,4,07,1.6,368.453,M,49.481,M,0.63,0195*7F
$GPVTG,44.2271,T,44.2271,M,1.009,N,1.870,K,D*20
$GPGGA,130326.40,4612.0710362,N,00607.2985478,E,4,07,1.6,368.469,M,49.481,M,0.83,0195*7A
$GPVTG,36.9814,T,36.9814,M,1.047,N,1.940,K,D*28
$GPGGA,130326.80,4612.0711192,N,00607.2986578,E,4,07,1.6,368.486,M,49.481,M,0.05,0195*77
$RDENS,2990,4700517,PC
$GPVTG,44.5573,T,44.5573,M,0.987,N,1.828,K,D*23
$GPGGA,130327.00,4612.0711593,N,00607.2987151,E,4,07,1.6,368.478,M,49.481,M,0.25,0195*76
$GPVTG,46.0855,T,46.0855,M,1.038,N,1.924,K,D*22
$GPGGA,130327.40,4612.0712354,N,00607.2988355,E,4,07,1.6,368.493,M,49.481,M,0.00,0195*77
$GPVTG,45.9180,T,45.9180,M,1.012,N,1.876,K,D*2C
$GPGGA,130327.60,4612.0712796,N,00607.2988930,E,4,07,1.6,368.472,M,49.481,M,0.20,0195*7B
$RDENS,2991,4700603,PC
$GPVTG,48.0190,T,48.0190,M,1.061,N,1.967,K,D*29
$GPGGA,130327.80,4612.0713196,N,00607.2989562,E,4,07,1.6,368.478,M,49.481,M,0.40,0195*74
$GPVTG,52.1391,T,52.1391,M,1.074,N,1.991,K,D*24
$GPGGA,130328.20,4612.0714008,N,00607.2990869,E,4,07,1.6,368.465,M,49.481,M,0.80,0195*7E
$GPVTG,44.1849,T,44.1849,M,1.111,N,2.058,K,D*29
$RDENS,2992,4700689,PC
$GPGGA,130328.40,4612.0714378,N,00607.2991496,E,4,07,1.6,368.458,M,49.481,M,1.00,0195*76
$GPVTG,51.7199,T,51.7199,M,1.051,N,1.948,K,D*27
$GPGGA,130328.80,4612.0715124,N,00607.2992868,E,4,07,1.6,368.459,M,49.481,M,0.01,0195*7F
$GPVTG,53.8111,T,53.8111,M,1.117,N,2.071,K,D*24
$GPGGA,130329.00,4612.0715457,N,00607.2993587,E,4,07,1.6,368.459,M,49.481,M,0.21,0195*78
$GPVTG,55.7795,T,55.7795,M,1.035,N,1.918,K,D*20
$RDENS,2993,4700775,PC
$GPGGA,130329.40,4612.0716147,N,00607.2994950,E,4,07,1.6,368.448,M,49.481,M,0.61,0195*7E
$GPVTG,53.0665,T,53.0665,M,1.084,N,2.008,K,D*21
$GPGGA,130329.60,4612.0716488,N,00607.2995643,E,4,07,1.6,368.454,M,49.481,M,0.81,0195*75
$GPVTG,57.6710,T,57.6710,M,1.031,N,1.910,K,D*2C
$GPGGA,130330.00,4612.0717091,N,00607.2997050,E,4,07,1.6,368.461,M,49.481,M,0.15,0195*7B
$GPVTG,56.3041,T,56.3041,M,1.028,N,1.905,K,D*20
$RDENS,2994,4700861,PC
$GPGGA,130330.20,4612.0717408,N,00607.2997738,E,4,07,1.6,368.449,M,49.481,M,0.09,0195*73
$GPVTG,60.2061,T,60.2061,M,1.026,N,1.901,K,D*2A
$GPGGA,130330.40,4612.0717666,N,00607.2998481,E,4,07,1.6,368.458,M,49.481,M,0.11,0195*78
$GPVTG,62.2177,T,62.2177,M,1.068,N,1.979,K,D*2F
$GPGGA,130330.80,4612.0718199,N,00607.3000002,E,4,07,1.6,368.457,M,49.481,M,0.51,0195*71
$GPVTG,63.0857,T,63.0857,M,1.056,N,1.957,K,D*2E
$RDENS,2995,4700946,PC
$GPGGA,130331.00,4612.0718474,N,00607.3000768,E,4,07,1.6,368.463,M,49.481,M,0.71,0195*70
$GPVTG,66.2658,T,66.2658,M,1.048,N,1.942,K,D*25
$GPGGA,130331.40,4612.0718949,N,00607.3002308,E,4,07,1.6,368.469,M,49.481,M,1.11,0195*7A
$GPVTG,67.4774,T,67.4774,M,1.064,N,1.972,K,D*28
$GPGGA,130331.60,4612.0719178,N,00607.3003118,E,4,07,1.6,368.483,M,49.481,M,0.03,0195*77
$GPVTG,65.4884,T,65.4884,M,1.061,N,1.967,K,D*29
$RDENS,2996,4701033,PC
$GPGGA,130332.00,4612.0719668,N,00607.3004662,E,4,07,1.6,368.464,M,49.481,M,0.43,0195*74
$GPVTG,66.2104,T,66.2104,M,1.074,N,1.990,K,D*25
$GPGGA,130332.20,4612.0719894,N,00607.3005456,E,4,07,1.6,368.450,M,49.481,M,0.63,0195*7A
$GPVTG,67.2372,T,67.2372,M,0.988,N,1.831,K,D*24
$GPGGA,130332.60,4612.0720182,N,00607.3007123,E,4,07,1.6,368.463,M,49.481,M,1.03,0195*78
$GPVTG,76.4500,T,76.4500,M,1.095,N,2.030,K,D*2A
$RDENS,2997,4701119,PC
$GPGGA,130332.80,4612.0720413,N,00607.3007908,E,4,07,1.6,368.454,M,49.481,M,0.05,0195*79
$GPVTG,72.5188,T,72.5188,M,1.048,N,1.943,K,D*24
$GPVTG,71.7446,T,71.7446,M,1.067,N,1.978,K,D*21
$GPGGA,130333.40,4612.0721062,N,00607.3010171,E,4,07,1.6,368.416,M,49.481,M,0.65,0195*77
$GPVTG,71.4019,T,71.4019,M,0.996,N,1.846,K,D*2B
$RDENS,2998,4701204,PC
$GPGGA,130333.60,4612.0721217,N,00607.3010978,E,4,07,1.6,368.443,M,49.481,M,0.01,0195*76
$GPVTG,67.9994,T,67.9994,M,1.002,N,1.858,K,D*21
$GPGGA,130334.00,4612.0721571,N,00607.3012527,E,4,07,1.6,368.470,M,49.481,M,0.41,0195*70
$GPVTG,72.7658,T,72.7658,M,0.995,N,1.844,K,D*2A
$GPGGA,130334.20,4612.0721700,N,00607.3013351,E,4,07,1.6,368.486,M,49.481,M,0.61,0195*7B
$GPVTG,80.3328,T,80.3328,M,1.064,N,1.972,K,D*28
$RDENS,2999,4701290,PC
$GPGGA,130334.60,4612.0721992,N,00607.3014909,E,4,07,1.6,368.475,M,49.481,M,1.01,0195*71
$GPVTG,70.1376,T,70.1376,M,0.979,N,1.815,K,D*2C
$GPGGA,130334.80,4612.0722150,N,00607.3015608,E,4,07,1.6,368.466,M,49.481,M,1.21,0195*75
$GPVTG,77.4153,T,77.4153,M,0.976,N,1.809,K,D*2E
$GPGGA,130335.20,4612.0722512,N,00607.3016988,E,4,07,1.6,368.460,M,49.481,M,1.61,0195*7A
$GPVTG,73.2147,T,73.2147,M,0.955,N,1.769,K,D*26
$RDENS,3000,4701377,PC
$GPGGA,130335.40,4612.0722630,N,00607.3017741,E,4,07,1.6,368.438,M,49.481,M,1.81,0195*76
$GPVTG,70.2995,T,70.2995,M,0.984,N,1.824,K,D*2C
$GPGGA,130335.80,4612.0722923,N,00607.3019298,E,4,07,1.6,368.445,M,49.481,M,0.04,0195*7E
$GPVTG,78.6817,T,78.6817,M,1.037,N,1.922,K,D*2B
$GPGGA,130336.00,4612.0723078,N,00607.3020026,E,4,07,1.6,368.449,M,49.481,M,0.24,0195*70
$GPVTG,74.1733,T,74.1733,M,0.963,N,1.785,K,D*21
$RDENS,3001,4701462,PC
$GPGGA,130336.20,4612.0723231,N,00607.3020744,E,4,07,1.6,368.436,M,49.481,M,0.17,0195*76
$GPVTG,71.1784,T,71.1784,M,0.997,N,1.847,K,D*2B
$GPGGA,130336.60,4612.0723545,N,00607.3022244,E,4,07,1.6,368.440,M,49.481,M,0.23,0195*77
$GPVTG,69.6966,T,69.6966,M,0.906,N,1.679,K,D*20
$GPGGA,130336.80,4612.0723718,N,00607.3022942,E,4,07,1.6,368.441,M,49.481,M,0.07,0195*79
$GPVTG,63.4540,T,63.4540,M,0.934,N,1.732,K,D*2F
$RDENS,3002,4701549,PC
$GPGGA,130337.20,4612.0724111,N,00607.3024339,E,4,07,1.6,368.422,M,49.481,M,0.33,0195*78
$GPVTG,74.1760,T,74.1760,M,0.986,N,1.827,K,D*2D
$GPGGA,130337.40,4612.0724309,N,00607.3025013,E,4,07,1.6,368.427,M,49.481,M,0.05,0195*7F
$GPVTG,65.5937,T,65.5937,M,0.929,N,1.721,K,D*21
$GPGGA,130337.80,4612.0724778,N,00607.3026326,E,4,07,1.6,368.407,M,49.481,M,0.35,0195*76
$GPVTG,64.9761,T,64.9761,M,0.963,N,1.785,K,D*21
$RDENS,3003,4701635,PC
$GPGGA,130338.00,4612.0724947,N,00607.3027012,E,4,07,1.6,368.430,M,49.481,M,0.55,0195*74
$GPVTG,66.2643,T,66.2643,M,0.921,N,1.706,K,D*2C
$GPGGA,130338.40,4612.0725410,N,00607.3028329,E,4,07,1.6,368.418,M,49.481,M,0.95,0195*7C
$GPVTG,64.2017,T,64.2017,M,0.945,N,1.751,K,D*2C
$GPGGA,130338.60,4612.0725629,N,00607.3028961,E,4,07,1.6,368.418,M,49.481,M,1.15,0195*79
$GPVTG,62.0205,T,62.0205,M,0.898,N,1.663,K,D*2D
$RDENS,3004,4701721,PC
$GPGGA,130338.80,4612.0725859,N,00607.3029614,E,4,07,1.6,368.420,M,49.481,M,0.05,0195*79
$GPVTG,61.8161,T,61.8161,M,0.918,N,1.702,K,D*22
$GPGGA,130339.20,4612.0726315,N,00607.3030861,E,4,07,1.6,368.445,M,49.481,M,0.45,0195*71
$GPVTG,58.8778,T,58.8778,M,0.809,N,1.500,K,D*23
$GPGGA,130339.40,4612.0726573,N,00607.3031457,E,4,07,1.6,368.448,M,49.481,M,0.05,0195*70
$GPVTG,56.0305,T,56.0305,M,0.778,N,1.442,K,D*2D
$RDENS,3005,4701807,PC
$GPGGA,130339.80,4612.0727023,N,00607.3032554,E,4,06,1.7,368.459,M,49.481,M,0.35,0195*7F
$GPVTG,53.8556,T,53.8556,M,0.796,N,1.475,K,D*29
$GPGGA,130340.00,4612.0727280,N,00607.3033082,E,4,06,1.7,368.431,M,49.481,M,0.55,0195*75
$GPVTG,54.8647,T,54.8647,M,0.762,N,1.411,K,D*20
$GPGGA,130340.40,4612.0727831,N,00607.3034079,E,4,06,1.7,368.414,M,49.481,M,0.95,0195*79
$GPVTG,52.1727,T,52.1727,M,0.837,N,1.551,K,D*2A
$RDENS,3006,4701893,PC
$GPGGA,130340.60,4612.0728111,N,00607.3034557,E,4,06,1.7,368.407,M,49.481,M,0.05,0195*7D
$GPVTG,46.5192,T,46.5192,M,0.777,N,1.441,K,D*21
$GPGGA,130341.00,4612.0728711,N,00607.3035439,E,4,06,1.7,368.445,M,49.481,M,0.35,0195*71
$GPVTG,43.8935,T,43.8935,M,0.751,N,1.392,K,D*2C
$GPGGA,130341.20,4612.0729015,N,00607.3035817,E,4,06,1.7,368.461,M,49.481,M,0.55,0195*71
$GPVTG,44.1791,T,44.1791,M,0.817,N,1.514,K,D*29
$RDENS,3007,4701979,PC
$GPGGA,130341.40,4612.0729356,N,00607.3036253,E,4,06,1.7,368.473,M,49.481,M,0.75,0195*7B
$GPVTG,39.2087,T,39.2087,M,0.791,N,1.467,K,D*2D
$GPGGA,130341.80,4612.0730113,N,00607.3036926,E,4,06,1.7,368.455,M,49.481,M,1.15,0195*76
$GPVTG,31.1579,T,31.1579,M,0.789,N,1.462,K,D*21
$GPGGA,130342.00,4612.0730483,N,00607.3037279,E,4,06,1.7,368.450,M,49.481,M,1.35,0195*76
$GPVTG,32.9892,T,32.9892,M,0.799,N,1.481,K,D*2D
$RDENS,3008,4702065,PC
$GPGGA,130342.40,4612.0731297,N,00607.3037979,E,4,06,1.7,368.451,M,49.481,M,1.75,0195*7E
$GPVTG,31.6201,T,31.6201,M,0.897,N,1.662,K,D*23
$GPGGA,130342.60,4612.0731758,N,00607.3038270,E,4,06,1.7,368.452,M,49.481,M,1.95,0195*7A
$GPVTG,23.5648,T,23.5648,M,0.840,N,1.557,K,D*2C
$GPGGA,130343.00,4612.0732579,N,00607.3038787,E,4,06,1.7,368.428,M,49.481,M,2.35,0195*76
$GPVTG,25.2435,T,25.2435,M,0.780,N,1.446,K,D*2E
$RDENS,3009,4702151,PC
$GPGGA,130343.20,4612.0732945,N,00607.3039063,E,4,06,1.7,368.431,M,49.481,M,2.55,0195*75
$GPVTG,30.5804,T,30.5804,M,0.703,N,1.303,K,D*23
$GPGGA,130343.60,4612.0733698,N,00607.3039595,E,4,06,1.7,368.421,M,49.481,M,2.95,0195*7E
$GPVTG,27.7899,T,27.7899,M,0.773,N,1.433,K,D*20
$GPGGA,130343.80,4612.0734111,N,00607.3039845,E,4,06,1.7,368.414,M,49.481,M,3.15,0195*7E
