$GPVTG,2.9821,T,2.9821,M,0.243,N,0.451,K,A*26
$GPVTG,9.4484,T,9.4484,M,0.328,N,0.607,K,A*2B
$GPVTG,2.4861,T,2.4861,M,0.255,N,0.472,K,A*20
$GPVTG,4.7199,T,4.7199,M,0.268,N,0.498,K,A*2A
$GPVTG,359.1593,T,359.1593,M,0.304,N,0.563,K,A*24
$GPVTG,6.6030,T,6.6030,M,0.274,N,0.507,K,A*20
$GPVTG,356.5087,T,356.5087,M,0.317,N,0.587,K,A*2C
$GPVTG,4.4681,T,4.4681,M,0.445,N,0.824,K,A*28
$GPVTG,354.2503,T,354.2503,M,0.334,N,0.619,K,A*29
$GPVTG,342.6913,T,342.6913,M,0.257,N,0.477,K,A*27
$GPVTG,338.4727,T,338.4727,M,0.230,N,0.426,K,A*22
$GPVTG,353.6475,T,353.6475,M,0.321,N,0.595,K,A*2A
$RDENS,1586,5014311,PC
$GPVTG,354.9767,T,354.9767,M,0.329,N,0.610,K,A*2C
$GPVTG,0.3457,T,0.3457,M,0.283,N,0.525,K,A*28
$GPVTG,359.7583,T,359.7583,M,0.322,N,0.596,K,A*2A
$GPVTG,350.6184,T,350.6184,M,0.395,N,0.732,K,A*2A
$RDENS,1587,5014400,PC
$GPVTG,337.0255,T,337.0255,M,0.350,N,0.649,K,A*2E
$GPVTG,354.0552,T,354.0552,M,0.361,N,0.670,K,A*26
$GPVTG,341.7373,T,341.7373,M,0.351,N,0.650,K,A*27
$GPVTG,340.5618,T,340.5618,M,0.416,N,0.771,K,A*21
$GPVTG,342.7418,T,342.7418,M,0.367,N,0.679,K,A*29
$RDENS,1588,5014489,PC
$GPVTG,350.1299,T,350.1299,M,0.505,N,0.935,K,A*2C
$GPVTG,351.8304,T,351.8304,M,0.454,N,0.842,K,A*28
$GPVTG,346.2536,T,346.2536,M,0.399,N,0.739,K,A*2D
$GPVTG,350.8416,T,350.8416,M,0.524,N,0.971,K,A*2F
$RDENS,1589,5014578,PC
$GPVTG,14.4607,T,14.4607,M,0.491,N,0.911,K,A*26
$GPVTG,4.7271,T,4.7271,M,0.489,N,0.906,K,A*29
$GPVTG,10.3732,T,10.3732,M,0.514,N,0.953,K,A*2C
$GPVTG,13.5826,T,13.5826,M,0.618,N,1.144,K,A*2C
$GPVTG,8.6687,T,8.6687,M,0.615,N,1.139,K,A*2B
$RDENS,1590,5014667,PC
$GPVTG,22.7297,T,22.7297,M,0.498,N,0.922,K,A*2F
$GPVTG,14.7861,T,14.7861,M,0.537,N,0.995,K,A*27
$GPVTG,9.1129,T,9.1129,M,0.678,N,1.257,K,A*2B
$GPVTG,2.7316,T,2.7316,M,0.554,N,1.026,K,A*22
$RDENS,1591,5014756,PC
$GPVTG,4.1619,T,4.1619,M,0.569,N,1.055,K,A*28
$GPVTG,5.6337,T,5.6337,M,0.666,N,1.234,K,A*21
$GPVTG,8.8982,T,8.8982,M,0.510,N,0.946,K,A*2C
$GPVTG,2.5454,T,2.5454,M,0.533,N,0.987,K,A*20
$GPVTG,353.4052,T,353.4052,M,0.499,N,0.925,K,A*29
$RDENS,1592,5014845,PC
$GPVTG,7.0872,T,7.0872,M,0.533,N,0.987,K,A*20
$GPVTG,6.7459,T,6.7459,M,0.570,N,1.056,K,A*23
$GPVTG,3.8924,T,3.8924,M,0.516,N,0.956,K,A*2B
$GPVTG,2.2457,T,2.2457,M,0.559,N,1.036,K,A*2E
$RDENS,1593,5014934,PC
$GPVTG,336.2907,T,336.2907,M,0.531,N,0.984,K,A*21
$GPVTG,8.8641,T,8.8641,M,0.633,N,1.173,K,A*21
$GPVTG,1.3680,T,1.3680,M,0.743,N,1.377,K,A*21
$GPVTG,339.6670,T,339.6670,M,0.487,N,0.902,K,A*23
$RDENS,1594,5015023,PC
$GPVTG,333.1609,T,333.1609,M,0.418,N,0.775,K,A*2B
$GPVTG,355.1070,T,355.1070,M,0.591,N,1.095,K,A*23
$GPVTG,359.3109,T,359.3109,M,0.563,N,1.043,K,A*25
$GPVTG,354.0960,T,354.0960,M,0.537,N,0.995,K,A*27
$GPVTG,342.1000,T,342.1000,M,0.510,N,0.945,K,A*2F
$RDENS,1595,5015112,PC
$GPVTG,337.7594,T,337.7594,M,0.346,N,0.641,K,A*21
$GPVTG,356.0452,T,356.0452,M,0.636,N,1.179,K,A*2E
$GPVTG,351.7020,T,351.7020,M,0.536,N,0.993,K,A*20
$GPVTG,345.7086,T,345.7086,M,0.454,N,0.842,K,A*28
$RDENS,1596,5015201,PC
$GPVTG,338.5945,T,338.5945,M,0.549,N,1.017,K,A*2C
$GPVTG,341.3680,T,341.3680,M,0.399,N,0.739,K,A*2D
$GPVTG,330.8015,T,330.8015,M,0.286,N,0.530,K,A*29
$GPVTG,347.1347,T,347.1347,M,0.571,N,1.058,K,A*2C
$GPVTG,350.4875,T,350.4875,M,0.611,N,1.132,K,A*24
$RDENS,1597,5015290,PC
$GPVTG,339.1453,T,339.1453,M,0.450,N,0.835,K,A*2C
$GPVTG,349.9911,T,349.9911,M,0.458,N,0.850,K,A*27
$GPVTG,350.6739,T,350.6739,M,0.501,N,0.929,K,A*25
$GPVTG,342.7270,T,342.7270,M,0.619,N,1.148,K,A*21
$GPVTG,310.4354,T,310.4354,M,0.467,N,0.866,K,A*2E
$RDENS,1598,5015387,PC
$GPVTG,341.7845,T,341.7845,M,0.541,N,1.003,K,A*21
$GPVTG,341.1742,T,341.1742,M,0.561,N,1.040,K,A*24
$GPVTG,331.2895,T,331.2895,M,0.465,N,0.861,K,A*2B
$GPVTG,329.5922,T,329.5922,M,0.550,N,1.019,K,A*2A
$RDENS,1599,5015473,PC
$GPVTG,324.4197,T,324.4197,M,0.462,N,0.857,K,A*29
$GPVTG,326.4756,T,326.4756,M,0.453,N,0.839,K,A*23
$GPVTG,319.0836,T,319.0836,M,0.534,N,0.989,K,A*29
$GPVTG,321.4316,T,321.4316,M,0.535,N,0.992,K,A*22
$RDENS,1600,5015559,PC
$GPVTG,324.7820,T,324.7820,M,0.463,N,0.858,K,A*27
$GPVTG,330.2014,T,330.2014,M,0.481,N,0.891,K,A*2E
$GPVTG,330.6910,T,330.6910,M,0.694,N,1.286,K,A*25
$GPVTG,322.7289,T,322.7289,M,0.475,N,0.880,K,A*25
$GPVTG,329.9228,T,329.9228,M,0.458,N,0.848,K,A*2E
$RDENS,1601,5015645,PC
$GPVTG,318.5421,T,318.5421,M,0.605,N,1.121,K,A*23
$GPVTG,311.9375,T,311.9375,M,0.523,N,0.969,K,A*21
$GPVTG,315.2397,T,315.2397,M,0.445,N,0.825,K,A*29
$GPVTG,327.1575,T,327.1575,M,0.830,N,1.537,K,A*28
$RDENS,1602,5015731,PC
$GPVTG,305.5219,T,305.5219,M,0.303,N,0.561,K,A*21
$GPVTG,310.4996,T,310.4996,M,0.306,N,0.567,K,A*22
$GPVTG,330.7718,T,330.7718,M,0.435,N,0.807,K,A*2E
$GPVTG,327.6816,T,327.6816,M,0.317,N,0.588,K,A*23
$RDENS,1603,5015817,PC
$GPVTG,343.3855,T,343.3855,M,0.319,N,0.592,K,A*26
$GPVTG,2.9794,T,2.9794,M,0.363,N,0.673,K,A*27
$GPVTG,14.5321,T,14.5321,M,0.601,N,1.113,K,A*26
$GPVTG,87.7636,T,87.7636,M,0.151,N,0.280,K,A*2C
$GPVTG,84.2116,T,84.2116,M,0.121,N,0.224,K,A*25
$RDENS,1604,5015903,PC
$GPVTG,35.0856,T,35.0856,M,0.312,N,0.578,K,A*29
$GPVTG,21.6377,T,21.6377,M,0.124,N,0.229,K,A*2D
$GPVTG,9.3444,T,9.3444,M,0.131,N,0.242,K,A*24
$GPVTG,196.3792,T,196.3792,M,0.019,N,0.034,K,A*2C
$RDENS,1605,5015989,PC
$GPVTG,307.2747,T,307.2747,M,0.105,N,0.194,K,A*2B
$GPVTG,292.2576,T,292.2576,M,0.165,N,0.305,K,A*27
$GPVTG,268.5727,T,268.5727,M,0.133,N,0.247,K,A*23
$GPVTG,281.7429,T,281.7429,M,0.132,N,0.245,K,A*20
$RDENS,1606,5016075,PC
$GPVTG,268.0643,T,268.0643,M,0.148,N,0.273,K,A*28
$GPVTG,244.0023,T,244.0023,M,0.107,N,0.199,K,A*24
$GPVTG,266.9014,T,266.9014,M,0.182,N,0.338,K,A*20
$GPVTG,265.6042,T,265.6042,M,0.200,N,0.370,K,A*25
$RDENS,1607,5016160,PC
$GPVTG,260.6369,T,260.6369,M,0.218,N,0.404,K,A*28
$GPVTG,250.6453,T,250.6453,M,0.283,N,0.525,K,A*28
$GPVTG,243.1629,T,243.1629,M,0.264,N,0.490,K,A*2E
$GPVTG,237.5536,T,237.5536,M,0.265,N,0.491,K,A*2E
$GPVTG,248.7390,T,248.7390,M,0.294,N,0.544,K,A*29
$RDENS,1608,5016246,PC
$GPVTG,259.7216,T,259.7216,M,0.380,N,0.703,K,A*2C
$GPVTG,238.1814,T,238.1814,M,0.394,N,0.731,K,A*28
$GPVTG,251.2742,T,251.2742,M,0.332,N,0.615,K,A*23
$GPVTG,246.4565,T,246.4565,M,0.277,N,0.513,K,A*26
$RDENS,1609,5016332,PC
$GPVTG,231.6886,T,231.6886,M,0.387,N,0.717,K,A*2E
$GPVTG,248.4481,T,248.4481,M,0.333,N,0.616,K,A*21
$GPVTG,221.0415,T,221.0415,M,0.318,N,0.590,K,A*25
$GPVTG,224.8160,T,224.8160,M,0.374,N,0.692,K,A*2E
$RDENS,1610,5016418,PC
$GPVTG,226.3000,T,226.3000,M,0.364,N,0.674,K,A*27
$GPVTG,229.0182,T,229.0182,M,0.258,N,0.478,K,A*27
$GPVTG,216.9863,T,216.9863,M,0.331,N,0.614,K,A*21
$GPVTG,235.3345,T,235.3345,M,0.181,N,0.336,K,A*2D
$GPVTG,225.5627,T,225.5627,M,0.161,N,0.298,K,A*26
$RDENS,1611,5016504,PC
$GPVTG,215.2352,T,215.2352,M,0.276,N,0.511,K,A*25
$GPVTG,204.5419,T,204.5419,M,0.148,N,0.274,K,A*2F
$GPVTG,169.4936,T,169.4936,M,0.146,N,0.271,K,A*24
$GPVTG,182.6422,T,182.6422,M,0.087,N,0.161,K,A*2A
$RDENS,1612,5016601,PC
$GPVTG,170.2430,T,170.2430,M,0.077,N,0.142,K,A*24
$GPVTG,128.5004,T,128.5004,M,0.099,N,0.184,K,A*2E
$GPVTG,128.7982,T,128.7982,M,0.165,N,0.306,K,A*24
$GPVTG,115.9222,T,115.9222,M,0.168,N,0.311,K,A*2F
$GPVTG,100.4909,T,100.4909,M,0.215,N,0.399,K,A*26
$RDENS,1613,5016690,PC
$GPVTG,64.5351,T,64.5351,M,0.351,N,0.650,K,A*27
$GPVTG,77.8948,T,77.8948,M,0.235,N,0.436,K,A*26
$GPVTG,78.5742,T,78.5742,M,0.258,N,0.479,K,A*26
$GPVTG,65.2181,T,65.2181,M,0.387,N,0.718,K,A*21
$GPVTG,77.9436,T,77.9436,M,0.513,N,0.951,K,A*29
$RDENS,1614,5016787,PC
$GPVTG,74.7916,T,74.7916,M,0.515,N,0.954,K,A*2A
$GPVTG,78.7528,T,78.7528,M,0.540,N,1.001,K,A*22
$GPVTG,57.9297,T,57.9297,M,0.727,N,1.348,K,A*2F
$GPVTG,79.9714,T,79.9714,M,0.805,N,1.493,K,A*21
$GPVTG,68.0259,T,68.0259,M,0.717,N,1.328,K,A*2A
$RDENS,1615,5016884,PC
$GPVTG,73.5437,T,73.5437,M,0.796,N,1.475,K,A*2C
$GPVTG,66.9784,T,66.9784,M,0.909,N,1.685,K,A*29
$GPVTG,46.6596,T,46.6596,M,1.205,N,2.233,K,A*25
$GPVTG,45.0610,T,45.0610,M,0.998,N,1.850,K,A*27
$RDENS,1616,5016981,PC
$GPVTG,99.1894,T,99.1894,M,0.954,N,1.768,K,A*23
$GPVTG,47.6804,T,47.6804,M,1.191,N,2.207,K,A*2C
$GPVTG,68.0589,T,68.0589,M,1.013,N,1.877,K,A*29
$GPVTG,84.9198,T,84.9198,M,1.114,N,2.064,K,A*26
$GPVTG,48.9355,T,48.9355,M,1.441,N,2.670,K,A*20
$RDENS,1617,5017067,PC
$GPVTG,98.0543,T,98.0543,M,1.027,N,1.903,K,A*2C
$GPVTG,59.9607,T,59.9607,M,1.426,N,2.642,K,A*20
$GPVTG,59.4204,T,59.4204,M,1.327,N,2.459,K,A*2E
$GPVTG,75.7824,T,75.7824,M,1.210,N,2.243,K,A*26
$RDENS,1618,5017153,PC
$GPVTG,66.2270,T,66.2270,M,1.342,N,2.487,K,A*2E
$RDENS,1619,5017239,PC
$RDENS,1620,5017325,PC
$RDENS,1621,5017411,PC
$RDENS,1622,5017497,PC
$RDENS,1623,5017583,PC
$GPVTG,39.5267,T,39.5267,M,1.216,N,2.253,K,D*24
$GPVTG,43.6853,T,43.6853,M,1.195,N,2.215,K,D*2E
$GPVTG,41.0809,T,41.0809,M,1.299,N,2.408,K,D*2B
$GPVTG,38.2513,T,38.2513,M,1.230,N,2.279,K,D*28
$RDENS,1624,5017669,PC
$GPVTG,33.8781,T,33.8781,M,1.353,N,2.507,K,D*22
$GPVTG,35.9022,T,35.9022,M,1.347,N,2.497,K,D*2F
$GPVTG,37.4228,T,37.4228,M,1.269,N,2.352,K,D*2C
$GPVTG,30.8021,T,30.8021,M,1.395,N,2.585,K,D*22
$RDENS,1625,5017756,PC
$GPVTG,29.0802,T,29.0802,M,1.283,N,2.377,K,D*2F
$GPVTG,30.9433,T,30.9433,M,1.351,N,2.504,K,D*23
$GPVTG,27.5749,T,27.5749,M,1.668,N,3.091,K,D*24
$GPVTG,27.8094,T,27.8094,M,1.509,N,2.797,K,D*20
$GPVTG,23.6215,T,23.6215,M,1.634,N,3.028,K,D*2F
$RDENS,1626,5017844,PC
$GPVTG,25.5652,T,25.5652,M,1.773,N,3.286,K,D*2B
$GPVTG,26.7645,T,26.7645,M,1.769,N,3.279,K,D*20
$GPVTG,24.7168,T,24.7168,M,1.885,N,3.493,K,D*2F
$GPVTG,25.2299,T,25.2299,M,1.865,N,3.457,K,D*29
$RDENS,1627,5017932,PC
$GPVTG,17.5737,T,17.5737,M,2.097,N,3.887,K,D*2E
$GPVTG,22.3324,T,22.3324,M,1.979,N,3.667,K,D*24
$GPVTG,20.1026,T,20.1026,M,2.070,N,3.836,K,D*2D
$GPVTG,18.4794,T,18.4794,M,1.957,N,3.628,K,D*23
$RDENS,1628,5018020,PC
$GPVTG,17.7948,T,17.7948,M,2.061,N,3.820,K,D*2A
$GPVTG,17.4301,T,17.4301,M,2.246,N,4.162,K,D*25
$GPVTG,16.5548,T,16.5548,M,2.124,N,3.937,K,D*2D
$GPVTG,16.6750,T,16.6750,M,2.008,N,3.722,K,D*28
$GPVTG,17.9222,T,17.9222,M,2.177,N,4.035,K,D*27
$RDENS,1629,5018108,PC
$GPVTG,15.3346,T,15.3346,M,2.022,N,3.747,K,D*23
$GPVTG,15.6923,T,15.6923,M,2.036,N,3.773,K,D*21
$GPGGA,135623.20,4612.0561069,N,00607.0042688,E,2,09,1.2,367.883,M,49.483,M,0.47,0195*79
$GPVTG,16.3346,T,16.3346,M,2.138,N,3.963,K,D*21
$GPGGA,135623.40,4612.0562359,N,00607.0043225,E,2,09,1.2,367.930,M,49.483,M,0.67,0195*75
$RDENS,1630,5018196,PC
$GPVTG,18.8505,T,18.8505,M,1.925,N,3.568,K,D*21
$GPGGA,135623.80,4612.0564858,N,00607.0044084,E,2,09,1.2,368.060,M,49.483,M,0.14,0195*7C
$GPVTG,14.4277,T,14.4277,M,2.041,N,3.782,K,D*2F
$GPGGA,135624.00,4612.0566697,N,00607.0044494,E,2,09,1.2,368.283,M,49.483,M,0.34,0195*74
$GPVTG,16.7474,T,16.7474,M,1.795,N,3.327,K,D*29
$GPGGA,135624.40,4612.0568112,N,00607.0045396,E,2,09,1.2,368.122,M,49.483,M,0.74,0195*7C
$RDENS,1631,5018284,PC
$GPVTG,17.3482,T,17.3482,M,1.727,N,3.201,K,D*25
$GPGGA,135624.60,4612.0569205,N,00607.0045702,E,2,09,1.2,368.171,M,49.483,M,0.94,0195*7B
$GPVTG,15.0386,T,15.0386,M,1.659,N,3.074,K,D*2D
$GPGGA,135625.00,4612.0571197,N,00607.0046365,E,2,10,1.1,368.215,M,49.483,M,1.34,0195*7A
$GPVTG,15.2620,T,15.2620,M,1.530,N,2.835,K,D*2D
$GPGGA,135625.20,4612.0572146,N,00607.0046682,E,2,10,1.1,368.245,M,49.483,M,1.54,0195*78
$RDENS,1632,5018372,PC
$GPVTG,14.0188,T,14.0188,M,1.564,N,2.899,K,D*2A
$GPGGA,135625.60,4612.0573383,N,00607.0047269,E,2,10,1.1,368.118,M,49.483,M,1.94,0195*71
$GPVTG,13.0239,T,13.0239,M,1.575,N,2.920,K,D*29
$GPGGA,135625.80,4612.0574849,N,00607.0047520,E,2,10,1.1,368.268,M,49.483,M,0.10,0195*76
$GPVTG,13.0535,T,13.0535,M,1.442,N,2.672,K,D*24
$GPGGA,135626.00,4612.0575756,N,00607.0047673,E,2,10,1.1,368.306,M,49.483,M,0.30,0195*73
$GPVTG,9.1173,T,9.1173,M,1.603,N,2.970,K,D*2E
$RDENS,1633,5018460,PC
$GPVTG,4.1063,T,4.1063,M,1.414,N,2.620,K,D*20
$GPGGA,135626.40,4612.0576963,N,00607.0047962,E,2,10,1.1,368.191,M,49.483,M,0.70,0195*7B
$GPVTG,6.0583,T,6.0583,M,1.561,N,2.893,K,D*25
$GPGGA,135626.60,4612.0577855,N,00607.0048137,E,2,10,1.1,368.202,M,49.483,M,0.90,0195*7C
$GPVTG,6.8619,T,6.8619,M,1.726,N,3.200,K,D*25
$GPGGA,135627.00,4612.0579755,N,00607.0048381,E,2,10,1.1,368.212,M,49.483,M,1.30,0195*7F
$RDENS,1634,5018548,PC
$GPVTG,5.0745,T,5.0745,M,1.713,N,3.175,K,D*22
$GPGGA,135627.20,4612.0580661,N,00607.0048516,E,2,10,1.1,368.224,M,49.483,M,1.50,0195*76
$GPVTG,4.7487,T,4.7487,M,1.745,N,3.234,K,D*27
$GPGGA,135627.60,4612.0582749,N,00607.0048720,E,2,10,1.1,368.249,M,49.483,M,1.90,0195*7B
$GPVTG,4.9877,T,4.9877,M,1.949,N,3.613,K,D*24
$GPGGA,135627.80,4612.0583810,N,00607.0048829,E,2,10,1.1,368.265,M,49.483,M,2.10,0195*74
$RDENS,1635,5018636,PC
$GPVTG,5.9538,T,5.9538,M,1.908,N,3.535,K,D*26
$GPGGA,135628.00,4612.0584920,N,00607.0049007,E,2,10,1.1,368.280,M,49.483,M,2.30,0195*7A
$GPVTG,5.0455,T,5.0455,M,2.189,N,4.056,K,D*23
$GPGGA,135628.40,4612.0587310,N,00607.0049338,E,2,10,1.1,368.303,M,49.483,M,0.05,0195*75
$GPVTG,6.1843,T,6.1843,M,2.268,N,4.204,K,D*2A
$GPGGA,135628.60,4612.0588497,N,00607.0049527,E,2,10,1.1,368.316,M,49.483,M,0.14,0195*7C
$RDENS,1636,5018724,PC
$GPVTG,7.7427,T,7.7427,M,2.346,N,4.348,K,D*2E
$GPGGA,135629.00,4612.0591030,N,00607.0049959,E,2,10,1.1,368.270,M,49.483,M,0.26,0195*7F
$GPVTG,9.4617,T,9.4617,M,2.322,N,4.304,K,D*24
$GPGGA,135629.20,4612.0592362,N,00607.0050237,E,2,10,1.1,368.290,M,49.483,M,0.46,0195*79
$GPVTG,8.8161,T,8.8161,M,2.304,N,4.270,K,D*22
$GPGGA,135629.60,4612.0594946,N,00607.0050796,E,2,10,1.1,368.288,M,49.483,M,0.86,0195*7C
$RDENS,1637,5018812,PC
$GPVTG,9.8015,T,9.8015,M,2.227,N,4.126,K,D*22
$GPGGA,135629.80,4612.0596164,N,00607.0051099,E,2,10,1.1,368.284,M,49.483,M,1.06,0195*74
$GPVTG,12.1041,T,12.1041,M,2.205,N,4.087,K,D*28
$GPGGA,135630.20,4612.0598706,N,00607.0051734,E,2,10,1.1,368.300,M,49.483,M,1.46,0195*73
$GPVTG,9.5430,T,9.5430,M,2.164,N,4.010,K,D*22
$GPGGA,135630.40,4612.0599821,N,00607.0052120,E,2,10,1.1,368.283,M,49.483,M,1.66,0195*76
$GPVTG,11.4520,T,11.4520,M,2.190,N,4.058,K,D*25
$RDENS,1638,5018900,PC
$GPGGA,135630.80,4612.0602212,N,00607.0052851,E,2,10,1.1,368.295,M,49.483,M,2.06,0195*7C
$GPVTG,12.9671,T,12.9671,M,2.111,N,3.912,K,D*2C
$GPGGA,135631.00,4612.0603329,N,00607.0053184,E,2,09,1.2,368.287,M,49.483,M,2.26,0195*77
$GPVTG,14.0898,T,14.0898,M,2.013,N,3.730,K,D*21
$GPGGA,135631.40,4612.0605438,N,00607.0053962,E,2,09,1.2,368.312,M,49.483,M,2.66,0195*7B
$GPVTG,13.1370,T,13.1370,M,1.869,N,3.463,K,D*22
$RDENS,1639,5018988,PC
$GPGGA,135631.60,4612.0606344,N,00607.0054440,E,2,09,1.2,368.281,M,49.483,M,2.86,0195*79
$GPVTG,12.4996,T,12.4996,M,1.792,N,3.322,K,D*2B
$GPGGA,135632.00,4612.0608357,N,00607.0055129,E,2,09,1.2,368.320,M,49.483,M,3.26,0195*7A
$GPVTG,17.2034,T,17.2034,M,1.626,N,3.014,K,D*23
$GPGGA,135632.20,4612.0609262,N,00607.0055516,E,2,09,1.2,368.307,M,49.483,M,3.46,0195*75
$GPVTG,17.8615,T,17.8615,M,1.577,N,2.922,K,D*29
$RDENS,1640,5019076,PC
$GPGGA,135632.40,4612.0610146,N,00607.0055870,E,2,09,1.2,368.311,M,49.483,M,3.66,0195*76
$GPVTG,15.1457,T,15.1457,M,1.667,N,3.089,K,D*22
$GPGGA,135632.80,4612.0611956,N,00607.0056616,E,2,09,1.2,368.346,M,49.483,M,4.06,0195*7C
$GPVTG,17.5366,T,17.5366,M,1.561,N,2.893,K,D*25
$GPGGA,135633.00,4612.0612739,N,00607.0056961,E,2,09,1.2,368.328,M,49.483,M,4.26,0195*74
$GPVTG,16.6236,T,16.6236,M,1.484,N,2.750,K,D*2F
$RDENS,1641,5019164,PC
$GPGGA,135633.40,4612.0614442,N,00607.0057619,E,2,09,1.2,368.327,M,49.483,M,4.66,0195*73
$GPVTG,15.0370,T,15.0370,M,1.634,N,3.028,K,D*2F
$GPGGA,135633.60,4612.0615194,N,00607.0057985,E,2,09,1.2,368.309,M,49.483,M,4.86,0195*76
$GPVTG,15.6334,T,15.6334,M,1.562,N,2.895,K,D*20
$GPGGA,135634.00,4612.0616897,N,00607.0058678,E,2,09,1.2,368.297,M,49.483,M,5.26,0195*71
$GPVTG,16.0202,T,16.0202,M,1.627,N,3.014,K,D*22
$RDENS,1642,5019252,PC
$GPGGA,135634.20,4612.0617707,N,00607.0059106,E,2,09,1.2,368.292,M,49.483,M,5.46,0195*78
$GPVTG,14.5472,T,14.5472,M,1.619,N,3.001,K,D*2B
$GPGGA,135634.60,4612.0619393,N,00607.0059835,E,2,09,1.2,368.275,M,49.483,M,5.86,0195*77
$GPVTG,16.4725,T,16.4725,M,1.657,N,3.071,K,D*26
$GPGGA,135634.80,4612.0620314,N,00607.0060242,E,2,09,1.2,368.298,M,49.483,M,6.06,0195*74
$GPVTG,15.1664,T,15.1664,M,1.807,N,3.349,K,D*25
$RDENS,1643,5019340,PC
$GPGGA,135635.20,4612.0622251,N,00607.0061007,E,2,09,1.2,368.320,M,49.483,M,6.46,0195*79
$GPVTG,16.3051,T,16.3051,M,1.918,N,3.555,K,D*21
$GPGGA,135635.40,4612.0623153,N,00607.0061449,E,2,09,1.2,368.323,M,49.483,M,6.66,0195*70
$GPVTG,15.0593,T,15.0593,M,1.806,N,3.346,K,D*2B
$GPGGA,135635.60,4612.0624137,N,00607.0061807,E,2,09,1.2,368.321,M,49.483,M,6.86,0195*7D
$GPVTG,17.0541,T,17.0541,M,1.935,N,3.585,K,D*23
$RDENS,1644,5019428,PC
$GPGGA,135636.00,4612.0626257,N,00607.0062642,E,2,09,1.2,368.314,M,49.483,M,7.26,0195*7E
$GPVTG,15.6505,T,15.6505,M,1.937,N,3.589,K,D*2D
$GPGGA,135636.20,4612.0627266,N,00607.0063119,E,2,09,1.2,368.305,M,49.483,M,7.46,0195*71
$GPVTG,16.8880,T,16.8880,M,1.926,N,3.570,K,D*2B
$GPGGA,135636.60,4612.0629346,N,00607.0064029,E,2,09,1.2,368.281,M,49.483,M,7.86,0195*7C
$GPVTG,16.9701,T,16.9701,M,2.011,N,3.726,K,D*24
$RDENS,1645,5019516,PC
$GPGGA,135636.80,4612.0630388,N,00607.0064504,E,2,09,1.2,368.296,M,49.483,M,8.06,0195*73
$GPVTG,17.0973,T,17.0973,M,1.984,N,3.676,K,D*26
$GPGGA,135637.20,4612.0632364,N,00607.0065505,E,2,09,1.2,368.265,M,49.483,M,8.46,0195*70
$GPVTG,18.2038,T,18.2038,M,2.018,N,3.740,K,D*2D
$GPGGA,135637.40,4612.0633331,N,00607.0065991,E,2,09,1.2,368.263,M,49.483,M,8.66,0195*72
$GPVTG,21.7640,T,21.7640,M,1.839,N,3.408,K,D*2A
$RDENS,1646,5019604,PC
$GPGGA,135637.80,4612.0635275,N,00607.0067049,E,2,09,1.2,368.255,M,49.483,M,9.06,0195*75
$GPVTG,16.9175,T,16.9175,M,1.959,N,3.631,K,D*25
$GPGGA,135638.00,4612.0636182,N,00607.0067602,E,2,09,1.2,368.269,M,49.483,M,0.00,0195*73
$GPVTG,24.4148,T,24.4148,M,1.813,N,3.360,K,D*2B
$GPGGA,135638.20,4612.0637072,N,00607.0068207,E,2,09,1.2,368.258,M,49.483,M,0.20,0195*70
$GPVTG,21.4686,T,21.4686,M,1.789,N,3.315,K,D*25
$RDENS,1647,5019692,PC
$GPGGA,135638.60,4612.0638867,N,00607.0069274,E,2,09,1.2,368.253,M,49.483,M,0.60,0195*7D
$GPVTG,22.3957,T,22.3957,M,1.716,N,3.180,K,D*2D
$GPGGA,135638.80,4612.0639764,N,00607.0069786,E,2,09,1.2,368.234,M,49.483,M,0.80,0195*79
$GPVTG,20.4554,T,20.4554,M,1.785,N,3.307,K,D*2A
$GPGGA,135639.20,4612.0641603,N,00607.0070703,E,2,09,1.2,368.221,M,49.483,M,1.20,0195*77
$GPVTG,20.2918,T,20.2918,M,1.668,N,3.092,K,D*27
$RDENS,1648,5019780,PC
$GPGGA,135639.40,4612.0642500,N,00607.0071185,E,2,09,1.2,368.219,M,49.483,M,1.40,0195*76
$GPVTG,20.1314,T,20.1314,M,1.713,N,3.175,K,D*22
$GPGGA,135639.80,4612.0644221,N,00607.0072103,E,2,09,1.2,368.194,M,49.483,M,1.80,0195*7F
$GPVTG,20.6597,T,20.6597,M,1.649,N,3.056,K,D*2C
$GPGGA,135640.00,4612.0645157,N,00607.0072532,E,2,09,1.2,368.188,M,49.483,M,2.00,0195*7A
$GPVTG,19.0082,T,19.0082,M,1.754,N,3.251,K,D*24
$RDENS,1649,5019868,PC
$GPGGA,135640.40,4612.0646976,N,00607.0073491,E,2,09,1.2,368.186,M,49.483,M,2.40,0195*75
$GPVTG,20.0095,T,20.0095,M,1.718,N,3.184,K,D*27
$GPGGA,135640.60,4612.0647689,N,00607.0074035,E,2,10,0.9,368.142,M,49.483,M,2.60,0195*7C
$GPVTG,18.7659,T,18.7659,M,1.821,N,3.375,K,D*2E
$GPGGA,135641.00,4612.0649618,N,00607.0075053,E,2,10,0.9,368.165,M,49.483,M,3.00,0195*7E
$GPVTG,20.2841,T,20.2841,M,1.844,N,3.418,K,D*21
$RDENS,1650,5019956,PC
$GPGGA,135641.20,4612.0650712,N,00607.0075546,E,2,10,0.9,368.190,M,49.483,M,3.20,0195*76
$GPVTG,21.2245,T,21.2245,M,1.955,N,3.623,K,D*2A
$GPGGA,135641.40,4612.0651777,N,00607.0076082,E,2,10,0.9,368.210,M,49.483,M,3.40,0195*71
$GPVTG,22.2325,T,22.2325,M,1.975,N,3.660,K,D*2F
$GPGGA,135641.80,4612.0653759,N,00607.0077267,E,2,10,0.9,368.195,M,49.483,M,3.80,0195*79
$GPVTG,20.9688,T,20.9688,M,1.980,N,3.670,K,D*24
$RDENS,1651,5020044,PC
$GPGGA,135642.00,4612.0654745,N,00607.0077894,E,2,10,0.9,368.199,M,49.483,M,4.00,0195*7D
$GPVTG,24.4865,T,24.4865,M,1.969,N,3.650,K,D*21
$GPGGA,135642.40,4612.0656765,N,00607.0079176,E,2,10,0.9,368.173,M,49.483,M,4.40,0195*72
$GPVTG,22.7508,T,22.7508,M,2.046,N,3.792,K,D*29
$GPGGA,135642.60,4612.0657836,N,00607.0079821,E,2,10,0.9,368.178,M,49.483,M,4.60,0195*7A
$GPVTG,25.7192,T,25.7192,M,1.969,N,3.648,K,D*28
$RDENS,1652,5020132,PC
$GPGGA,135643.00,4612.0659773,N,00607.0081144,E,2,10,0.9,368.166,M,49.483,M,5.00,0195*78
$GPVTG,24.4170,T,24.4170,M,1.921,N,3.560,K,D*2D
$GPGGA,135643.20,4612.0660768,N,00607.0081807,E,2,10,0.9,368.176,M,49.483,M,5.20,0195*77
$GPVTG,25.3974,T,25.3974,M,1.922,N,3.562,K,D*2C
$GPGGA,135643.60,4612.0662639,N,00607.0083131,E,2,10,0.9,368.169,M,49.483,M,5.60,0195*70
$GPVTG,25.8425,T,25.8425,M,1.914,N,3.548,K,D*21
$RDENS,1653,5020220,PC
$GPGGA,135643.80,4612.0663505,N,00607.0083768,E,2,10,0.9,368.161,M,49.483,M,5.80,0195*7F
$GPVTG,27.6710,T,27.6710,M,1.858,N,3.444,K,D*25
$GPGGA,135644.20,4612.0665380,N,00607.0085041,E,2,10,0.9,368.142,M,49.483,M,6.20,0195*7D
$GPVTG,26.5835,T,26.5835,M,1.872,N,3.468,K,D*23
$GPGGA,135644.40,4612.0666247,N,00607.0085712,E,2,10,0.9,368.145,M,49.483,M,6.40,0195*72
$GPVTG,27.6570,T,27.6570,M,1.765,N,3.270,K,D*25
$RDENS,1654,5020308,PC
$GPGGA,135644.60,4612.0667197,N,00607.0086282,E,2,10,0.9,368.170,M,49.483,M,6.60,0195*74
$GPVTG,29.3861,T,29.3861,M,1.826,N,3.384,K,D*27
$GPGGA,135645.00,4612.0668974,N,00607.0087656,E,2,10,0.9,368.164,M,49.483,M,7.00,0195*77
$GPVTG,29.6494,T,29.6494,M,1.827,N,3.387,K,D*25
$GPGGA,135645.20,4612.0669848,N,00607.0088368,E,2,10,0.9,368.151,M,49.483,M,7.20,0195*79
$GPVTG,30.2808,T,30.2808,M,1.766,N,3.273,K,D*25
$RDENS,1655,5020396,PC
$GPGGA,135645.60,4612.0671583,N,00607.0089758,E,2,10,0.9,368.148,M,49.483,M,7.60,0195*74
$GPVTG,30.2743,T,30.2743,M,1.800,N,3.335,K,D*29
$GPGGA,135645.80,4612.0672456,N,00607.0090486,E,2,10,0.9,368.140,M,49.483,M,7.80,0195*7E
$GPVTG,30.0933,T,30.0933,M,1.735,N,3.216,K,D*20
$GPGGA,135646.20,4612.0674108,N,00607.0091914,E,2,10,0.9,368.119,M,49.483,M,8.20,0195*71
$GPVTG,32.6832,T,32.6832,M,1.741,N,3.226,K,D*20
$RDENS,1656,5020484,PC
$GPGGA,135646.40,4612.0674959,N,00607.0092582,E,2,10,0.9,368.118,M,49.483,M,8.40,0195*7C
$GPVTG,32.8871,T,32.8871,M,1.719,N,3.186,K,D*24
$GPGGA,135646.80,4612.0676605,N,00607.0094024,E,2,10,0.9,368.130,M,49.483,M,8.80,0195*7D
$GPVTG,31.5458,T,31.5458,M,1.691,N,3.133,K,D*2B
$GPGGA,135647.00,4612.0677363,N,00607.0094719,E,2,10,0.9,368.127,M,49.483,M,9.00,0195*76
$GPVTG,33.6621,T,33.6621,M,1.688,N,3.129,K,D*28
$RDENS,1657,5020572,PC
$GPGGA,135647.40,4612.0678883,N,00607.0096189,E,2,10,0.9,368.116,M,49.483,M,9.40,0195*73
$GPVTG,34.9576,T,34.9576,M,1.661,N,3.078,K,D*2A
$GPGGA,135647.60,4612.0679556,N,00607.0096933,E,2,10,0.9,368.100,M,49.483,M,9.60,0195*79
$GPVTG,35.8297,T,35.8297,M,1.580,N,2.929,K,D*2A
$GPGGA,135647.80,4612.0680288,N,00607.0097631,E,2,10,0.9,368.096,M,49.483,M,9.80,0195*79
$GPVTG,37.7417,T,37.7417,M,1.543,N,2.859,K,D*23
$RDENS,1658,5020660,PC
$GPGGA,135648.20,4612.0681635,N,00607.0099033,E,2,10,0.9,368.070,M,49.483,M,10.20,0195*4F
$GPVTG,32.7739,T,32.7739,M,1.539,N,2.853,K,D*24
$GPGGA,135648.40,4612.0682360,N,00607.0099707,E,2,10,0.9,368.080,M,49.483,M,10.40,0195*46
$GPVTG,33.0840,T,33.0840,M,1.501,N,2.782,K,D*2C
$GPVTG,34.6191,T,34.6191,M,1.453,N,2.692,K,D*2A
$GPGGA,135649.00,4612.0684356,N,00607.0101735,E,2,10,0.9,368.109,M,49.483,M,11.00,0195*44
$RDENS,1659,5020748,PC
$GPVTG,34.7205,T,34.7205,M,1.438,N,2.665,K,D*2F
$GPGGA,135649.40,4612.0685663,N,00607.0102990,E,2,10,0.9,368.143,M,49.483,M,11.40,0195*4A
$GPVTG,31.6102,T,31.6102,M,1.415,N,2.623,K,D*22
$GPGGA,135649.60,4612.0686431,N,00607.0103580,E,2,10,0.9,368.133,M,49.483,M,11.60,0195*47
$GPVTG,27.0599,T,27.0599,M,1.534,N,2.844,K,D*2F
$GPGGA,135649.80,4612.0687228,N,00607.0104168,E,2,10,0.9,368.122,M,49.483,M,11.80,0195*4D
$RDENS,1660,5020836,PC
$GPVTG,29.7545,T,29.7545,M,1.525,N,2.826,K,D*2B
$GPGGA,135650.20,4612.0688688,N,00607.0105343,E,2,10,0.9,368.112,M,49.483,M,12.20,0195*4E
$GPVTG,26.7209,T,26.7209,M,1.551,N,2.875,K,D*2E
$GPGGA,135650.40,4612.0689505,N,00607.0105870,E,2,10,0.9,368.124,M,49.483,M,12.40,0195*47
$GPVTG,26.7730,T,26.7730,M,1.531,N,2.838,K,D*21
$GPGGA,135650.80,4612.0691072,N,00607.0107010,E,2,10,0.9,368.143,M,49.483,M,12.80,0195*46
$RDENS,1661,5020924,PC
$GPVTG,26.2268,T,26.2268,M,1.534,N,2.843,K,D*28
$GPGGA,135651.00,4612.0691838,N,00607.0107528,E,2,10,0.9,368.153,M,49.483,M,13.00,0195*4F
$GPVTG,23.3488,T,23.3488,M,1.708,N,3.165,K,D*29
$GPGGA,135651.40,4612.0693561,N,00607.0108530,E,2,10,0.9,368.137,M,49.483,M,13.40,0195*48
$GPVTG,20.0927,T,20.0927,M,1.676,N,3.106,K,D*24
$GPGGA,135651.60,4612.0694501,N,00607.0109019,E,2,10,0.9,368.127,M,49.483,M,13.60,0195*47
$RDENS,1662,5021012,PC
$GPVTG,19.4671,T,19.4671,M,1.844,N,3.417,K,D*2E
$GPGGA,135652.00,4612.0696403,N,00607.0109988,E,2,10,0.9,368.094,M,49.483,M,14.00,0195*4A
$GPVTG,18.9145,T,18.9145,M,1.847,N,3.423,K,D*2A
$GPGGA,135652.20,4612.0697341,N,00607.0110515,E,2,10,0.9,368.103,M,49.483,M,14.20,0195*45
$GPVTG,20.2095,T,20.2095,M,1.791,N,3.320,K,D*2A
$GPGGA,135652.60,4612.0699214,N,00607.0111518,E,2,10,0.9,368.141,M,49.483,M,14.60,0195*40
$RDENS,1663,5021100,PC
$GPVTG,20.5397,T,20.5397,M,1.851,N,3.430,K,D*2F
$GPGGA,135652.80,4612.0700173,N,00607.0111962,E,2,10,0.9,368.148,M,49.483,M,14.80,0195*4B
$GPVTG,19.5440,T,19.5440,M,1.910,N,3.539,K,D*23
$GPGGA,135653.20,4612.0702202,N,00607.0112960,E,2,10,0.9,368.133,M,49.483,M,15.20,0195*41
$GPVTG,18.2613,T,18.2613,M,1.950,N,3.614,K,D*2B
$GPGGA,135653.40,4612.0703201,N,00607.0113501,E,2,10,0.9,368.130,M,49.483,M,15.40,0195*4A
$RDENS,1664,5021188,PC
$GPVTG,18.0750,T,18.0750,M,2.024,N,3.751,K,D*22
$GPGGA,135653.80,4612.0705172,N,00607.0114558,E,2,10,0.9,368.101,M,49.483,M,15.80,0195*42
$GPVTG,19.8613,T,19.8613,M,1.909,N,3.539,K,D*2B
$GPGGA,135654.00,4612.0706249,N,00607.0114979,E,2,10,0.9,368.135,M,49.483,M,0.12,0195*72
$GPVTG,18.0394,T,18.0394,M,1.995,N,3.697,K,D*29
$GPGGA,135654.20,4612.0707179,N,00607.0115630,E,2,10,0.9,368.144,M,49.483,M,0.04,0195*73
$RDENS,1665,5021276,PC
$GPVTG,14.8981,T,14.8981,M,1.951,N,3.615,K,D*2B
$GPGGA,135654.60,4612.0709278,N,00607.0116526,E,2,10,0.9,368.183,M,49.483,M,0.44,0195*73
$GPVTG,14.1204,T,14.1204,M,1.967,N,3.645,K,D*2B
$GPGGA,135654.80,4612.0710314,N,00607.0116926,E,2,10,0.9,368.193,M,49.483,M,0.13,0195*71
$GPVTG,15.5078,T,15.5078,M,1.994,N,3.695,K,D*2A
$GPGGA,135655.20,4612.0712393,N,00607.0117884,E,2,10,0.9,368.166,M,49.483,M,0.01,0195*76
$RDENS,1666,5021363,PC
$GPVTG,15.2348,T,15.2348,M,2.121,N,3.931,K,D*2E
$GPGGA,135655.40,4612.0713475,N,00607.0118294,E,2,10,0.9,368.145,M,49.483,M,0.18,0195*73
$GPVTG,15.4032,T,15.4032,M,2.110,N,3.909,K,D*27
$GPGGA,135655.80,4612.0716614,N,00607.0120189,E,4,05,2.3,368.325,M,49.483,M,0.22,0195*7C
$GPVTG,14.9392,T,14.9392,M,2.124,N,3.937,K,D*2D
$GPGGA,135656.00,4612.0717766,N,00607.0120684,E,4,05,2.3,368.338,M,49.483,M,0.42,0195*72
$RDENS,1667,5021451,PC
$GPVTG,15.0221,T,15.0221,M,2.167,N,4.016,K,D*27
$GPGGA,135656.40,4612.0720151,N,00607.0121562,E,4,05,2.3,368.389,M,49.483,M,0.05,0195*73
$GPVTG,15.2941,T,15.2941,M,2.193,N,4.063,K,D*2E
$GPGGA,135656.60,4612.0721268,N,00607.0122126,E,4,05,2.3,368.361,M,49.483,M,0.15,0195*79
$GPVTG,17.3937,T,17.3937,M,2.287,N,4.239,K,D*25
$GPGGA,135657.00,4612.0723797,N,00607.0123135,E,4,05,2.3,368.368,M,49.483,M,0.55,0195*77
$RDENS,1668,5021539,PC
$GPVTG,15.6947,T,15.6947,M,2.358,N,4.370,K,D*2A
$GPGGA,135657.20,4612.0725017,N,00607.0123697,E,4,05,2.3,368.354,M,49.483,M,0.75,0195*7E
$GPVTG,16.9373,T,16.9373,M,2.398,N,4.444,K,D*26
$GPGGA,135657.60,4612.0727495,N,00607.0124857,E,4,05,2.3,368.337,M,49.483,M,0.19,0195*7C
$GPVTG,18.9214,T,18.9214,M,2.350,N,4.355,K,D*25
$GPGGA,135657.80,4612.0728699,N,00607.0125467,E,4,05,2.3,368.330,M,49.483,M,0.39,0195*78
$RDENS,1669,5021627,PC
$GPVTG,19.1668,T,19.1668,M,2.334,N,4.325,K,D*20
$GPGGA,135658.00,4612.0729999,N,00607.0126143,E,4,05,2.3,368.334,M,49.483,M,0.59,0195*73
$GPVTG,20.3289,T,20.3289,M,2.269,N,4.205,K,D*2A
$GPGGA,135658.40,4612.0732401,N,00607.0127432,E,4,05,2.3,368.338,M,49.483,M,0.05,0195*76
$GPVTG,21.9272,T,21.9272,M,2.361,N,4.375,K,D*25
$GPGGA,135658.60,4612.0733600,N,00607.0128206,E,4,05,2.3,368.319,M,49.483,M,0.15,0195*7A
$RDENS,1670,5021715,PC
$GPVTG,22.7529,T,22.7529,M,2.264,N,4.196,K,D*2E
$GPGGA,135659.00,4612.0735951,N,00607.0129646,E,4,05,2.3,368.318,M,49.483,M,0.55,0195*74
$GPVTG,23.7133,T,23.7133,M,2.317,N,4.295,K,D*2B
$GPGGA,135659.20,4612.0737090,N,00607.0130406,E,4,05,2.3,368.322,M,49.483,M,0.75,0195*75
$GPVTG,24.6065,T,24.6065,M,2.209,N,4.094,K,D*26
$GPGGA,135659.60,4612.0739301,N,00607.0131900,E,4,05,2.3,368.326,M,49.483,M,1.15,0195*7D
$RDENS,1671,5021802,PC
$GPVTG,26.4149,T,26.4149,M,2.187,N,4.054,K,D*2F
$GPGGA,135659.80,4612.0740422,N,00607.0132673,E,4,05,2.3,368.320,M,49.483,M,1.35,0195*77
$GPVTG,27.4462,T,27.4462,M,2.139,N,3.964,K,D*27
$GPGGA,135700.20,4612.0742525,N,00607.0134259,E,4,05,2.3,368.318,M,49.483,M,1.75,0195*71
$GPVTG,27.2256,T,27.2256,M,2.118,N,3.924,K,D*20
$GPGGA,135700.40,4612.0743573,N,00607.0135056,E,4,05,2.3,368.318,M,49.483,M,1.95,0195*77
$RDENS,1672,5021889,PC
$GPVTG,28.6672,T,28.6672,M,2.101,N,3.894,K,D*22
$GPGGA,135700.60,4612.0744491,N,00607.0135915,E,4,05,2.3,368.309,M,49.483,M,0.05,0195*79
$GPVTG,29.4339,T,29.4339,M,2.082,N,3.858,K,D*28
$GPGGA,135701.00,4612.0746535,N,00607.0137609,E,4,05,2.3,368.317,M,49.483,M,0.35,0195*7F
$GPVTG,29.9153,T,29.9153,M,2.086,N,3.866,K,D*21
$GPGGA,135701.20,4612.0747493,N,00607.0138407,E,4,05,2.3,368.324,M,49.483,M,0.55,0195*74
$RDENS,1673,5021976,PC
$GPVTG,32.4750,T,32.4750,M,2.024,N,3.750,K,D*23
$GPGGA,135701.60,4612.0749399,N,00607.0140157,E,4,05,2.3,368.323,M,49.483,M,0.95,0195*77
$GPVTG,32.6268,T,32.6268,M,2.047,N,3.794,K,D*2E
$GPGGA,135701.80,4612.0750321,N,00607.0141063,E,4,05,2.3,368.319,M,49.483,M,1.15,0195*75
$GPVTG,35.4880,T,35.4880,M,2.007,N,3.719,K,D*2F
$GPGGA,135702.20,4612.0752157,N,00607.0142926,E,4,05,2.3,368.327,M,49.483,M,1.55,0195*7F
$RDENS,1674,5022063,PC
$GPVTG,35.0285,T,35.0285,M,2.038,N,3.777,K,D*2B
$GPGGA,135702.40,4612.0753054,N,00607.0143925,E,4,05,2.3,368.329,M,49.483,M,1.75,0195*74
$GPVTG,36.8093,T,36.8093,M,2.048,N,3.796,K,D*23
$GPGGA,135702.80,4612.0754877,N,00607.0145914,E,4,05,2.3,368.323,M,49.483,M,2.15,0195*7D
$GPVTG,38.9857,T,38.9857,M,2.041,N,3.783,K,D*2E
$GPGGA,135703.00,4612.0755749,N,00607.0146944,E,4,05,2.3,368.330,M,49.483,M,2.35,0195*71
$RDENS,1675,5022150,PC
$GPVTG,40.3448,T,40.3448,M,1.951,N,3.615,K,D*2B
$GPGGA,135703.20,4612.0756528,N,00607.0147964,E,4,05,2.3,368.312,M,49.483,M,0.00,0195*72
$GPVTG,40.8056,T,40.8056,M,2.002,N,3.711,K,D*22
$GPGGA,135703.60,4612.0758179,N,00607.0150125,E,4,05,2.3,368.316,M,49.483,M,0.40,0195*73
$GPVTG,44.1121,T,44.1121,M,2.002,N,3.710,K,D*23
$GPGGA,135703.80,4612.0758902,N,00607.0151192,E,4,05,2.3,368.302,M,49.483,M,0.60,0195*73
$RDENS,1676,5022237,PC
$GPVTG,43.0987,T,43.0987,M,1.998,N,3.704,K,D*2F
$GPGGA,135704.20,4612.0760550,N,00607.0153393,E,4,05,2.3,368.323,M,49.483,M,1.00,0195*7B
$GPVTG,45.8204,T,45.8204,M,1.973,N,3.656,K,D*2C
$GPGGA,135704.40,4612.0761247,N,00607.0154533,E,4,05,2.3,368.320,M,49.483,M,1.20,0195*77
$GPVTG,45.4171,T,45.4171,M,1.985,N,3.679,K,D*28
$GPGGA,135704.80,4612.0762738,N,00607.0156826,E,4,05,2.3,368.288,M,49.483,M,1.60,0195*79
$RDENS,1677,5022324,PC
$GPVTG,46.8683,T,46.8683,M,1.952,N,3.618,K,D*25
$GPGGA,135705.00,4612.0763553,N,00607.0157921,E,4,05,2.3,368.306,M,49.483,M,1.80,0195*70
$GPVTG,45.7173,T,45.7173,M,1.985,N,3.679,K,D*28
$GPGGA,135705.40,4612.0765076,N,00607.0160172,E,4,05,2.3,368.295,M,49.483,M,2.20,0195*78
$GPVTG,46.3875,T,46.3875,M,1.944,N,3.602,K,D*29
$GPGGA,135705.60,4612.0765823,N,00607.0161266,E,4,05,2.3,368.299,M,49.483,M,2.40,0195*7F
$RDENS,1678,5022411,PC
$GPVTG,45.7399,T,45.7399,M,1.995,N,3.697,K,D*29
$GPGGA,135705.80,4612.0766631,N,00607.0162397,E,4,05,2.3,368.308,M,49.483,M,2.60,0195*78
$GPVTG,44.0742,T,44.0742,M,2.014,N,3.733,K,D*25
$GPGGA,135706.20,4612.0768189,N,00607.0164715,E,4,05,2.3,368.306,M,49.483,M,3.00,0195*7A
$GPVTG,47.2331,T,47.2331,M,2.031,N,3.764,K,D*20
$GPGGA,135706.40,4612.0768982,N,00607.0165883,E,4,05,2.3,368.307,M,49.483,M,3.20,0195*7D
$RDENS,1679,5022497,PC
$GPVTG,44.4743,T,44.4743,M,2.117,N,3.924,K,D*2F
$GPGGA,135706.80,4612.0770593,N,00607.0168267,E,4,05,2.3,368.283,M,49.483,M,3.60,0195*70
$GPVTG,43.2955,T,43.2955,M,2.083,N,3.861,K,D*23
$GPGGA,135707.00,4612.0771460,N,00607.0169425,E,4,05,2.3,368.293,M,49.483,M,3.80,0195*7B
$GPVTG,42.9356,T,42.9356,M,2.215,N,4.104,K,D*23
$GPGGA,135707.40,4612.0773278,N,00607.0171764,E,4,05,2.3,368.302,M,49.483,M,4.20,0195*79
$RDENS,1680,5022582,PC
$GPVTG,41.5358,T,41.5358,M,2.194,N,4.067,K,D*2D
$GPGGA,135707.60,4612.0774291,N,00607.0172869,E,4,05,2.3,368.314,M,49.483,M,4.40,0195*7B
$GPVTG,39.0538,T,39.0538,M,2.276,N,4.218,K,D*28
$GPGGA,135708.00,4612.0776268,N,00607.0175218,E,4,05,2.3,368.301,M,49.483,M,4.80,0195*75
$GPVTG,39.5553,T,39.5553,M,2.336,N,4.328,K,D*2F
$GPGGA,135708.20,4612.0777311,N,00607.0176384,E,4,05,2.3,368.298,M,49.483,M,5.00,0195*76
$RDENS,1681,5022669,PC
$GPVTG,37.4565,T,37.4565,M,2.403,N,4.453,K,D*25
$GPGGA,135708.60,4612.0779551,N,00607.0178667,E,4,05,2.3,368.321,M,49.483,M,5.40,0195*7F
$GPVTG,36.6648,T,36.6648,M,2.477,N,4.590,K,D*28
$GPGGA,135708.80,4612.0780660,N,00607.0179901,E,4,05,2.3,368.316,M,49.483,M,5.60,0195*7E
$GPVTG,36.0171,T,36.0171,M,2.526,N,4.682,K,D*2D
$GPGGA,135709.00,4612.0781849,N,00607.0181042,E,4,05,2.3,368.320,M,49.483,M,5.80,0195*71
$RDENS,1682,5022755,PC
$GPVTG,34.6476,T,34.6476,M,2.602,N,4.821,K,D*2F
$GPGGA,135709.40,4612.0784225,N,00607.0183436,E,4,05,2.3,368.306,M,49.483,M,6.20,0195*78
$GPVTG,33.4632,T,33.4632,M,2.674,N,4.955,K,D*2C
$GPGGA,135709.60,4612.0785441,N,00607.0184595,E,4,05,2.3,368.318,M,49.483,M,6.40,0195*79
$GPVTG,32.4516,T,32.4516,M,2.601,N,4.821,K,D*2C
$GPGGA,135710.00,4612.0787805,N,00607.0186839,E,4,05,2.3,368.277,M,49.483,M,6.80,0195*74
$RDENS,1683,5022841,PC
$GPVTG,31.3213,T,31.3213,M,2.578,N,4.778,K,D*22
$GPGGA,135710.20,4612.0789069,N,00607.0187836,E,4,05,2.3,368.280,M,49.483,M,7.00,0195*75
$GPVTG,28.6792,T,28.6792,M,2.489,N,4.614,K,D*26
$GPGGA,135710.60,4612.0791491,N,00607.0189714,E,4,05,2.3,368.280,M,49.483,M,7.40,0195*7E
$GPVTG,27.5863,T,27.5863,M,2.470,N,4.577,K,D*26
$GPGGA,135710.80,4612.0792692,N,00607.0190585,E,4,05,2.3,368.285,M,49.483,M,7.60,0195*77
$RDENS,1684,5022926,PC
$GPVTG,25.1333,T,25.1333,M,2.456,N,4.551,K,D*26
$GPVTG,25.6146,T,25.6146,M,2.389,N,4.428,K,D*2C
$GPGGA,135711.40,4612.0796312,N,00607.0193115,E,4,05,2.3,368.296,M,49.483,M,8.20,0195*74
$GPVTG,25.7464,T,25.7464,M,2.394,N,4.437,K,D*2E
$GPGGA,135711.60,4612.0797541,N,00607.0193924,E,4,05,2.3,368.294,M,49.483,M,8.40,0195*79
$RDENS,1685,5023013,PC
$GPVTG,24.7932,T,24.7932,M,2.280,N,4.226,K,D*2C
$GPGGA,135712.00,4612.0799791,N,00607.0195434,E,4,05,2.3,368.293,M,49.483,M,8.80,0195*7C
$GPVTG,23.4675,T,23.4675,M,2.235,N,4.143,K,D*22
$GPGGA,135712.20,4612.0800956,N,00607.0196039,E,4,05,2.3,368.302,M,49.483,M,9.00,0195*7E
$GPVTG,19.5638,T,19.5638,M,2.098,N,3.889,K,D*2F
$GPGGA,135712.60,4612.0803098,N,00607.0197196,E,4,05,2.3,368.296,M,49.483,M,9.40,0195*7F
$RDENS,1686,5023099,PC
$GPVTG,18.7798,T,18.7798,M,2.090,N,3.872,K,D*23
$GPGGA,135712.80,4612.0804179,N,00607.0197699,E,4,05,2.3,368.307,M,49.483,M,9.60,0195*7B
$GPVTG,16.3454,T,16.3454,M,1.934,N,3.583,K,D*24
$GPGGA,135713.20,4612.0806264,N,00607.0198472,E,4,05,2.3,368.318,M,49.483,M,10.00,0195*45
$GPVTG,12.8478,T,12.8478,M,1.904,N,3.529,K,D*27
$RDENS,1687,5023185,PC
$GPGGA,135713.40,4612.0807277,N,00607.0198794,E,4,05,2.3,368.333,M,49.483,M,10.20,0195*40
$GPVTG,10.4627,T,10.4627,M,1.761,N,3.264,K,D*24
$GPGGA,135713.80,4612.0809188,N,00607.0199303,E,4,05,2.3,368.334,M,49.483,M,10.60,0195*49
$GPVTG,10.4568,T,10.4568,M,1.740,N,3.225,K,D*22
$GPGGA,135714.00,4612.0810152,N,00607.0199622,E,4,05,2.3,368.334,M,49.483,M,10.80,0195*41
$GPVTG,9.1592,T,9.1592,M,1.829,N,3.389,K,D*25
$RDENS,1688,5023271,PC
$GPGGA,135714.20,4612.0811109,N,00607.0199885,E,4,05,2.3,368.324,M,49.483,M,11.00,0195*47
$GPVTG,10.7327,T,10.7327,M,1.651,N,3.060,K,D*20
$GPGGA,135714.60,4612.0813122,N,00607.0200281,E,4,05,2.3,368.358,M,49.483,M,11.40,0195*4A
$GPVTG,9.8968,T,9.8968,M,1.723,N,3.194,K,D*2E
$GPGGA,135714.80,4612.0814028,N,00607.0200487,E,4,05,2.3,368.362,M,49.483,M,0.01,0195*74
$GPVTG,9.5733,T,9.5733,M,1.683,N,3.120,K,D*2A
$RDENS,1689,5023357,PC
$GPGGA,135715.00,4612.0814990,N,00607.0200698,E,4,05,2.3,368.375,M,49.483,M,0.21,0195*7F
$GPVTG,8.6672,T,8.6672,M,1.617,N,2.996,K,D*23
$GPGGA,135715.40,4612.0816633,N,00607.0201065,E,4,05,2.3,368.335,M,49.483,M,0.61,0195*7A
$GPVTG,4.3420,T,4.3420,M,1.578,N,2.925,K,D*21
$GPGGA,135715.60,4612.0817527,N,00607.0201156,E,4,05,2.3,368.333,M,49.483,M,0.81,0195*76
$GPVTG,3.9014,T,3.9014,M,1.579,N,2.926,K,D*23
$RDENS,1690,5023443,PC
$GPGGA,135716.00,4612.0819177,N,00607.0201362,E,4,05,2.3,368.321,M,49.483,M,1.21,0195*71
$GPVTG,6.1916,T,6.1916,M,1.508,N,2.794,K,D*22
$GPGGA,135716.20,4612.0819993,N,00607.0201507,E,4,05,2.3,368.310,M,49.483,M,1.41,0195*70
$GPVTG,1.9537,T,1.9537,M,1.553,N,2.877,K,D*2E
$GPGGA,135716.40,4612.0820814,N,00607.0201587,E,4,05,2.3,368.315,M,49.483,M,1.61,0195*7D
$GPVTG,3.8281,T,3.8281,M,1.463,N,2.711,K,D*23
$GPGGA,135716.80,4612.0822419,N,00607.0201747,E,4,05,2.3,368.336,M,49.483,M,2.01,0195*78
$RDENS,1691,5023529,PC
$GPVTG,4.4175,T,4.4175,M,1.524,N,2.825,K,D*29
$GPGGA,135717.00,4612.0823312,N,00607.0201832,E,4,05,2.3,368.342,M,49.483,M,2.21,0195*70
$GPVTG,4.5332,T,4.5332,M,1.502,N,2.784,K,D*29
$GPGGA,135717.40,4612.0824970,N,00607.0202005,E,4,05,2.3,368.335,M,49.483,M,2.61,0195*76
$GPVTG,7.3486,T,7.3486,M,1.558,N,2.887,K,D*2A
$RDENS,1692,5023615,PC
$GPGGA,135717.60,4612.0825771,N,00607.0202202,E,4,05,2.3,368.333,M,49.483,M,2.81,0195*77
$GPVTG,5.4202,T,5.4202,M,1.483,N,2.748,K,D*21
$GPGGA,135718.00,4612.0827464,N,00607.0202454,E,4,05,2.3,368.336,M,49.483,M,3.21,0195*70
$GPVTG,12.3493,T,12.3493,M,1.509,N,2.796,K,D*21
$GPGGA,135718.20,4612.0828334,N,00607.0202688,E,4,05,2.3,368.349,M,49.483,M,3.41,0195*72
$GPVTG,9.2703,T,9.2703,M,1.520,N,2.817,K,D*2C
$GPVTG,15.0624,T,15.0624,M,1.485,N,2.751,K,D*2F
$RDENS,1693,5023701,PC
$GPGGA,135718.60,4612.0829971,N,00607.0203239,E,4,05,2.3,368.359,M,49.483,M,3.81,0195*7E
$GPVTG,12.7361,T,12.7361,M,1.483,N,2.748,K,D*21
$GPGGA,135719.00,4612.0831516,N,00607.0203861,E,4,05,2.3,368.348,M,49.483,M,4.21,0195*77
$GPVTG,19.0357,T,19.0357,M,1.476,N,2.735,K,D*21
$GPGGA,135719.20,4612.0832250,N,00607.0204335,E,4,05,2.3,368.328,M,49.483,M,4.41,0195*7E
$GPVTG,21.4404,T,21.4404,M,1.531,N,2.838,K,D*21
$RDENS,1694,5023787,PC
$GPGGA,135719.60,4612.0833750,N,00607.0205205,E,4,05,2.3,368.300,M,49.483,M,4.81,0195*7B
$GPVTG,21.9865,T,21.9865,M,1.399,N,2.592,K,D*28
$GPGGA,135719.80,4612.0834407,N,00607.0205734,E,4,05,2.3,368.302,M,49.483,M,5.01,0195*7F
$GPVTG,27.0711,T,27.0711,M,1.348,N,2.498,K,D*2F
$GPGGA,135720.20,4612.0835753,N,00607.0206752,E,4,05,2.3,368.352,M,49.483,M,5.41,0195*7E
$GPVTG,33.1159,T,33.1159,M,1.315,N,2.436,K,D*23
$RDENS,1695,5023873,PC
$GPGGA,135720.40,4612.0836401,N,00607.0207320,E,4,05,2.3,368.365,M,49.483,M,5.61,0195*79
$GPVTG,36.4084,T,36.4084,M,1.328,N,2.461,K,D*2F
$GPGGA,135720.80,4612.0837493,N,00607.0208603,E,4,05,2.3,368.361,M,49.483,M,6.01,0195*75
$GPVTG,38.2941,T,38.2941,M,1.246,N,2.309,K,D*2F
$GPGGA,135721.00,4612.0838063,N,00607.0209208,E,4,05,2.3,368.355,M,49.483,M,6.21,0195*73
$GPVTG,47.2183,T,47.2183,M,1.169,N,2.166,K,D*2A
$RDENS,1696,5023970,PC
$GPGGA,135721.20,4612.0838402,N,00607.0209932,E,4,05,2.3,368.327,M,49.483,M,6.41,0195*73
$GPVTG,46.6418,T,46.6418,M,1.163,N,2.155,K,D*20
$GPGGA,135721.60,4612.0839222,N,00607.0211292,E,4,05,2.3,368.323,M,49.483,M,6.81,0195*72
$GPVTG,52.5185,T,52.5185,M,1.120,N,2.075,K,D*24
$GPGGA,135721.80,4612.0839650,N,00607.0211967,E,4,05,2.3,368.346,M,49.483,M,7.01,0195*76
$GPVTG,55.4643,T,55.4643,M,1.108,N,2.053,K,D*2A
$GPGGA,135722.20,4612.0840203,N,00607.0213433,E,4,05,2.3,368.331,M,49.483,M,7.41,0195*79
$RDENS,1697,5024067,PC
$GPVTG,62.2206,T,62.2206,M,0.992,N,1.838,K,D*26
$GPGGA,135722.40,4612.0840491,N,00607.0214072,E,4,05,2.3,368.338,M,49.483,M,7.61,0195*7F
$GPVTG,67.7630,T,67.7630,M,0.973,N,1.804,K,D*26
$GPGGA,135722.80,4612.0840911,N,00607.0215536,E,4,05,2.3,368.351,M,49.483,M,8.01,0195*74
$GPVTG,69.0989,T,69.0989,M,0.953,N,1.767,K,D*2E
$GPGGA,135723.00,4612.0841071,N,00607.0216296,E,4,05,2.3,368.353,M,49.483,M,8.21,0195*7D
$GPVTG,75.1002,T,75.1002,M,1.050,N,1.946,K,D*28
$RDENS,1698,5024158,PC
$GPGGA,135723.40,4612.0841242,N,00607.0217949,E,2,05,2.3,368.339,M,49.483,M,8.61,0195*7D
$GPVTG,82.9924,T,82.9924,M,1.002,N,1.857,K,D*2E
$GPGGA,135723.60,4612.0841286,N,00607.0218684,E,2,05,2.3,368.338,M,49.483,M,8.81,0195*79
$GPVTG,84.1373,T,84.1373,M,1.034,N,1.917,K,D*2E
$GPGGA,135724.00,4612.0841377,N,00607.0220264,E,2,05,2.3,368.350,M,49.483,M,9.21,0195*73
$GPVTG,84.9707,T,84.9707,M,0.970,N,1.797,K,D*20
$RDENS,1699,5024249,PC
$GPGGA,135724.20,4612.0841373,N,00607.0221126,E,2,05,2.3,368.338,M,49.483,M,9.41,0195*79
$GPVTG,87.4176,T,87.4176,M,1.034,N,1.916,K,D*2F
$GPGGA,135724.40,4612.0841355,N,00607.0222039,E,2,05,2.3,368.311,M,49.483,M,9.61,0195*7E
$GPVTG,92.2728,T,92.2728,M,1.115,N,2.066,K,D*20
$GPGGA,135724.80,4612.0841349,N,00607.0223815,E,2,05,2.3,368.320,M,49.483,M,10.01,0195*44
