$GPGGA,134352.40,4612.0791871,N,00607.2089377,E,2,10,1.0,368.423,M,49.482,M,0.00,0195*70
$GPVTG,217.7968,T,217.7968,M,0.685,N,1.270,K,D*29
$GPGGA,134352.60,4612.0791414,N,00607.2089009,E,2,10,1.0,368.408,M,49.482,M,0.15,0195*7A
$GPVTG,219.4892,T,219.4892,M,0.701,N,1.300,K,D*22
$GPGGA,134353.00,4612.0791002,N,00607.2088085,E,2,10,1.0,368.409,M,49.482,M,0.25,0195*79
$GPVTG,231.9950,T,231.9950,M,0.675,N,1.252,K,D*26
$GPGGA,134353.20,4612.0790794,N,00607.2087575,E,2,10,1.0,368.404,M,49.482,M,0.45,0195*7C
$GPVTG,245.1991,T,245.1991,M,0.654,N,1.212,K,D*21
$GPGGA,134353.60,4612.0790566,N,00607.2086528,E,2,10,1.0,368.383,M,49.482,M,0.85,0195*7A
$GPVTG,252.8791,T,252.8791,M,0.639,N,1.184,K,D*26
$GPGGA,134353.80,4612.0790440,N,00607.2086004,E,2,10,1.0,368.372,M,49.482,M,1.05,0195*7D
$GPVTG,260.1476,T,260.1476,M,0.617,N,1.144,K,D*26
$GPGGA,134354.20,4612.0790428,N,00607.2084866,E,2,10,1.0,368.378,M,49.482,M,1.45,0195*7E
$RDENS,783,4943256,PC
$GPVTG,276.6854,T,276.6854,M,0.655,N,1.213,K,D*21
$GPGGA,134354.40,4612.0790416,N,00607.2084345,E,2,10,1.0,368.378,M,49.482,M,0.11,0195*7F
$GPVTG,285.5150,T,285.5150,M,0.648,N,1.200,K,D*2F
$GPGGA,134354.60,4612.0790452,N,00607.2083881,E,2,10,1.0,368.382,M,49.482,M,0.09,0195*75
$GPVTG,289.1587,T,289.1587,M,0.719,N,1.333,K,D*2B
$GPGGA,134355.00,4612.0790805,N,00607.2082805,E,2,10,1.0,368.377,M,49.482,M,0.49,0195*7F
$RDENS,784,4943344,PC
$GPVTG,300.0555,T,300.0555,M,0.722,N,1.338,K,D*28
$GPGGA,134355.20,4612.0791065,N,00607.2082240,E,2,10,1.0,368.372,M,49.482,M,0.69,0195*7E
$GPVTG,304.6352,T,304.6352,M,0.878,N,1.626,K,D*22
$GPGGA,134355.60,4612.0791617,N,00607.2081172,E,2,10,1.0,368.401,M,49.482,M,1.09,0195*7C
$GPVTG,308.8279,T,308.8279,M,0.715,N,1.325,K,D*20
$GPGGA,134355.80,4612.0791994,N,00607.2080700,E,2,10,1.0,368.413,M,49.482,M,1.29,0195*75
$RDENS,785,4943431,PC
$GPVTG,321.3766,T,321.3766,M,0.990,N,1.835,K,D*29
$GPGGA,134356.20,4612.0792909,N,00607.2079708,E,2,10,1.0,368.410,M,49.482,M,1.69,0195*72
$GPVTG,320.1614,T,320.1614,M,0.990,N,1.835,K,D*29
$GPGGA,134356.40,4612.0793417,N,00607.2079322,E,2,10,1.0,368.429,M,49.482,M,1.89,0195*7F
$GPVTG,330.2771,T,330.2771,M,1.104,N,2.045,K,D*21
$GPGGA,134356.80,4612.0794491,N,00607.2078502,E,2,10,1.0,368.429,M,49.482,M,2.29,0195*76
$RDENS,786,4943520,PC
$GPVTG,333.3857,T,333.3857,M,1.032,N,1.912,K,D*2D
$GPGGA,134357.00,4612.0795048,N,00607.2078106,E,2,10,1.0,368.441,M,49.482,M,2.49,0195*76
$GPVTG,338.1645,T,338.1645,M,1.159,N,2.148,K,D*25
$GPGGA,134357.40,4612.0796255,N,00607.2077471,E,2,10,1.0,368.424,M,49.482,M,2.89,0195*7A
$GPVTG,342.5112,T,342.5112,M,1.082,N,2.006,K,D*29
$GPGGA,134357.60,4612.0796754,N,00607.2077303,E,2,10,1.0,368.442,M,49.482,M,3.09,0195*77
$RDENS,787,4943608,PC
$GPVTG,345.7791,T,345.7791,M,1.031,N,1.910,K,D*2C
$GPGGA,134358.00,4612.0797974,N,00607.2076847,E,2,10,1.0,368.458,M,49.482,M,3.49,0195*76
$GPVTG,345.7144,T,345.7144,M,1.135,N,2.103,K,D*20
$GPGGA,134358.20,4612.0798599,N,00607.2076654,E,2,10,1.0,368.455,M,49.482,M,3.69,0195*77
$GPVTG,354.0449,T,354.0449,M,0.987,N,1.829,K,D*22
$GPGGA,134358.60,4612.0799584,N,00607.2076591,E,2,10,1.0,368.442,M,49.482,M,4.09,0195*73
$RDENS,788,4943696,PC
$GPVTG,357.5915,T,357.5915,M,0.983,N,1.821,K,D*2E
$GPGGA,134358.80,4612.0800273,N,00607.2076475,E,2,10,1.0,368.403,M,49.482,M,4.29,0195*71
$GPVTG,0.3444,T,0.3444,M,0.950,N,1.761,K,D*2B
$GPGGA,134359.00,4612.0800776,N,00607.2076435,E,2,10,1.0,368.405,M,49.482,M,4.49,0195*7C
$GPVTG,5.7982,T,5.7982,M,0.860,N,1.593,K,D*26
$GPGGA,134359.20,4612.0801235,N,00607.2076515,E,2,10,1.0,368.411,M,49.482,M,4.69,0195*79
$RDENS,789,4943784,PC
$GPVTG,3.6169,T,3.6169,M,0.936,N,1.735,K,D*2A
$GPGGA,134359.60,4612.0802155,N,00607.2076713,E,2,10,1.0,368.383,M,49.482,M,5.09,0195*74
$GPVTG,16.0839,T,16.0839,M,0.685,N,1.269,K,D*21
$GPGGA,134400.00,4612.0802924,N,00607.2077070,E,2,10,1.0,368.357,M,49.482,M,5.49,0195*79
$GPVTG,16.0760,T,16.0760,M,0.840,N,1.556,K,D*2D
$GPVTG,18.9296,T,18.9296,M,0.738,N,1.368,K,D*26
$GPVTG,20.7635,T,20.7635,M,0.793,N,1.470,K,D*29
$RDENS,790,4943872,PC
$GPVTG,25.6879,T,25.6879,M,0.884,N,1.639,K,D*2F
$GPVTG,32.6443,T,32.6443,M,0.624,N,1.157,K,D*24
$GPVTG,26.3440,T,26.3440,M,0.937,N,1.736,K,D*28
$GPVTG,30.5329,T,30.5329,M,0.678,N,1.256,K,D*2F
$RDENS,791,4943960,PC
$GPVTG,35.8888,T,35.8888,M,0.689,N,1.277,K,D*22
$GPVTG,31.8031,T,31.8031,M,0.772,N,1.430,K,D*22
$GPGGA,134401.60,4612.0807655,N,00607.2078671,E,2,11,0.9,368.359,M,49.482,M,7.09,0195*7B
$GPVTG,44.4530,T,44.4530,M,0.622,N,1.153,K,D*26
$GPGGA,134402.00,4612.0808247,N,00607.2079334,E,2,11,0.9,368.370,M,49.482,M,7.49,0195*7C
$GPVTG,36.5476,T,36.5476,M,0.805,N,1.491,K,D*26
$RDENS,792,4944048,PC
$GPGGA,134402.20,4612.0808135,N,00607.2079991,E,2,11,0.9,368.413,M,49.482,M,7.69,0195*7D
$GPVTG,38.2909,T,38.2909,M,0.905,N,1.677,K,D*2D
$GPVTG,39.3499,T,39.3499,M,0.969,N,1.795,K,D*2A
$GPVTG,39.6436,T,39.6436,M,0.789,N,1.462,K,D*21
$GPVTG,45.0924,T,45.0924,M,0.917,N,1.699,K,D*2E
$RDENS,793,4944136,PC
$GPVTG,42.6531,T,42.6531,M,0.858,N,1.589,K,D*26
$GPVTG,40.3049,T,40.3049,M,0.856,N,1.587,K,D*26
$GPVTG,37.1658,T,37.1658,M,0.982,N,1.819,K,D*24
$GPVTG,40.5711,T,40.5711,M,0.817,N,1.515,K,D*28
$RDENS,794,4944224,PC
$GPVTG,41.5290,T,41.5290,M,0.856,N,1.587,K,D*26
$GPVTG,37.4726,T,37.4726,M,0.941,N,1.745,K,D*2D
$GPVTG,45.0586,T,45.0586,M,0.802,N,1.486,K,D*27
$GPVTG,51.8333,T,51.8333,M,0.767,N,1.422,K,D*25
$GPVTG,34.8483,T,34.8483,M,0.902,N,1.673,K,D*2E
$RDENS,795,4944312,PC
$GPVTG,58.9022,T,58.9022,M,0.778,N,1.442,K,D*2D
$GPVTG,42.7907,T,42.7907,M,0.774,N,1.435,K,D*21
$GPVTG,57.8130,T,57.8130,M,0.735,N,1.363,K,D*20
$GPVTG,46.6953,T,46.6953,M,0.872,N,1.617,K,D*2A
$RDENS,796,4944400,PC
$GPVTG,58.0177,T,58.0177,M,0.641,N,1.189,K,D*24
$GPVTG,54.9187,T,54.9187,M,0.631,N,1.170,K,D*25
$GPVTG,60.4770,T,60.4770,M,0.653,N,1.210,K,D*24
$GPVTG,61.2044,T,61.2044,M,0.646,N,1.198,K,D*23
$GPGGA,134406.40,4612.0814402,N,00607.2089330,E,2,10,1.0,368.521,M,49.482,M,11.89,0195*4D
$RDENS,797,4944488,PC
$GPVTG,74.4771,T,74.4771,M,0.634,N,1.175,K,D*25
$GPGGA,134406.80,4612.0814582,N,00607.2090330,E,2,10,1.0,368.534,M,49.482,M,12.29,0195*4D
$GPVTG,84.6236,T,84.6236,M,0.588,N,1.090,K,D*2B
$GPGGA,134407.00,4612.0814445,N,00607.2090963,E,2,10,1.0,368.532,M,49.482,M,12.49,0195*42
$GPVTG,93.0768,T,93.0768,M,0.651,N,1.206,K,D*21
$GPGGA,134407.20,4612.0814440,N,00607.2091506,E,2,10,1.0,368.537,M,49.482,M,12.69,0195*4C
$RDENS,798,4944576,PC
$GPVTG,90.6453,T,90.6453,M,0.572,N,1.060,K,D*21
$GPGGA,134407.60,4612.0814331,N,00607.2092628,E,2,10,1.0,368.528,M,49.482,M,13.09,0195*4C
$GPVTG,101.4676,T,101.4676,M,0.666,N,1.234,K,D*24
$GPGGA,134407.80,4612.0814282,N,00607.2093150,E,2,10,1.0,368.526,M,49.482,M,13.29,0195*4E
$GPVTG,122.9196,T,122.9196,M,0.682,N,1.264,K,D*2B
$GPGGA,134408.20,4612.0813991,N,00607.2094029,E,2,10,1.0,368.540,M,49.482,M,13.69,0195*49
$RDENS,799,4944664,PC
$GPVTG,121.8077,T,121.8077,M,0.755,N,1.399,K,D*23
$GPGGA,134408.40,4612.0813902,N,00607.2094518,E,2,10,1.0,368.521,M,49.482,M,13.89,0195*4B
$GPVTG,131.4658,T,131.4658,M,0.721,N,1.337,K,D*24
$GPGGA,134408.80,4612.0813308,N,00607.2095495,E,2,10,1.0,368.539,M,49.482,M,14.29,0195*46
$GPVTG,138.8533,T,138.8533,M,0.971,N,1.799,K,D*2F
$GPGGA,134409.00,4612.0812961,N,00607.2095876,E,2,10,1.0,368.523,M,49.482,M,14.49,0195*47
$RDENS,800,4944752,PC
$GPVTG,142.1095,T,142.1095,M,0.873,N,1.618,K,D*24
$GPGGA,134409.40,4612.0812271,N,00607.2096908,E,2,10,1.0,368.466,M,49.482,M,14.89,0195*4E
$GPVTG,130.9388,T,130.9388,M,0.990,N,1.835,K,D*29
$GPGGA,134409.60,4612.0811592,N,00607.2097342,E,2,10,1.0,368.526,M,49.482,M,15.09,0195*4C
$GPVTG,158.9967,T,158.9967,M,1.276,N,2.364,K,D*27
$GPGGA,134410.00,4612.0810336,N,00607.2098145,E,2,10,1.0,368.510,M,49.482,M,15.49,0195*40
$RDENS,801,4944840,PC
$GPVTG,154.0507,T,154.0507,M,1.246,N,2.309,K,D*2F
$GPGGA,134410.20,4612.0809738,N,00607.2098574,E,2,10,1.0,368.483,M,49.482,M,15.69,0195*4F
$GPVTG,163.2324,T,163.2324,M,1.567,N,2.904,K,D*2C
$GPGGA,134410.60,4612.0808092,N,00607.2099258,E,2,10,1.0,368.516,M,49.482,M,16.09,0195*4D
$GPVTG,161.5496,T,161.5496,M,1.442,N,2.671,K,D*27
$GPGGA,134410.80,4612.0807127,N,00607.2099657,E,2,10,1.0,368.550,M,49.482,M,16.29,0195*48
$RDENS,802,4944928,PC
$GPVTG,170.9790,T,170.9790,M,1.766,N,3.272,K,D*24
$GPGGA,134411.20,4612.0805216,N,00607.2099821,E,2,10,1.0,368.536,M,49.482,M,16.69,0195*4B
$GPVTG,172.8825,T,172.8825,M,1.873,N,3.471,K,D*2A
$GPGGA,134411.40,4612.0804140,N,00607.2099936,E,2,10,1.0,368.538,M,49.482,M,16.89,0195*4B
$GPVTG,166.7257,T,166.7257,M,1.820,N,3.373,K,D*29
$GPGGA,134411.80,4612.0801814,N,00607.2100787,E,2,10,1.0,368.626,M,49.482,M,17.29,0195*48
$RDENS,803,4945016,PC
$GPVTG,172.5652,T,172.5652,M,2.218,N,4.111,K,D*2A
$GPGGA,134412.00,4612.0800599,N,00607.2100697,E,2,10,1.0,368.632,M,49.482,M,17.49,0195*49
$GPVTG,181.2811,T,181.2811,M,2.124,N,3.937,K,D*2D
$GPGGA,134412.40,4612.0797629,N,00607.2101896,E,2,09,1.0,368.865,M,49.482,M,0.05,0195*70
$GPVTG,181.9021,T,181.9021,M,2.194,N,4.066,K,D*2C
$GPGGA,134412.60,4612.0796449,N,00607.2101707,E,2,09,1.0,368.833,M,49.482,M,0.25,0195*71
$RDENS,804,4945103,PC
$GPVTG,182.1806,T,182.1806,M,2.483,N,4.601,K,D*28
$GPGGA,134413.00,4612.0793735,N,00607.2101332,E,2,09,1.0,368.848,M,49.482,M,0.65,0195*71
$GPVTG,188.0791,T,188.0791,M,2.480,N,4.596,K,D*26
$GPGGA,134413.20,4612.0792414,N,00607.2100952,E,2,09,1.0,368.824,M,49.482,M,0.12,0195*75
$GPVTG,189.8513,T,189.8513,M,2.579,N,4.779,K,D*22
$RDENS,805,4945191,PC
$GPGGA,134413.60,4612.0789765,N,00607.2099859,E,2,10,1.0,368.720,M,49.482,M,0.26,0195*71
$GPVTG,190.9906,T,190.9906,M,2.612,N,4.841,K,D*28
$GPGGA,134413.80,4612.0788356,N,00607.2099149,E,2,10,1.0,368.688,M,49.482,M,0.46,0195*77
$GPVTG,191.7840,T,191.7840,M,2.749,N,5.094,K,D*26
$GPGGA,134414.00,4612.0786744,N,00607.2098976,E,2,10,1.0,368.750,M,49.482,M,0.66,0195*72
$GPVTG,195.3855,T,195.3855,M,2.910,N,5.393,K,D*20
$RDENS,806,4945279,PC
$GPGGA,134414.40,4612.0783394,N,00607.2097987,E,2,10,1.0,368.850,M,49.482,M,1.06,0195*73
$GPVTG,195.1430,T,195.1430,M,2.952,N,5.471,K,D*2D
$GPGGA,134414.60,4612.0781531,N,00607.2097728,E,2,10,1.0,368.979,M,49.482,M,1.26,0195*79
$GPVTG,199.4162,T,199.4162,M,2.876,N,5.331,K,D*29
$GPGGA,134415.00,4612.0778497,N,00607.2096163,E,2,10,1.0,368.956,M,49.482,M,1.66,0195*74
$GPVTG,198.5096,T,198.5096,M,2.981,N,5.524,K,D*22
$RDENS,807,4945367,PC
$GPGGA,134415.20,4612.0776970,N,00607.2095236,E,2,10,1.0,368.933,M,49.482,M,0.01,0195*7F
$GPVTG,200.2009,T,200.2009,M,3.066,N,5.681,K,D*2F
$GPGGA,134415.60,4612.0773941,N,00607.2093387,E,2,10,1.0,368.930,M,49.482,M,0.41,0195*76
$GPVTG,200.0456,T,200.0456,M,3.004,N,5.568,K,D*2F
$GPGGA,134415.80,4612.0772461,N,00607.2092442,E,2,10,1.0,368.928,M,49.482,M,0.09,0195*7C
$GPVTG,202.0632,T,202.0632,M,2.960,N,5.487,K,D*25
$RDENS,808,4945455,PC
$GPGGA,134416.20,4612.0769657,N,00607.2090421,E,2,10,1.0,368.867,M,49.482,M,0.49,0195*71
$GPVTG,204.9548,T,204.9548,M,2.855,N,5.291,K,D*23
$GPGGA,134416.40,4612.0768209,N,00607.2089537,E,2,10,1.0,368.856,M,49.482,M,0.69,0195*77
$GPVTG,203.5426,T,203.5426,M,2.970,N,5.505,K,D*2F
$GPGGA,134416.80,4612.0765228,N,00607.2087814,E,2,10,1.0,368.861,M,49.482,M,1.09,0195*74
$GPVTG,204.2924,T,204.2924,M,2.745,N,5.088,K,D*27
$RDENS,809,4945543,PC
$GPGGA,134417.00,4612.0763900,N,00607.2086958,E,2,10,1.0,368.862,M,49.482,M,1.29,0195*73
$GPVTG,202.8547,T,202.8547,M,2.675,N,4.957,K,D*2F
$GPGGA,134417.40,4612.0761325,N,00607.2085020,E,2,10,1.0,368.796,M,49.481,M,1.69,0195*7E
$GPVTG,204.9506,T,204.9506,M,2.547,N,4.720,K,D*23
$GPGGA,134417.60,4612.0760127,N,00607.2083964,E,2,10,1.0,368.741,M,49.481,M,1.89,0195*76
$GPVTG,202.1507,T,202.1507,M,2.568,N,4.759,K,D*20
$RDENS,810,4945631,PC
$GPGGA,134418.00,4612.0757509,N,00607.2082338,E,2,10,1.0,368.718,M,49.481,M,2.29,0195*74
$GPVTG,203.2746,T,203.2746,M,2.574,N,4.770,K,D*26
$GPGGA,134418.20,4612.0756603,N,00607.2081297,E,2,10,1.0,368.615,M,49.481,M,2.49,0195*73
$GPVTG,204.2071,T,204.2071,M,2.259,N,4.186,K,D*21
$GPGGA,134418.40,4612.0755433,N,00607.2080548,E,2,10,1.0,368.600,M,49.481,M,2.69,0195*75
$GPVTG,203.9677,T,203.9677,M,2.258,N,4.185,K,D*23
$RDENS,811,4945719,PC
$GPGGA,134418.80,4612.0753539,N,00607.2078675,E,2,10,1.0,368.455,M,49.481,M,3.09,0195*7B
$GPVTG,203.4380,T,203.4380,M,2.141,N,3.967,K,D*2B
$GPGGA,134419.00,4612.0752485,N,00607.2077960,E,2,10,1.0,368.434,M,49.481,M,3.29,0195*74
$GPVTG,207.8135,T,207.8135,M,1.925,N,3.568,K,D*21
$GPGGA,134419.40,4612.0750640,N,00607.2076529,E,2,10,1.0,368.390,M,49.481,M,3.69,0195*74
$GPVTG,205.3181,T,205.3181,M,1.862,N,3.450,K,D*29
$RDENS,812,4945807,PC
$GPGGA,134419.60,4612.0749743,N,00607.2075839,E,2,10,1.0,368.375,M,49.481,M,3.89,0195*76
$GPVTG,207.1600,T,207.1600,M,1.790,N,3.318,K,D*20
$GPGGA,134420.00,4612.0748045,N,00607.2074525,E,2,10,1.0,368.383,M,49.481,M,4.29,0195*7F
$GPVTG,208.2714,T,208.2714,M,1.714,N,3.176,K,D*26
$GPGGA,134420.20,4612.0747498,N,00607.2073472,E,2,10,1.0,368.284,M,49.481,M,4.49,0195*72
$GPVTG,210.3808,T,210.3808,M,1.566,N,2.902,K,D*2B
$RDENS,813,4945895,PC
$GPGGA,134420.60,4612.0745985,N,00607.2072541,E,2,10,1.0,368.352,M,49.481,M,4.89,0195*73
$GPVTG,214.0276,T,214.0276,M,1.349,N,2.501,K,D*2F
$GPGGA,134420.80,4612.0745363,N,00607.2071901,E,2,10,1.0,368.361,M,49.481,M,5.09,0195*7D
$GPVTG,219.6341,T,219.6341,M,1.222,N,2.265,K,D*26
$GPGGA,134421.20,4612.0744519,N,00607.2070284,E,2,10,1.0,368.287,M,49.481,M,5.49,0195*76
$GPVTG,220.3649,T,220.3649,M,1.154,N,2.138,K,D*2F
$RDENS,814,4945983,PC
$GPGGA,134421.40,4612.0744102,N,00607.2069733,E,2,10,1.0,368.272,M,49.481,M,5.69,0195*77
$GPVTG,231.3962,T,231.3962,M,0.974,N,1.805,K,D*20
$GPGGA,134421.80,4612.0743551,N,00607.2068525,E,2,10,1.0,368.260,M,49.481,M,6.09,0195*7C
$GPVTG,237.2656,T,237.2656,M,0.823,N,1.526,K,D*2F
$GPGGA,134422.00,4612.0743384,N,00607.2067945,E,2,10,1.0,368.257,M,49.481,M,6.29,0195*7A
$GPVTG,244.7005,T,244.7005,M,0.732,N,1.356,K,D*21
$RDENS,815,4946071,PC
$GPGGA,134422.40,4612.0743361,N,00607.2066748,E,2,10,1.0,368.231,M,49.481,M,6.69,0195*73
$GPVTG,258.2294,T,258.2294,M,0.677,N,1.254,K,D*22
$GPGGA,134422.60,4612.0743072,N,00607.2066599,E,2,10,1.0,368.315,M,49.481,M,6.89,0195*77
$GPVTG,266.2377,T,266.2377,M,0.619,N,1.148,K,D*24
$GPVTG,273.4249,T,273.4249,M,0.574,N,1.063,K,D*24
$GPVTG,291.0778,T,291.0778,M,0.552,N,1.022,K,D*25
$RDENS,816,4946159,PC
$GPVTG,296.1681,T,296.1681,M,0.540,N,1.001,K,D*27
$GPVTG,304.5641,T,304.5641,M,0.543,N,1.007,K,D*22
$GPVTG,311.5334,T,311.5334,M,0.573,N,1.063,K,D*23
$GPVTG,319.2749,T,319.2749,M,0.551,N,1.022,K,D*26
$GPVTG,325.8936,T,325.8936,M,0.554,N,1.026,K,D*27
$RDENS,817,4946247,PC
$GPVTG,331.7105,T,331.7105,M,0.596,N,1.104,K,D*28
$GPVTG,331.6705,T,331.6705,M,0.557,N,1.032,K,D*21
$GPVTG,340.6989,T,340.6989,M,0.553,N,1.025,K,D*23
$GPGGA,134424.80,4612.0744611,N,00607.2062990,E,2,10,1.0,368.172,M,49.481,M,9.09,0195*7E
$GPVTG,348.6421,T,348.6421,M,0.545,N,1.010,K,D*22
$RDENS,818,4946335,PC
$GPGGA,134425.20,4612.0745206,N,00607.2062889,E,2,10,1.0,368.189,M,49.481,M,9.49,0195*7F
$GPVTG,352.5165,T,352.5165,M,0.494,N,0.916,K,D*21
$GPGGA,134425.40,4612.0745643,N,00607.2062774,E,2,10,1.0,368.193,M,49.481,M,9.69,0195*78
$GPVTG,4.3871,T,4.3871,M,0.444,N,0.823,K,D*2B
$GPGGA,134425.60,4612.0745873,N,00607.2062807,E,2,10,1.0,368.194,M,49.481,M,9.89,0195*75
$GPVTG,17.2388,T,17.2388,M,0.387,N,0.718,K,D*24
$RDENS,819,4946423,PC
$GPGGA,134426.00,4612.0746367,N,00607.2062935,E,2,11,0.8,368.194,M,49.481,M,10.29,0195*47
$GPVTG,20.5555,T,20.5555,M,0.340,N,0.629,K,D*2C
$GPGGA,134426.20,4612.0745443,N,00607.2063835,E,2,11,0.8,368.337,M,49.481,M,10.49,0195*4A
$GPVTG,54.6768,T,54.6768,M,0.245,N,0.455,K,D*21
$GPGGA,134426.60,4612.0745509,N,00607.2064344,E,2,11,0.8,368.332,M,49.481,M,0.07,0195*75
$GPVTG,77.8266,T,77.8266,M,0.223,N,0.414,K,D*24
$RDENS,820,4946512,PC
$GPGGA,134426.80,4612.0745757,N,00607.2064334,E,2,11,0.8,368.315,M,49.481,M,0.09,0195*7E
$GPVTG,109.5044,T,109.5044,M,0.270,N,0.501,K,D*27
$GPGGA,134427.20,4612.0745732,N,00607.2064703,E,2,11,0.8,368.321,M,49.481,M,0.49,0195*75
$GPVTG,133.0754,T,133.0754,M,0.442,N,0.819,K,D*24
$GPGGA,134427.40,4612.0745482,N,00607.2064982,E,2,11,0.8,368.347,M,49.481,M,0.69,0195*7E
$GPVTG,143.8637,T,143.8637,M,0.544,N,1.007,K,D*25
$RDENS,821,4946600,PC
$GPGGA,134427.80,4612.0744987,N,00607.2065626,E,2,11,0.8,368.391,M,49.481,M,1.09,0195*77
$GPVTG,147.4955,T,147.4955,M,0.662,N,1.227,K,D*22
$GPGGA,134428.00,4612.0744581,N,00607.2065891,E,2,11,0.8,368.414,M,49.481,M,1.29,0195*70
$GPVTG,159.5350,T,159.5350,M,0.932,N,1.728,K,D*22
$GPGGA,134428.40,4612.0743488,N,00607.2066366,E,2,11,0.8,368.386,M,49.481,M,1.69,0195*73
$GPVTG,158.7799,T,158.7799,M,0.919,N,1.703,K,D*22
$RDENS,822,4946688,PC
$GPGGA,134428.60,4612.0742784,N,00607.2066764,E,2,11,0.8,368.443,M,49.481,M,1.89,0195*79
$GPVTG,165.6757,T,165.6757,M,1.037,N,1.922,K,D*2B
$GPGGA,134429.00,4612.0741714,N,00607.2067039,E,2,11,0.8,368.435,M,49.481,M,2.29,0195*72
$GPVTG,167.5235,T,167.5235,M,1.234,N,2.286,K,D*2C
$GPGGA,134429.20,4612.0740926,N,00607.2067279,E,2,11,0.8,368.431,M,49.481,M,2.49,0195*7A
$GPVTG,170.6313,T,170.6313,M,1.265,N,2.345,K,D*26
$RDENS,823,4946776,PC
$GPGGA,134429.60,4612.0739235,N,00607.2067648,E,2,11,0.8,368.418,M,49.481,M,2.89,0195*78
$GPVTG,168.4898,T,168.4898,M,1.343,N,2.489,K,D*24
$GPGGA,134429.80,4612.0738205,N,00607.2068049,E,2,11,0.8,368.467,M,49.481,M,3.09,0195*7D
$GPVTG,172.4141,T,172.4141,M,1.474,N,2.731,K,D*27
$GPGGA,134430.20,4612.0736656,N,00607.2068305,E,2,11,0.8,368.454,M,49.481,M,3.49,0195*7C
$RDENS,824,4946864,PC
$GPVTG,169.8802,T,169.8802,M,1.415,N,2.623,K,D*22
$GPGGA,134430.40,4612.0735520,N,00607.2068688,E,2,11,0.8,368.487,M,49.481,M,3.69,0195*77
$GPVTG,168.6316,T,168.6316,M,1.470,N,2.724,K,D*27
$GPGGA,134430.80,4612.0733759,N,00607.2069356,E,2,11,0.8,368.523,M,49.481,M,4.09,0195*78
$GPVTG,165.5230,T,165.5230,M,1.458,N,2.702,K,D*29
$GPGGA,134431.00,4612.0733241,N,00607.2069413,E,2,11,0.8,368.490,M,49.481,M,4.29,0195*70
$RDENS,825,4946952,PC
$GPVTG,164.6576,T,164.6576,M,1.504,N,2.786,K,D*2D
$GPGGA,134431.20,4612.0732472,N,00607.2069723,E,2,11,0.8,368.488,M,49.481,M,4.49,0195*7A
$GPVTG,162.6087,T,162.6087,M,1.487,N,2.755,K,D*29
$GPGGA,134431.60,4612.0730943,N,00607.2070457,E,2,11,0.8,368.484,M,49.481,M,4.89,0195*7B
$GPVTG,162.3807,T,162.3807,M,1.592,N,2.950,K,D*27
$GPGGA,134431.80,4612.0730069,N,00607.2070902,E,2,11,0.8,368.486,M,49.481,M,5.09,0195*72
$RDENS,826,4947040,PC
$GPVTG,158.4787,T,158.4787,M,1.624,N,3.010,K,D*25
$GPGGA,134432.20,4612.0728862,N,00607.2071682,E,2,11,0.8,368.482,M,49.481,M,5.49,0195*77
$GPVTG,157.9398,T,157.9398,M,1.538,N,2.850,K,D*26
$GPGGA,134432.40,4612.0727938,N,00607.2072216,E,2,11,0.8,368.487,M,49.481,M,5.69,0195*7D
$GPVTG,159.7918,T,159.7918,M,1.588,N,2.943,K,D*2E
$GPGGA,134432.80,4612.0726249,N,00607.2073072,E,2,11,0.8,368.461,M,49.481,M,0.01,0195*7F
$RDENS,827,4947128,PC
$GPVTG,158.9679,T,158.9679,M,1.712,N,3.174,K,D*22
$GPGGA,134433.00,4612.0725263,N,00607.2073653,E,2,11,0.8,368.467,M,49.481,M,0.09,0195*76
$GPVTG,159.3652,T,159.3652,M,1.829,N,3.390,K,D*2D
$GPGGA,134433.40,4612.0723197,N,00607.2074809,E,2,11,0.8,368.493,M,49.481,M,0.02,0195*7A
$GPVTG,160.1955,T,160.1955,M,1.889,N,3.501,K,D*29
$GPGGA,134433.60,4612.0722428,N,00607.2075107,E,2,11,0.8,368.466,M,49.481,M,0.15,0195*72
$RDENS,828,4947216,PC
$GPVTG,163.5236,T,163.5236,M,2.095,N,3.882,K,D*29
$GPGGA,134434.00,4612.0720493,N,00607.2075942,E,2,11,0.8,368.509,M,49.481,M,0.25,0195*73
$GPVTG,164.0289,T,164.0289,M,1.996,N,3.698,K,D*25
$GPGGA,134434.20,4612.0719244,N,00607.2076432,E,2,11,0.8,368.538,M,49.481,M,0.45,0195*7A
$GPVTG,164.0735,T,164.0735,M,2.107,N,3.904,K,D*2C
$GPGGA,134434.60,4612.0717084,N,00607.2077079,E,2,11,0.8,368.537,M,49.481,M,0.85,0195*77
$RDENS,829,4947304,PC
$GPVTG,167.1562,T,167.1562,M,2.239,N,4.150,K,D*2C
$GPGGA,134434.80,4612.0715960,N,00607.2077450,E,2,11,0.8,368.552,M,49.481,M,1.05,0195*7D
$GPVTG,165.4100,T,165.4100,M,2.082,N,3.858,K,D*28
$GPGGA,134435.20,4612.0713744,N,00607.2078154,E,2,11,0.8,368.533,M,49.481,M,0.20,0195*77
$GPVTG,166.5345,T,166.5345,M,2.092,N,3.876,K,D*25
$GPGGA,134435.40,4612.0712499,N,00607.2078574,E,2,11,0.8,368.558,M,49.481,M,0.40,0195*7E
$RDENS,830,4947392,PC
$GPVTG,165.7678,T,165.7678,M,2.140,N,3.965,K,D*28
$GPGGA,134435.80,4612.0710147,N,00607.2079398,E,2,11,0.8,368.568,M,49.481,M,0.20,0195*76
$GPVTG,166.2053,T,166.2053,M,2.168,N,4.019,K,D*27
$GPGGA,134436.00,4612.0709015,N,00607.2079822,E,2,11,0.8,368.565,M,49.481,M,0.40,0195*72
$GPVTG,164.7707,T,164.7707,M,2.008,N,3.722,K,D*28
$GPGGA,134436.20,4612.0707852,N,00607.2080331,E,2,11,0.8,368.579,M,49.481,M,0.60,0195*75
$RDENS,831,4947480,PC
$GPVTG,166.3887,T,166.3887,M,1.990,N,3.688,K,D*22
$GPGGA,134436.60,4612.0705865,N,00607.2081061,E,2,12,0.8,368.518,M,49.481,M,1.00,0195*73
$GPVTG,164.5217,T,164.5217,M,1.975,N,3.659,K,D*25
$GPGGA,134436.80,4612.0705146,N,00607.2081378,E,2,12,0.8,368.486,M,49.481,M,1.20,0195*7A
$GPVTG,163.1643,T,163.1643,M,1.882,N,3.488,K,D*22
$GPGGA,134437.20,4612.0703267,N,00607.2082345,E,2,12,0.8,368.541,M,49.481,M,0.05,0195*76
$RDENS,832,4947568,PC
$GPVTG,161.4579,T,161.4579,M,1.775,N,3.289,K,D*22
$GPGGA,134437.40,4612.0702266,N,00607.2082872,E,2,12,0.8,368.544,M,49.481,M,0.25,0195*78
$GPVTG,157.9525,T,157.9525,M,1.668,N,3.091,K,D*24
$GPGGA,134437.80,4612.0700430,N,00607.2083901,E,2,12,0.8,368.557,M,49.481,M,0.65,0195*71
$GPVTG,157.6453,T,157.6453,M,1.672,N,3.098,K,D*26
$GPGGA,134438.00,4612.0699560,N,00607.2084446,E,2,12,0.8,368.544,M,49.481,M,0.85,0195*76
$RDENS,833,4947655,PC
$GPVTG,157.1378,T,157.1378,M,1.586,N,2.939,K,D*2D
$GPGGA,134438.40,4612.0698159,N,00607.2085362,E,2,12,0.8,368.520,M,49.481,M,1.25,0195*74
$GPVTG,154.0715,T,154.0715,M,1.690,N,3.132,K,D*2B
$GPGGA,134438.60,4612.0697336,N,00607.2085933,E,2,12,0.8,368.513,M,49.481,M,0.14,0195*7F
$GPVTG,152.1418,T,152.1418,M,1.736,N,3.217,K,D*22
$GPGGA,134439.00,4612.0695344,N,00607.2087546,E,2,12,0.8,368.567,M,49.481,M,0.26,0195*71
$RDENS,834,4947742,PC
$GPVTG,149.9742,T,149.9742,M,1.709,N,3.168,K,D*25
$GPGGA,134439.20,4612.0694555,N,00607.2088126,E,2,12,0.8,368.558,M,49.481,M,0.46,0195*73
$GPVTG,156.0152,T,156.0152,M,1.892,N,3.506,K,D*24
$GPGGA,134439.60,4612.0692476,N,00607.2089518,E,2,12,0.8,368.556,M,49.481,M,0.86,0195*7B
$GPVTG,153.9469,T,153.9469,M,1.888,N,3.500,K,D*29
$GPGGA,134439.80,4612.0691709,N,00607.2090047,E,2,12,0.8,368.520,M,49.481,M,1.06,0195*72
$RDENS,835,4947829,PC
$GPVTG,158.2124,T,158.2124,M,1.987,N,3.683,K,D*2F
$GPGGA,134440.20,4612.0689542,N,00607.2091283,E,2,12,0.8,368.536,M,49.481,M,1.46,0195*7A
$GPVTG,160.0785,T,160.0785,M,2.050,N,3.799,K,D*25
$GPGGA,134440.40,4612.0688480,N,00607.2091738,E,2,12,0.8,368.523,M,49.481,M,1.66,0195*71
$GPVTG,164.1062,T,164.1062,M,2.136,N,3.959,K,D*26
$GPGGA,134440.60,4612.0687526,N,00607.2092085,E,2,12,0.8,368.510,M,49.481,M,0.03,0195*71
$RDENS,836,4947915,PC
$GPVTG,167.2516,T,167.2516,M,2.230,N,4.133,K,D*20
$GPGGA,134441.00,4612.0685169,N,00607.2092908,E,2,12,0.8,368.539,M,49.481,M,0.43,0195*78
$GPVTG,167.5637,T,167.5637,M,2.231,N,4.134,K,D*26
$GPGGA,134441.20,4612.0683955,N,00607.2093266,E,2,12,0.8,368.554,M,49.481,M,0.63,0195*70
$GPVTG,168.1948,T,168.1948,M,2.168,N,4.018,K,D*26
$GPGGA,134441.60,4612.0681581,N,00607.2093800,E,2,12,0.8,368.520,M,49.481,M,1.03,0195*7D
$RDENS,837,4948001,PC
$GPVTG,170.4790,T,170.4790,M,2.260,N,4.189,K,D*24
$GPGGA,134441.80,4612.0680248,N,00607.2094223,E,2,12,0.8,368.550,M,49.481,M,1.23,0195*79
$GPVTG,169.5870,T,169.5870,M,2.107,N,3.905,K,D*2D
$GPGGA,134442.20,4612.0678019,N,00607.2094604,E,2,12,0.8,368.523,M,49.481,M,1.63,0195*70
$GPVTG,170.1577,T,170.1577,M,2.165,N,4.013,K,D*20
$RDENS,838,4948087,PC
$GPGGA,134442.40,4612.0677049,N,00607.2094729,E,2,12,0.8,368.493,M,49.481,M,0.16,0195*7B
$GPVTG,168.8613,T,168.8613,M,2.146,N,3.977,K,D*2D
$GPGGA,134442.80,4612.0674434,N,00607.2095678,E,2,12,0.8,368.564,M,49.481,M,0.05,0195*75
$GPVTG,169.1510,T,169.1510,M,2.144,N,3.973,K,D*2B
$GPGGA,134443.00,4612.0673415,N,00607.2095981,E,2,12,0.8,368.557,M,49.481,M,0.15,0195*70
$GPVTG,168.0987,T,168.0987,M,2.090,N,3.873,K,D*22
$RDENS,839,4948173,PC
$GPGGA,134443.40,4612.0671194,N,00607.2096725,E,2,12,0.8,368.557,M,49.481,M,0.55,0195*7D
$GPVTG,167.3863,T,167.3863,M,1.981,N,3.671,K,D*24
$GPGGA,134443.60,4612.0670328,N,00607.2097013,E,2,12,0.8,368.515,M,49.481,M,0.75,0195*7C
$GPVTG,165.3249,T,165.3249,M,1.924,N,3.566,K,D*2E
$GPGGA,134444.00,4612.0668181,N,00607.2097898,E,2,12,0.8,368.538,M,49.481,M,1.15,0195*76
$GPVTG,165.4234,T,165.4234,M,1.894,N,3.510,K,D*25
$RDENS,840,4948259,PC
$GPGGA,134444.20,4612.0667150,N,00607.2098304,E,2,12,0.8,368.564,M,49.481,M,1.35,0195*7D
$GPVTG,163.3733,T,163.3733,M,1.868,N,3.462,K,D*22
$GPGGA,134444.60,4612.0665484,N,00607.2098991,E,2,12,0.8,368.515,M,49.481,M,0.23,0195*71
$GPVTG,162.9496,T,162.9496,M,1.794,N,3.326,K,D*29
$GPGGA,134444.80,4612.0664329,N,00607.2099559,E,2,12,0.8,368.513,M,49.481,M,0.01,0195*71
$GPVTG,158.6307,T,158.6307,M,1.617,N,2.996,K,D*23
$RDENS,841,4948345,PC
$GPGGA,134445.20,4612.0662765,N,00607.2100358,E,2,12,0.8,368.507,M,49.481,M,0.07,0195*75
$GPVTG,160.1098,T,160.1098,M,1.720,N,3.187,K,D*2F
$GPGGA,134445.40,4612.0661793,N,00607.2100902,E,2,12,0.8,368.533,M,49.481,M,0.27,0195*79
$GPVTG,155.3892,T,155.3892,M,1.627,N,3.016,K,D*20
$GPGGA,134445.60,4612.0660994,N,00607.2101435,E,2,12,0.8,368.534,M,49.481,M,0.47,0195*7A
$GPVTG,153.6359,T,153.6359,M,1.672,N,3.099,K,D*27
$RDENS,842,4948431,PC
$GPGGA,134446.00,4612.0659222,N,00607.2102595,E,2,12,0.8,368.522,M,49.481,M,0.87,0195*70
$GPVTG,155.6421,T,155.6421,M,1.725,N,3.197,K,D*2B
$GPGGA,134446.20,4612.0658453,N,00607.2103084,E,2,12,0.8,368.519,M,49.481,M,1.07,0195*76
$GPVTG,154.1110,T,154.1110,M,1.766,N,3.272,K,D*24
$GPVTG,155.6631,T,155.6631,M,1.837,N,3.404,K,D*28
$RDENS,843,4948517,PC
$GPGGA,134446.80,4612.0655820,N,00607.2104934,E,2,12,0.8,368.489,M,49.481,M,1.67,0195*72
$GPVTG,155.2399,T,155.2399,M,1.669,N,3.093,K,D*27
$GPGGA,134447.00,4612.0653907,N,00607.2105978,E,2,11,0.9,368.331,M,49.481,M,0.12,0195*75
$GPVTG,155.4051,T,155.4051,M,1.866,N,3.458,K,D*25
$GPGGA,134447.40,4612.0651726,N,00607.2107469,E,2,11,0.9,368.299,M,49.481,M,0.28,0195*7B
$GPVTG,154.7756,T,154.7756,M,1.729,N,3.203,K,D*29
$RDENS,844,4948603,PC
$GPGGA,134447.60,4612.0651194,N,00607.2107790,E,2,11,0.9,368.284,M,49.481,M,0.48,0195*79
$GPVTG,157.8430,T,157.8430,M,1.816,N,3.366,K,D*28
$GPGGA,134448.00,4612.0649455,N,00607.2108844,E,2,11,0.9,368.275,M,49.481,M,0.88,0195*7A
$GPVTG,157.8099,T,157.8099,M,1.860,N,3.448,K,D*22
$GPGGA,134448.20,4612.0648268,N,00607.2109489,E,2,11,0.9,368.262,M,49.481,M,1.08,0195*72
$GPVTG,159.4016,T,159.4016,M,1.914,N,3.547,K,D*2E
$RDENS,845,4948689,PC
$GPGGA,134448.60,4612.0646137,N,00607.2110703,E,2,11,0.9,368.277,M,49.481,M,1.48,0195*78
$GPVTG,160.7068,T,160.7068,M,1.865,N,3.457,K,D*29
$GPGGA,134448.80,4612.0645462,N,00607.2110978,E,2,11,0.9,368.274,M,49.481,M,1.68,0195*73
$GPVTG,162.1473,T,162.1473,M,1.897,N,3.516,K,D*20
$GPGGA,134449.20,4612.0643585,N,00607.2111906,E,2,11,0.9,368.256,M,49.481,M,2.08,0195*7B
$GPVTG,160.9902,T,160.9902,M,1.964,N,3.639,K,D*23
$RDENS,846,4948775,PC
$GPGGA,134449.40,4612.0642270,N,00607.2112585,E,2,11,0.9,368.266,M,49.481,M,2.28,0195*74
$GPVTG,160.9188,T,160.9188,M,1.951,N,3.616,K,D*28
$GPGGA,134449.80,4612.0640272,N,00607.2113550,E,2,11,0.9,368.301,M,49.481,M,2.68,0195*75
$GPVTG,163.0058,T,163.0058,M,2.032,N,3.766,K,D*21
$GPGGA,134450.00,4612.0639383,N,00607.2113903,E,2,11,0.9,368.297,M,49.481,M,2.88,0195*7E
$GPVTG,162.6100,T,162.6100,M,2.009,N,3.724,K,D*2F
$RDENS,847,4948861,PC
$GPGGA,134450.40,4612.0637212,N,00607.2114975,E,2,11,0.9,368.330,M,49.481,M,3.28,0195*7C
$GPVTG,160.9246,T,160.9246,M,1.933,N,3.583,K,D*23
$GPGGA,134450.60,4612.0636513,N,00607.2115253,E,2,11,0.9,368.309,M,49.481,M,3.48,0195*7B
$GPVTG,162.4210,T,162.4210,M,2.061,N,3.820,K,D*2A
$GPGGA,134451.00,4612.0634497,N,00607.2116189,E,2,11,0.9,368.323,M,49.481,M,3.88,0195*70
$GPVTG,161.0389,T,161.0389,M,1.939,N,3.594,K,D*2F
$RDENS,848,4948946,PC
$GPGGA,134451.20,4612.0633039,N,00607.2116987,E,2,11,0.9,368.340,M,49.481,M,4.08,0195*79
$GPVTG,161.2652,T,161.2652,M,1.993,N,3.694,K,D*2C
$GPGGA,134451.60,4612.0631016,N,00607.2117954,E,2,11,0.9,368.341,M,49.481,M,4.48,0195*78
$GPVTG,160.0932,T,160.0932,M,2.015,N,3.734,K,D*23
$GPGGA,134451.80,4612.0630072,N,00607.2118539,E,2,11,0.9,368.377,M,49.481,M,4.68,0195*7A
$RDENS,849,4949031,PC
$GPVTG,158.0061,T,158.0061,M,2.020,N,3.743,K,D*25
$GPGGA,134452.20,4612.0627738,N,00607.2119902,E,2,11,0.9,368.402,M,49.481,M,5.08,0195*7B
$GPVTG,156.3736,T,156.3736,M,2.063,N,3.823,K,D*2B
$GPGGA,134452.40,4612.0626618,N,00607.2120646,E,2,11,0.9,368.425,M,49.481,M,5.28,0195*7D
$GPVTG,154.0359,T,154.0359,M,2.018,N,3.739,K,D*23
$GPGGA,134452.60,4612.0625792,N,00607.2121203,E,2,11,0.9,368.439,M,49.481,M,5.48,0195*70
$GPVTG,153.5230,T,153.5230,M,2.023,N,3.749,K,D*2C
$RDENS,850,4949128,PC
$GPGGA,134453.00,4612.0623804,N,00607.2122522,E,2,11,0.9,368.431,M,49.481,M,5.88,0195*72
$GPVTG,154.4229,T,154.4229,M,2.063,N,3.824,K,D*2C
$GPGGA,134453.20,4612.0622779,N,00607.2123226,E,2,11,0.9,368.408,M,49.481,M,6.08,0195*77
$GPVTG,153.1480,T,153.1480,M,2.103,N,3.897,K,D*23
$GPGGA,134453.60,4612.0620852,N,00607.2124580,E,2,11,0.9,368.400,M,49.481,M,6.48,0195*77
$GPVTG,153.0409,T,153.0409,M,2.142,N,3.969,K,D*26
$RDENS,851,4949225,PC
$GPGGA,134453.80,4612.0619580,N,00607.2125537,E,2,11,0.9,368.396,M,49.481,M,6.68,0195*76
$GPVTG,151.6286,T,151.6286,M,2.212,N,4.100,K,D*20
$GPGGA,134454.20,4612.0617681,N,00607.2127079,E,2,11,0.9,368.414,M,49.481,M,7.08,0195*70
$GPVTG,152.7485,T,152.7485,M,2.212,N,4.099,K,D*21
$GPGGA,134454.40,4612.0616542,N,00607.2127927,E,2,11,0.9,368.400,M,49.481,M,7.28,0195*7E
$GPVTG,155.6857,T,155.6857,M,2.435,N,4.513,K,D*25
$GPGGA,134454.80,4612.0614117,N,00607.2129504,E,2,11,0.9,368.391,M,49.481,M,7.68,0195*7C
$RDENS,852,4949322,PC
$GPVTG,153.7947,T,153.7947,M,2.341,N,4.339,K,D*2F
$GPGGA,134455.00,4612.0612962,N,00607.2130294,E,2,11,0.9,368.377,M,49.481,M,7.88,0195*79
$GPVTG,156.0824,T,156.0824,M,2.576,N,4.774,K,D*20
$GPGGA,134455.40,4612.0610365,N,00607.2131826,E,2,11,0.9,368.313,M,49.481,M,8.28,0195*77
$GPVTG,156.3720,T,156.3720,M,2.604,N,4.826,K,D*2E
$GPGGA,134455.60,4612.0609168,N,00607.2132534,E,2,11,0.9,368.357,M,49.481,M,8.48,0195*79
$RDENS,853,4949413,PC
$GPVTG,158.6930,T,158.6930,M,2.700,N,5.003,K,D*25
$GPGGA,134456.00,4612.0606383,N,00607.2133867,E,2,11,0.9,368.348,M,49.481,M,8.88,0195*7C
$GPVTG,162.4780,T,162.4780,M,2.732,N,5.063,K,D*22
$GPGGA,134456.20,4612.0604930,N,00607.2134512,E,2,11,0.9,368.391,M,49.481,M,0.02,0195*78
$GPVTG,166.2267,T,166.2267,M,2.898,N,5.370,K,D*2C
$GPGGA,134456.60,4612.0601374,N,00607.2137792,E,4,06,2.0,368.411,M,49.481,M,0.42,0195*7A
$GPVTG,168.8653,T,168.8653,M,3.139,N,5.818,K,D*2A
$RDENS,854,4949505,PC
$GPGGA,134456.80,4612.0599738,N,00607.2138274,E,4,06,2.0,368.412,M,49.481,M,0.62,0195*79
$GPVTG,170.0186,T,170.0186,M,3.148,N,5.833,K,D*25
$GPGGA,134457.20,4612.0596305,N,00607.2139094,E,4,06,2.0,368.386,M,49.481,M,1.02,0195*77
$GPVTG,169.7904,T,169.7904,M,3.148,N,5.835,K,D*23
$GPGGA,134457.40,4612.0594671,N,00607.2139412,E,4,06,2.0,368.394,M,49.481,M,1.22,0195*7E
$GPVTG,172.8774,T,172.8774,M,3.003,N,5.565,K,D*25
$RDENS,855,4949596,PC
$GPGGA,134457.60,4612.0592853,N,00607.2139769,E,4,06,2.0,368.371,M,49.481,M,1.42,0195*76
$GPVTG,171.6718,T,171.6718,M,3.036,N,5.627,K,D*26
$GPGGA,134458.00,4612.0589533,N,00607.2140389,E,4,06,2.0,368.393,M,49.481,M,1.82,0195*7A
$GPVTG,172.9835,T,172.9835,M,3.027,N,5.610,K,D*22
$GPGGA,134458.20,4612.0587855,N,00607.2140759,E,4,06,2.0,368.409,M,49.481,M,2.02,0195*7D
$GPVTG,172.6913,T,172.6913,M,3.079,N,5.707,K,D*2E
$RDENS,856,4949687,PC
$GPGGA,134458.60,4612.0584547,N,00607.2141545,E,4,06,2.0,368.433,M,49.481,M,2.42,0195*77
$GPVTG,169.4156,T,169.4156,M,3.023,N,5.603,K,D*24
$GPGGA,134458.80,4612.0582950,N,00607.2142034,E,4,06,2.0,368.439,M,49.481,M,2.62,0195*7D
$GPVTG,167.2627,T,167.2627,M,2.985,N,5.533,K,D*20
$GPGGA,134459.20,4612.0579702,N,00607.2143181,E,4,06,2.0,368.441,M,49.481,M,3.02,0195*7D
$GPVTG,166.0668,T,166.0668,M,3.018,N,5.594,K,D*21
$RDENS,857,4949778,PC
$GPGGA,134459.40,4612.0578175,N,00607.2143856,E,4,06,2.0,368.455,M,49.481,M,3.22,0195*78
$GPVTG,162.8957,T,162.8957,M,3.053,N,5.658,K,D*2D
$GPGGA,134459.80,4612.0574908,N,00607.2145345,E,4,06,2.0,368.480,M,49.481,M,3.62,0195*79
$GPVTG,162.0607,T,162.0607,M,3.018,N,5.593,K,D*26
$GPGGA,134500.00,4612.0573285,N,00607.2146236,E,4,06,2.0,368.477,M,49.481,M,3.82,0195*75
$GPVTG,159.6208,T,159.6208,M,3.170,N,5.874,K,D*2D
$RDENS,858,4949869,PC
$GPGGA,134500.40,4612.0570088,N,00607.2147987,E,4,06,2.0,368.502,M,49.481,M,4.22,0195*73
$GPVTG,158.8580,T,158.8580,M,3.136,N,5.812,K,D*2F
$GPGGA,134500.60,4612.0568417,N,00607.2148918,E,4,06,2.0,368.493,M,49.481,M,4.42,0195*7C
$GPVTG,159.6745,T,159.6745,M,3.369,N,6.244,K,D*2D
$GPGGA,134501.00,4612.0564940,N,00607.2150654,E,4,06,2.0,368.501,M,49.481,M,4.82,0195*70
$GPVTG,161.8565,T,161.8565,M,3.427,N,6.351,K,D*25
$GPGGA,134501.20,4612.0563102,N,00607.2151495,E,4,06,2.0,368.511,M,49.481,M,5.02,0195*7D
$RDENS,859,4949966,PC
$GPVTG,165.4630,T,165.4630,M,3.549,N,6.578,K,D*21
$GPGGA,134501.60,4612.0559251,N,00607.2152901,E,4,06,2.0,368.523,M,49.481,M,5.42,0195*73
$GPVTG,166.4420,T,166.4420,M,3.698,N,6.854,K,D*2D
$GPGGA,134501.80,4612.0557157,N,00607.2153406,E,4,06,2.0,368.505,M,49.481,M,5.62,0195*7B
$GPVTG,173.8114,T,173.8114,M,3.857,N,7.148,K,D*25
$GPGGA,134502.00,4612.0554965,N,00607.2153812,E,4,06,2.0,368.462,M,49.481,M,5.82,0195*7D
$GPVTG,173.9439,T,173.9439,M,3.878,N,7.186,K,D*2A
$RDENS,860,4950062,PC
$GPGGA,134502.40,4612.0550637,N,00607.2154156,E,4,05,2.0,368.415,M,49.481,M,6.22,0195*71
$GPVTG,178.3835,T,178.3835,M,3.885,N,7.199,K,D*26
$GPGGA,134502.60,4612.0548329,N,00607.2154085,E,4,05,2.0,368.386,M,49.481,M,6.42,0195*74
$GPVTG,183.3272,T,183.3272,M,3.959,N,7.338,K,D*2F
$GPGGA,134503.00,4612.0543960,N,00607.2153561,E,4,05,2.0,368.395,M,49.481,M,6.82,0195*79
$GPVTG,185.7739,T,185.7739,M,4.032,N,7.472,K,D*25
$RDENS,861,4950154,PC
$GPGGA,134503.20,4612.0541715,N,00607.2153118,E,4,05,2.0,368.383,M,49.481,M,7.02,0195*71
$GPVTG,191.2138,T,191.2138,M,4.088,N,7.577,K,D*20
$GPGGA,134503.60,4612.0537161,N,00607.2151877,E,4,05,2.0,368.372,M,49.481,M,7.42,0195*79
$GPVTG,191.6754,T,191.6754,M,4.162,N,7.713,K,D*25
$GPGGA,134503.80,4612.0534938,N,00607.2151035,E,4,05,2.0,368.369,M,49.481,M,7.62,0195*76
$GPVTG,196.6054,T,196.6054,M,4.186,N,7.758,K,D*20
$RDENS,862,4950245,PC
$GPGGA,134504.20,4612.0530549,N,00607.2149086,E,4,05,2.0,368.387,M,49.481,M,0.06,0195*71
$GPVTG,196.9275,T,196.9275,M,4.150,N,7.691,K,D*2F
$GPGGA,134504.40,4612.0528236,N,00607.2148082,E,4,05,2.0,368.358,M,49.481,M,0.05,0195*75
$GPVTG,198.6583,T,198.6583,M,4.194,N,7.773,K,D*2A
$GPGGA,134504.80,4612.0523815,N,00607.2145921,E,4,05,2.0,368.355,M,49.481,M,0.35,0195*7A
$GPVTG,199.6520,T,199.6520,M,4.152,N,7.694,K,D*28
$RDENS,863,4950336,PC
$GPGGA,134505.00,4612.0521700,N,00607.2144756,E,4,05,2.0,368.386,M,49.481,M,0.55,0195*7D
$GPVTG,200.0297,T,200.0297,M,4.273,N,7.919,K,D*22
$GPGGA,134505.40,4612.0517152,N,00607.2142539,E,4,05,2.0,368.372,M,49.481,M,0.95,0195*77
$GPVTG,199.8955,T,199.8955,M,4.174,N,7.735,K,D*26
$GPGGA,134505.60,4612.0515077,N,00607.2141381,E,4,05,2.0,368.388,M,49.481,M,1.15,0195*7B
$GPVTG,199.4968,T,199.4968,M,4.063,N,7.529,K,D*2E
$RDENS,864,4950427,PC
$GPGGA,134506.00,4612.0510783,N,00607.2139259,E,4,05,2.0,368.417,M,49.481,M,1.55,0195*79
$GPVTG,198.2948,T,198.2948,M,4.126,N,7.646,K,D*24
$GPGGA,134506.20,4612.0508642,N,00607.2138290,E,4,05,2.0,368.428,M,49.481,M,0.10,0195*76
$GPVTG,197.2001,T,197.2001,M,3.908,N,7.242,K,D*27
$GPGGA,134506.60,4612.0504553,N,00607.2136501,E,4,05,2.0,368.450,M,49.481,M,0.30,0195*71
$GPVTG,195.6756,T,195.6756,M,3.847,N,7.129,K,D*23
$RDENS,865,4950518,PC
$GPGGA,134506.80,4612.0502414,N,00607.2135842,E,4,05,2.0,368.421,M,49.481,M,0.50,0195*72
$GPVTG,193.3458,T,193.3458,M,3.747,N,6.944,K,D*2E
$GPGGA,134507.00,4612.0500393,N,00607.2135143,E,4,05,2.0,368.428,M,49.481,M,0.70,0195*72
$GPVTG,191.8751,T,191.8751,M,3.631,N,6.729,K,D*2B
$GPGGA,134507.40,4612.0496455,N,00607.2134069,E,4,05,2.0,368.421,M,49.481,M,1.10,0195*73
$GPVTG,190.2618,T,190.2618,M,3.581,N,6.637,K,D*2D
$RDENS,866,4950609,PC
$GPGGA,134507.60,4612.0494599,N,00607.2133591,E,4,05,2.0,368.424,M,49.481,M,1.30,0195*70
$GPVTG,188.5522,T,188.5522,M,3.456,N,6.405,K,D*25
$GPGGA,134508.00,4612.0490848,N,00607.2132938,E,4,05,2.0,368.464,M,49.481,M,1.70,0195*72
$GPVTG,186.1703,T,186.1703,M,3.319,N,6.151,K,D*2D
$GPGGA,134508.20,4612.0489047,N,00607.2132756,E,4,05,2.0,368.462,M,49.481,M,1.90,0195*71
$GPVTG,182.2494,T,182.2494,M,3.259,N,6.040,K,D*29
$RDENS,867,4950700,PC
$GPVTG,178.8840,T,178.8840,M,3.182,N,5.898,K,D*22
$GPGGA,134508.80,4612.0483621,N,00607.2132822,E,4,05,2.0,368.462,M,49.481,M,2.50,0195*74
$GPVTG,176.6997,T,176.6997,M,3.184,N,5.902,K,D*26
$GPGGA,134509.00,4612.0481905,N,00607.2132929,E,4,05,2.0,368.461,M,49.481,M,2.70,0195*7D
$GPVTG,176.7516,T,176.7516,M,3.153,N,5.844,K,D*2F
$GPGGA,134509.40,4612.0478369,N,00607.2133331,E,4,05,2.0,368.423,M,49.481,M,3.10,0195*7C
$RDENS,868,4950791,PC
$GPVTG,174.2644,T,174.2644,M,3.182,N,5.898,K,D*22
$GPGGA,134509.60,4612.0476658,N,00607.2133506,E,4,05,2.0,368.418,M,49.481,M,3.30,0195*7F
$GPVTG,174.2410,T,174.2410,M,3.178,N,5.890,K,D*2F
$GPGGA,134510.00,4612.0473115,N,00607.2134024,E,4,05,2.0,368.399,M,49.481,M,3.70,0195*72
$GPVTG,174.2907,T,174.2907,M,3.176,N,5.885,K,D*25
$GPGGA,134510.20,4612.0471379,N,00607.2134259,E,4,05,2.0,368.398,M,49.481,M,3.90,0195*7D
$GPVTG,175.1298,T,175.1298,M,3.225,N,5.976,K,D*2D
$RDENS,869,4950882,PC
$GPGGA,134510.60,4612.0467821,N,00607.2134763,E,4,05,2.0,368.402,M,49.481,M,4.30,0195*7D
$GPVTG,174.2420,T,174.2420,M,3.172,N,5.878,K,D*23
$GPGGA,134510.80,4612.0466129,N,00607.2134947,E,4,05,2.0,368.424,M,49.481,M,4.50,0195*79
$GPVTG,174.1788,T,174.1788,M,3.209,N,5.948,K,D*2E
$GPGGA,134511.20,4612.0462530,N,00607.2135497,E,4,05,2.0,368.416,M,49.481,M,4.90,0195*76
$GPVTG,174.2667,T,174.2667,M,3.236,N,5.998,K,D*2F
$RDENS,870,4950974,PC
$GPGGA,134511.40,4612.0460749,N,00607.2135774,E,4,05,2.0,368.407,M,49.481,M,5.10,0195*79
$GPVTG,172.7103,T,172.7103,M,3.186,N,5.904,K,D*22
$GPGGA,134511.80,4612.0457298,N,00607.2136390,E,4,05,2.0,368.412,M,49.481,M,5.50,0195*75
$GPVTG,173.9595,T,173.9595,M,3.108,N,5.760,K,D*28
$GPGGA,134512.00,4612.0455580,N,00607.2136679,E,4,05,2.0,368.428,M,49.481,M,5.70,0195*7B
$GPVTG,171.9115,T,171.9115,M,3.107,N,5.758,K,D*2C
$RDENS,871,4951065,PC
$GPGGA,134512.40,4612.0452149,N,00607.2137382,E,4,05,2.0,368.422,M,49.481,M,6.10,0195*76
$GPVTG,172.1159,T,172.1159,M,3.087,N,5.721,K,D*2B
$GPGGA,134512.60,4612.0450428,N,00607.2137790,E,4,05,2.0,368.412,M,49.481,M,6.30,0195*72
$GPVTG,171.4814,T,171.4814,M,3.148,N,5.835,K,D*23
$GPGGA,134512.80,4612.0448677,N,00607.2138191,E,4,05,2.0,368.430,M,49.481,M,6.50,0195*73
$GPVTG,170.0030,T,170.0030,M,3.036,N,5.627,K,D*26
$RDENS,872,4951157,PC
$GPGGA,134513.20,4612.0445330,N,00607.2138987,E,4,05,2.0,368.434,M,49.481,M,6.90,0195*74
$GPVTG,170.1631,T,170.1631,M,3.068,N,5.687,K,D*27
$GPGGA,134513.40,4612.0443686,N,00607.2139490,E,4,05,2.0,368.443,M,49.481,M,7.10,0195*7F
$GPVTG,167.8403,T,167.8403,M,3.059,N,5.668,K,D*24
$GPGGA,134513.80,4612.0440380,N,00607.2140564,E,4,05,2.0,368.445,M,49.481,M,0.01,0195*76
$GPVTG,167.2649,T,167.2649,M,2.969,N,5.503,K,D*21
$RDENS,873,4951248,PC
$GPGGA,134514.00,4612.0438752,N,00607.2141110,E,4,05,2.0,368.448,M,49.481,M,0.07,0195*70
$GPVTG,164.9934,T,164.9934,M,3.088,N,5.723,K,D*26
$GPGGA,134514.40,4612.0435514,N,00607.2142355,E,4,05,2.0,368.439,M,49.481,M,0.33,0195*78
$GPVTG,164.6313,T,164.6313,M,2.932,N,5.434,K,D*2A
$GPGGA,134514.60,4612.0433891,N,00607.2143075,E,4,05,2.0,368.442,M,49.481,M,0.53,0195*76
$GPVTG,164.4194,T,164.4194,M,3.105,N,5.754,K,D*22
$GPGGA,134515.00,4612.0430556,N,00607.2144444,E,4,05,2.0,368.417,M,49.481,M,0.93,0195*79
$RDENS,874,4951340,PC
$GPVTG,163.6416,T,163.6416,M,3.045,N,5.642,K,D*21
$GPGGA,134515.20,4612.0428920,N,00607.2145156,E,4,05,2.0,368.425,M,49.481,M,0.10,0195*72
$GPVTG,163.9402,T,163.9402,M,3.075,N,5.698,K,D*25
$GPGGA,134515.60,4612.0425765,N,00607.2146333,E,4,05,2.0,368.447,M,49.481,M,0.21,0195*70
$GPVTG,165.2320,T,165.2320,M,3.032,N,5.620,K,D*25
$GPGGA,134515.80,4612.0424135,N,00607.2146942,E,4,05,2.0,368.441,M,49.481,M,0.41,0195*70
$RDENS,875,4951431,PC
$GPVTG,166.8966,T,166.8966,M,3.004,N,5.568,K,D*2F
$GPGGA,134516.20,4612.0420870,N,00607.2148034,E,4,05,2.0,368.430,M,49.481,M,0.81,0195*79
$GPVTG,165.5606,T,165.5606,M,3.012,N,5.582,K,D*2C
$GPGGA,134516.40,4612.0419273,N,00607.2148548,E,4,05,2.0,368.430,M,49.481,M,1.01,0195*7B
$GPVTG,168.1923,T,168.1923,M,3.021,N,5.599,K,D*26
$GPGGA,134516.80,4612.0415996,N,00607.2149506,E,4,05,2.0,368.430,M,49.481,M,1.41,0195*74
$RDENS,876,4951523,PC
$GPVTG,169.0933,T,169.0933,M,2.964,N,5.493,K,D*24
$GPGGA,134517.00,4612.0414375,N,00607.2149965,E,4,05,2.0,368.439,M,49.481,M,1.61,0195*79
$GPVTG,169.4656,T,169.4656,M,2.899,N,5.373,K,D*2E
$GPGGA,134517.40,4612.0411117,N,00607.2150766,E,4,05,2.0,368.434,M,49.481,M,2.01,0195*73
$GPVTG,170.4976,T,170.4976,M,3.001,N,5.561,K,D*23
$GPGGA,134517.60,4612.0409514,N,00607.2151160,E,4,05,2.0,368.430,M,49.481,M,2.21,0195*78
$GPVTG,170.8175,T,170.8175,M,2.981,N,5.524,K,D*22
$RDENS,877,4951613,PC
$GPGGA,134517.80,4612.0407890,N,00607.2151497,E,4,05,2.0,368.453,M,49.481,M,2.41,0195*77
$GPVTG,172.0708,T,172.0708,M,2.873,N,5.325,K,D*29
$GPGGA,134518.20,4612.0404620,N,00607.2152192,E,4,05,2.0,368.440,M,49.481,M,0.04,0195*76
$GPVTG,172.1058,T,172.1058,M,3.004,N,5.568,K,D*2F
$GPGGA,134518.40,4612.0402975,N,00607.2152564,E,4,05,2.0,368.437,M,49.481,M,0.24,0195*76
$GPVTG,172.1712,T,172.1712,M,2.942,N,5.452,K,D*2D
$RDENS,878,4951705,PC
$GPGGA,134518.80,4612.0399810,N,00607.2153147,E,4,05,2.0,368.451,M,49.481,M,0.64,0195*7D
$GPVTG,172.5040,T,172.5040,M,2.888,N,5.353,K,D*2C
$GPGGA,134519.00,4612.0398217,N,00607.2153449,E,4,05,2.0,368.447,M,49.481,M,0.84,0195*7A
$GPVTG,173.4659,T,173.4659,M,2.920,N,5.411,K,D*2E
$GPGGA,134519.40,4612.0395064,N,00607.2154013,E,4,05,2.0,368.439,M,49.481,M,1.24,0195*7B
$GPVTG,172.6261,T,172.6261,M,2.783,N,5.157,K,D*2E
$RDENS,879,4951796,PC
$GPGGA,134519.60,4612.0393480,N,00607.2154330,E,4,05,2.0,368.443,M,49.481,M,0.12,0195*7A
$GPVTG,172.6989,T,172.6989,M,2.787,N,5.166,K,D*28
$GPGGA,134520.00,4612.0390363,N,00607.2154892,E,4,05,2.0,368.431,M,49.481,M,0.28,0195*70
$GPVTG,173.1693,T,173.1693,M,2.787,N,5.164,K,D*2A
$GPGGA,134520.20,4612.0388801,N,00607.2155182,E,4,05,2.0,368.429,M,49.481,M,0.03,0195*7D
$GPVTG,170.8818,T,170.8818,M,2.713,N,5.028,K,D*2E
$RDENS,880,4951887,PC
$GPGGA,134520.60,4612.0385780,N,00607.2155798,E,4,05,2.0,368.411,M,49.481,M,0.43,0195*70
$GPVTG,172.8512,T,172.8512,M,2.743,N,5.084,K,D*2D
$GPGGA,134520.80,4612.0384234,N,00607.2156160,E,4,05,2.0,368.417,M,49.481,M,0.63,0195*73
$GPVTG,171.6811,T,171.6811,M,2.690,N,4.986,K,D*28
$GPGGA,134521.20,4612.0381426,N,00607.2156819,E,4,05,2.0,368.439,M,49.480,M,1.03,0195*75
$GPVTG,169.7798,T,169.7798,M,2.552,N,4.730,K,D*26
$RDENS,881,4951979,PC
$GPGGA,134521.40,4612.0379937,N,00607.2157255,E,4,05,2.0,368.426,M,49.480,M,1.23,0195*76
$GPVTG,168.4612,T,168.4612,M,2.556,N,4.737,K,D*25
$GPGGA,134521.80,4612.0377254,N,00607.2157962,E,4,05,2.0,368.431,M,49.480,M,1.63,0195*77
$GPVTG,168.9997,T,168.9997,M,2.541,N,4.710,K,D*26
$GPGGA,134522.00,4612.0375901,N,00607.2158383,E,4,05,2.0,368.434,M,49.480,M,1.83,0195*74
$GPVTG,169.6809,T,169.6809,M,2.332,N,4.322,K,D*21
$RDENS,882,4952070,PC
$GPGGA,134522.40,4612.0373223,N,00607.2159239,E,4,05,2.0,368.466,M,49.480,M,2.23,0195*72
$GPVTG,168.1949,T,168.1949,M,2.489,N,4.613,K,D*21
$GPGGA,134522.60,4612.0372135,N,00607.2159599,E,4,05,2.0,368.457,M,49.480,M,0.13,0195*7B
$GPVTG,164.9582,T,164.9582,M,2.146,N,3.976,K,D*2C
$GPGGA,134522.80,4612.0371008,N,00607.2160033,E,4,05,2.0,368.460,M,49.480,M,0.33,0195*70
$GPVTG,165.6233,T,165.6233,M,2.073,N,3.843,K,D*2C
$RDENS,883,4952160,PC
$GPGGA,134523.20,4612.0368708,N,00607.2160894,E,4,05,2.0,368.464,M,49.480,M,0.73,0195*71
$GPVTG,165.9787,T,165.9787,M,2.167,N,4.016,K,D*27
$GPGGA,134523.40,4612.0367663,N,00607.2161322,E,4,05,2.0,368.455,M,49.480,M,0.93,0195*7F
$GPVTG,164.3317,T,164.3317,M,1.997,N,3.700,K,D*24
$GPGGA,134523.80,4612.0365554,N,00607.2162190,E,4,05,2.0,368.449,M,49.480,M,1.33,0195*78
$GPVTG,162.5977,T,162.5977,M,1.861,N,3.449,K,D*22
$RDENS,884,4952250,PC
$GPGGA,134524.00,4612.0364591,N,00607.2162657,E,4,05,2.0,368.471,M,49.480,M,1.53,0195*7E
$GPVTG,160.5323,T,160.5323,M,1.875,N,3.476,K,D*2B
$GPGGA,134524.40,4612.0362622,N,00607.2163667,E,4,05,2.0,368.458,M,49.480,M,1.93,0195*72
$GPVTG,161.3658,T,161.3658,M,1.700,N,3.151,K,D*26
$GPGGA,134524.60,4612.0361793,N,00607.2164128,E,4,05,2.0,368.465,M,49.480,M,2.13,0195*76
$GPVTG,157.1435,T,157.1435,M,1.616,N,2.996,K,D*22
$GPGGA,134525.00,4612.0360188,N,00607.2165059,E,4,05,2.0,368.466,M,49.480,M,2.53,0195*7D
$RDENS,885,4952340,PC
$GPVTG,157.4067,T,157.4067,M,1.605,N,2.975,K,D*2D
$GPGGA,134525.20,4612.0359437,N,00607.2165583,E,4,05,2.0,368.446,M,49.480,M,2.73,0195*76
$GPVTG,153.2811,T,153.2811,M,1.552,N,2.877,K,D*2F
$GPGGA,134525.60,4612.0358018,N,00607.2166575,E,4,05,2.0,368.475,M,49.480,M,3.13,0195*77
$GPVTG,152.6218,T,152.6218,M,1.461,N,2.708,K,D*29
$GPGGA,134525.80,4612.0357130,N,00607.2167227,E,4,05,2.0,368.434,M,49.480,M,3.33,0195*7B
$RDENS,886,4952429,PC
$GPVTG,148.3438,T,148.3438,M,1.451,N,2.689,K,D*22
$GPGGA,134526.20,4612.0355748,N,00607.2168365,E,4,05,2.0,368.460,M,49.480,M,3.73,0195*74
$GPVTG,152.1499,T,152.1499,M,1.473,N,2.729,K,D*29
$GPGGA,134526.40,4612.0355012,N,00607.2169032,E,4,05,2.0,368.438,M,49.480,M,3.93,0195*79
$GPVTG,147.6604,T,147.6604,M,1.419,N,2.630,K,D*2C
$GPGGA,134526.80,4612.0353769,N,00607.2170177,E,4,05,2.0,368.465,M,49.480,M,4.33,0195*75
$RDENS,887,4952517,PC
$GPVTG,148.6401,T,148.6401,M,1.186,N,2.198,K,D*2A
$GPGGA,134527.00,4612.0353135,N,00607.2170828,E,4,05,2.0,368.445,M,49.480,M,4.53,0195*74
$GPVTG,150.1955,T,150.1955,M,1.265,N,2.345,K,D*26
$GPGGA,134527.20,4612.0352510,N,00607.2171302,E,4,05,2.0,368.444,M,49.480,M,4.73,0195*75
$GPVTG,145.3402,T,145.3402,M,1.073,N,1.989,K,D*2A
$GPGGA,134527.60,4612.0351501,N,00607.2172250,E,4,05,2.0,368.456,M,49.480,M,5.13,0195*73
$RDENS,888,4952606,PC
$GPVTG,150.3722,T,150.3722,M,1.133,N,2.099,K,D*24
$GPGGA,134527.80,4612.0351035,N,00607.2172689,E,4,05,2.0,368.456,M,49.480,M,5.33,0195*7D
$GPVTG,151.0227,T,151.0227,M,1.021,N,1.893,K,D*27
$GPGGA,134528.20,4612.0349963,N,00607.2173538,E,4,05,2.0,368.454,M,49.480,M,5.73,0195*75
$GPVTG,150.1615,T,150.1615,M,1.116,N,2.068,K,D*2D
$GPGGA,134528.40,4612.0349518,N,00607.2173943,E,4,05,2.0,368.464,M,49.480,M,5.93,0195*7E
$RDENS,889,4952695,PC
$GPVTG,146.5706,T,146.5706,M,0.921,N,1.707,K,D*2D
$GPGGA,134528.80,4612.0348744,N,00607.2174684,E,4,05,2.0,368.477,M,49.480,M,6.33,0195*70
$GPVTG,148.2612,T,148.2612,M,0.941,N,1.744,K,D*2C
$GPGGA,134529.00,4612.0348338,N,00607.2175083,E,4,05,2.0,368.456,M,49.480,M,6.53,0195*73
$GPVTG,146.5882,T,146.5882,M,0.784,N,1.452,K,D*2F
$GPGGA,134529.40,4612.0347494,N,00607.2175883,E,4,05,2.0,368.454,M,49.480,M,0.01,0195*72
$RDENS,890,4952784,PC
$GPVTG,147.1195,T,147.1195,M,0.901,N,1.671,K,D*2F
$GPGGA,134529.60,4612.0347125,N,00607.2176189,E,4,05,2.0,368.443,M,49.480,M,0.12,0195*7B
$GPVTG,144.2116,T,144.2116,M,0.691,N,1.281,K,D*22
$GPGGA,134530.00,4612.0346563,N,00607.2176727,E,4,06,2.0,368.476,M,49.480,M,0.28,0195*7C
$GPVTG,149.2681,T,149.2681,M,0.732,N,1.356,K,D*21
$GPGGA,134530.20,4612.0346020,N,00607.2177145,E,4,06,2.0,368.451,M,49.480,M,0.14,0195*75
$RDENS,891,4952873,PC
$GPVTG,144.5314,T,144.5314,M,0.633,N,1.174,K,D*23
$GPGGA,134530.60,4612.0345568,N,00607.2177655,E,4,06,2.0,368.480,M,49.480,M,0.54,0195*75
$GPVTG,147.4906,T,147.4906,M,0.670,N,1.241,K,D*21
$GPVTG,150.9536,T,150.9536,M,0.721,N,1.337,K,D*24
$GPGGA,134531.00,4612.0344999,N,00607.2178150,E,4,06,2.0,368.476,M,49.480,M,0.94,0195*79
$GPVTG,144.0317,T,144.0317,M,0.545,N,1.009,K,D*2A
$RDENS,892,4952961,PC
$GPGGA,134531.20,4612.0344742,N,00607.2178451,E,4,06,2.0,368.470,M,49.480,M,1.14,0195*78
$GPVTG,143.9689,T,143.9689,M,0.643,N,1.191,K,D*2F
$GPGGA,134531.60,4612.0344238,N,00607.2179026,E,4,06,2.0,368.450,M,49.480,M,1.54,0195*77
$GPVTG,143.2608,T,143.2608,M,0.561,N,1.039,K,D*2F
$GPGGA,134531.80,4612.0343966,N,00607.2179269,E,4,06,2.0,368.467,M,49.480,M,0.04,0195*77
$GPVTG,140.6192,T,140.6192,M,0.557,N,1.032,K,D*21
$RDENS,893,4953058,PC
$GPGGA,134532.20,4612.0343466,N,00607.2179782,E,4,06,2.0,368.465,M,49.480,M,0.36,0195*70
$GPVTG,142.7682,T,142.7682,M,0.596,N,1.105,K,D*29
$GPGGA,134532.40,4612.0343126,N,00607.2180134,E,4,06,2.0,368.447,M,49.480,M,0.56,0195*7C
$GPVTG,136.1557,T,136.1557,M,0.445,N,0.825,K,D*2C
$GPGGA,134532.80,4612.0342583,N,00607.2180634,E,4,06,2.0,368.442,M,49.480,M,0.96,0195*74
$GPVTG,150.0246,T,150.0246,M,0.588,N,1.090,K,D*2B
