$GPVTG,306.2013,T,306.2013,M,0.441,N,0.818,K,A*23
$RDENS,1345,4993050,PC
$GPVTG,305.7957,T,305.7957,M,0.356,N,0.660,K,A*23
$GPVTG,311.7091,T,311.7091,M,0.380,N,0.704,K,A*2B
$GPVTG,293.5515,T,293.5515,M,0.455,N,0.843,K,A*28
$GPVTG,294.2887,T,294.2887,M,0.402,N,0.744,K,D*27
$GPVTG,306.3602,T,306.3602,M,0.401,N,0.743,K,D*23
$GPVTG,302.3609,T,302.3609,M,0.055,N,0.102,K,D*25
$RDENS,1346,4993147,PC
$GPVTG,265.2852,T,265.2852,M,0.045,N,0.084,K,D*2B
$GPVTG,264.1942,T,264.1942,M,0.094,N,0.175,K,D*28
$GPVTG,265.7294,T,265.7294,M,0.124,N,0.230,K,D*20
$RDENS,1347,4993233,PC
$GPVTG,257.2947,T,257.2947,M,0.159,N,0.295,K,D*25
$GPVTG,284.5730,T,284.5730,M,0.190,N,0.353,K,D*2B
$GPVTG,287.2037,T,287.2037,M,0.254,N,0.472,K,D*24
$GPVTG,321.2038,T,321.2038,M,0.252,N,0.467,K,D*26
$RDENS,1348,4993319,PC
$GPVTG,304.4426,T,304.4426,M,0.275,N,0.509,K,D*2A
$GPVTG,303.1927,T,303.1927,M,0.288,N,0.534,K,D*26
$GPVTG,285.5117,T,285.5117,M,0.272,N,0.504,K,D*20
$GPVTG,267.8227,T,267.8227,M,0.273,N,0.506,K,D*23
$GPVTG,253.6035,T,253.6035,M,0.393,N,0.729,K,D*23
$RDENS,1349,4993416,PC
$GPVTG,294.9490,T,294.9490,M,0.322,N,0.596,K,D*2F
$GPVTG,268.1301,T,268.1301,M,0.463,N,0.859,K,D*23
$GPVTG,295.3830,T,295.3830,M,0.549,N,1.017,K,D*29
$GPVTG,266.8480,T,266.8480,M,0.389,N,0.722,K,D*23
$GPVTG,266.7785,T,266.7785,M,0.450,N,0.835,K,D*29
$RDENS,1350,4993513,PC
$GPVTG,260.1035,T,260.1035,M,0.475,N,0.880,K,D*20
$GPVTG,254.3344,T,254.3344,M,0.364,N,0.674,K,D*22
$GPVTG,271.3087,T,271.3087,M,0.343,N,0.635,K,D*22
$GPVTG,290.8012,T,290.8012,M,0.317,N,0.588,K,D*26
$GPVTG,271.5438,T,271.5438,M,0.296,N,0.548,K,D*22
$RDENS,1351,4993610,PC
$GPVTG,241.0053,T,241.0053,M,0.401,N,0.743,K,D*23
$GPVTG,231.4747,T,231.4747,M,0.330,N,0.611,K,D*20
$GPVTG,270.8565,T,270.8565,M,0.220,N,0.408,K,D*2A
$GPVTG,236.0231,T,236.0231,M,0.286,N,0.530,K,D*2C
$GPVTG,243.9632,T,243.9632,M,0.233,N,0.432,K,D*21
$RDENS,1352,4993707,PC
$GPVTG,208.0479,T,208.0479,M,0.252,N,0.467,K,D*26
$GPVTG,223.7169,T,223.7169,M,0.199,N,0.369,K,D*2B
$GPVTG,206.8867,T,206.8867,M,0.137,N,0.255,K,D*21
$GPVTG,208.6327,T,208.6327,M,0.200,N,0.372,K,D*22
$RDENS,1353,4993796,PC
$GPVTG,189.7098,T,189.7098,M,0.169,N,0.314,K,D*2E
$GPVTG,176.0024,T,176.0024,M,0.207,N,0.384,K,D*2C
$GPVTG,163.9189,T,163.9189,M,0.141,N,0.261,K,D*27
$GPVTG,143.0995,T,143.0995,M,0.072,N,0.134,K,D*25
$GPVTG,127.4747,T,127.4747,M,0.113,N,0.210,K,D*26
$RDENS,1354,4993885,PC
$GPVTG,134.0676,T,134.0676,M,0.134,N,0.248,K,D*2E
$GPVTG,83.4817,T,83.4817,M,0.103,N,0.192,K,D*2E
$GPVTG,69.8910,T,69.8910,M,0.137,N,0.254,K,D*20
$GPVTG,95.8439,T,95.8439,M,0.226,N,0.419,K,D*2C
$RDENS,1355,4993974,PC
$GPVTG,115.7239,T,115.7239,M,0.364,N,0.674,K,D*22
$GPVTG,80.6723,T,80.6723,M,0.302,N,0.559,K,D*2E
$GPVTG,125.9671,T,125.9671,M,0.458,N,0.849,K,D*2A
$GPVTG,44.1187,T,44.1187,M,0.293,N,0.542,K,D*2D
$RDENS,1356,4994063,PC
$GPVTG,87.5239,T,87.5239,M,0.418,N,0.775,K,D*2E
$GPVTG,63.1556,T,63.1556,M,0.410,N,0.760,K,D*22
$GPVTG,28.8328,T,28.8328,M,0.575,N,1.066,K,D*20
$GPVTG,27.2882,T,27.2882,M,0.496,N,0.919,K,D*2C
$GPVTG,39.1090,T,39.1090,M,0.516,N,0.957,K,D*2F
$RDENS,1357,4994152,PC
$GPVTG,36.5475,T,36.5475,M,0.805,N,1.491,K,D*26
$GPVTG,31.0469,T,31.0469,M,0.743,N,1.376,K,D*25
$GPVTG,33.8791,T,33.8791,M,0.643,N,1.192,K,D*2C
$GPVTG,30.3629,T,30.3629,M,0.826,N,1.531,K,D*2C
$GPVTG,25.6111,T,25.6111,M,0.800,N,1.484,K,D*27
$RDENS,1358,4994249,PC
$GPVTG,17.3173,T,17.3173,M,1.059,N,1.962,K,D*27
$GPVTG,21.8889,T,21.8889,M,1.121,N,2.078,K,D*28
$GPVTG,14.7680,T,14.7680,M,1.183,N,2.193,K,D*24
$GPVTG,18.6519,T,18.6519,M,1.347,N,2.496,K,D*2E
$GPVTG,16.0545,T,16.0545,M,1.439,N,2.667,K,D*2C
$RDENS,1359,4994346,PC
$GPVTG,9.3354,T,9.3354,M,1.113,N,2.062,K,D*22
$GPVTG,15.0541,T,15.0541,M,1.670,N,3.094,K,D*28
$GPVTG,9.3344,T,9.3344,M,1.727,N,3.200,K,D*24
$GPVTG,9.9006,T,9.9006,M,1.753,N,3.248,K,D*2B
$RDENS,1360,4994432,PC
$GPVTG,12.1829,T,12.1829,M,1.711,N,3.171,K,D*24
$GPVTG,9.7729,T,9.7729,M,1.896,N,3.515,K,D*22
$GPVTG,14.0261,T,14.0261,M,2.073,N,3.842,K,D*2D
$GPVTG,6.3030,T,6.3030,M,2.003,N,3.713,K,D*21
$RDENS,1361,4994518,PC
$GPVTG,10.5050,T,10.5050,M,2.045,N,3.791,K,D*29
$GPVTG,3.1695,T,3.1695,M,2.099,N,3.890,K,D*26
$GPVTG,5.1841,T,5.1841,M,2.099,N,3.890,K,D*26
$GPVTG,2.5157,T,2.5157,M,2.178,N,4.036,K,D*2B
$GPVTG,3.3279,T,3.3279,M,2.299,N,4.260,K,D*26
$RDENS,1362,4994604,PC
$GPVTG,3.5739,T,3.5739,M,2.285,N,4.234,K,D*2A
$GPVTG,0.9330,T,0.9330,M,2.110,N,3.910,K,D*2F
$GPVTG,0.8703,T,0.8703,M,2.161,N,4.006,K,D*20
$GPVTG,7.5838,T,7.5838,M,2.453,N,4.546,K,D*25
$RDENS,1363,4994690,PC
$GPVTG,4.3313,T,4.3313,M,2.591,N,4.801,K,D*24
$GPVTG,8.1740,T,8.1740,M,1.898,N,3.517,K,D*2E
$GPVTG,6.3174,T,6.3174,M,2.765,N,5.123,K,D*25
$GPVTG,10.0432,T,10.0432,M,2.226,N,4.125,K,D*20
$RDENS,1364,4994777,PC
$GPVTG,10.2160,T,10.2160,M,2.212,N,4.099,K,D*21
$GPVTG,15.3632,T,15.3632,M,2.285,N,4.234,K,D*2A
$GPVTG,16.0895,T,16.0895,M,2.107,N,3.905,K,D*2D
$GPVTG,15.1540,T,15.1540,M,1.980,N,3.670,K,D*24
$GPVTG,18.9438,T,18.9438,M,1.963,N,3.637,K,D*2A
$RDENS,1365,4994865,PC
$GPVTG,19.3794,T,19.3794,M,1.727,N,3.201,K,D*25
$GPVTG,23.7181,T,23.7181,M,1.688,N,3.128,K,D*29
$GPVTG,21.4257,T,21.4257,M,1.567,N,2.904,K,D*2C
$GPVTG,22.3430,T,22.3430,M,1.564,N,2.898,K,D*2B
$RDENS,1366,4994953,PC
$GPVTG,29.8049,T,29.8049,M,1.308,N,2.424,K,D*2C
$GPVTG,24.6053,T,24.6053,M,1.213,N,2.247,K,D*24
$GPVTG,22.8292,T,22.8292,M,1.067,N,1.978,K,D*21
$GPVTG,27.0900,T,27.0900,M,0.957,N,1.774,K,D*28
$RDENS,1367,4995041,PC
$GPVTG,27.0236,T,27.0236,M,0.683,N,1.265,K,D*2B
$GPVTG,21.3772,T,21.3772,M,0.831,N,1.540,K,D*2C
$GPVTG,21.8249,T,21.8249,M,0.591,N,1.095,K,D*26
$GPVTG,22.1394,T,22.1394,M,0.689,N,1.276,K,D*23
$GPVTG,13.7952,T,13.7952,M,0.459,N,0.851,K,D*22
$RDENS,1368,4995129,PC
$GPVTG,10.0039,T,10.0039,M,0.450,N,0.833,K,D*2F
$GPVTG,13.5312,T,13.5312,M,0.411,N,0.762,K,D*21
$GPVTG,20.2436,T,20.2436,M,0.464,N,0.860,K,D*2E
$GPVTG,10.1691,T,10.1691,M,0.404,N,0.748,K,D*2D
$RDENS,1369,4995217,PC
$GPVTG,9.3219,T,9.3219,M,0.429,N,0.796,K,D*21
$GPVTG,20.9155,T,20.9155,M,0.489,N,0.905,K,D*2F
$GPVTG,13.4320,T,13.4320,M,0.399,N,0.740,K,D*26
$GPVTG,24.3452,T,24.3452,M,0.522,N,0.968,K,D*24
$GPVTG,33.6343,T,33.6343,M,0.613,N,1.136,K,D*27
$RDENS,1370,4995305,PC
$GPVTG,28.3246,T,28.3246,M,0.697,N,1.292,K,D*26
$GPVTG,30.2400,T,30.2400,M,0.644,N,1.194,K,D*2D
$GPVTG,33.0592,T,33.0592,M,0.885,N,1.641,K,D*21
$GPVTG,26.1731,T,26.1731,M,1.023,N,1.896,K,D*20
$RDENS,1371,4995393,PC
$GPVTG,40.8052,T,40.8052,M,0.914,N,1.694,K,D*20
$GPVTG,37.4263,T,37.4263,M,0.951,N,1.763,K,D*28
$GPGGA,135236.00,4612.0565098,N,00607.0037403,E,2,10,1.0,368.533,M,49.483,M,1.31,0195*71
$GPVTG,29.8262,T,29.8262,M,1.226,N,2.272,K,D*24
$GPGGA,135236.20,4612.0565474,N,00607.0037837,E,2,10,1.0,368.494,M,49.483,M,1.51,0195*74
$RDENS,1372,4995481,PC
$GPVTG,39.6004,T,39.6004,M,1.123,N,2.082,K,D*2F
$GPGGA,135236.60,4612.0565701,N,00607.0038993,E,2,10,1.0,368.288,M,49.483,M,1.91,0195*76
$GPVTG,35.4347,T,35.4347,M,1.224,N,2.268,K,D*2D
$GPGGA,135236.80,4612.0566226,N,00607.0039537,E,2,10,1.0,368.256,M,49.483,M,0.08,0195*7A
$GPVTG,40.9051,T,40.9051,M,1.271,N,2.355,K,D*22
$GPGGA,135237.20,4612.0567838,N,00607.0040837,E,2,10,1.0,368.377,M,49.483,M,0.14,0195*79
$GPVTG,33.1180,T,33.1180,M,1.456,N,2.699,K,D*24
$RDENS,1373,4995569,PC
$GPGGA,135237.40,4612.0568347,N,00607.0041516,E,2,10,1.0,368.311,M,49.483,M,0.34,0195*7E
$GPVTG,43.0482,T,43.0482,M,1.278,N,2.369,K,D*24
$GPGGA,135237.80,4612.0569315,N,00607.0042903,E,2,10,1.0,368.266,M,49.483,M,0.08,0195*71
$GPVTG,38.5768,T,38.5768,M,1.392,N,2.579,K,D*26
$GPGGA,135238.00,4612.0569780,N,00607.0043621,E,2,10,1.0,368.227,M,49.483,M,0.28,0195*77
$GPVTG,40.0604,T,40.0604,M,1.326,N,2.458,K,D*2B
$RDENS,1374,4995657,PC
$GPGGA,135238.40,4612.0570839,N,00607.0045023,E,2,10,1.0,368.190,M,49.483,M,0.68,0195*7F
$GPVTG,43.4449,T,43.4449,M,1.385,N,2.567,K,D*2F
$GPGGA,135238.60,4612.0571206,N,00607.0045719,E,2,10,1.0,368.127,M,49.483,M,0.02,0195*74
$GPVTG,39.0973,T,39.0973,M,1.315,N,2.436,K,D*23
$GPGGA,135238.80,4612.0571383,N,00607.0046328,E,2,10,1.0,368.039,M,49.483,M,0.22,0195*7F
$GPVTG,42.8755,T,42.8755,M,1.241,N,2.299,K,D*20
$RDENS,1375,4995745,PC
$GPGGA,135239.20,4612.0572546,N,00607.0047503,E,2,10,1.0,368.146,M,49.483,M,0.62,0195*7B
$GPVTG,37.9358,T,37.9358,M,1.268,N,2.350,K,D*2F
$GPGGA,135239.40,4612.0573031,N,00607.0048310,E,2,10,1.0,368.043,M,49.483,M,0.19,0195*7A
$GPVTG,39.2073,T,39.2073,M,1.266,N,2.347,K,D*27
$GPGGA,135239.80,4612.0574036,N,00607.0049547,E,2,10,1.0,368.013,M,49.483,M,0.21,0195*7D
$GPVTG,36.0948,T,36.0948,M,1.217,N,2.256,K,D*20
$RDENS,1376,4995833,PC
$GPGGA,135240.00,4612.0574500,N,00607.0050131,E,2,10,1.0,367.990,M,49.483,M,0.41,0195*7D
$GPVTG,34.3788,T,34.3788,M,1.332,N,2.469,K,D*2C
$GPGGA,135240.40,4612.0575478,N,00607.0051305,E,2,10,1.0,367.970,M,49.483,M,0.81,0195*70
$GPVTG,40.5697,T,40.5697,M,1.173,N,2.174,K,D*22
$GPGGA,135240.60,4612.0575948,N,00607.0051904,E,2,10,1.0,367.971,M,49.483,M,0.12,0195*7C
$GPVTG,37.6835,T,37.6835,M,1.184,N,2.195,K,D*25
$RDENS,1377,4995921,PC
$GPGGA,135241.00,4612.0577094,N,00607.0053021,E,2,10,1.0,367.982,M,49.483,M,0.28,0195*78
$GPVTG,36.7915,T,36.7915,M,1.246,N,2.310,K,D*27
$GPGGA,135241.20,4612.0577933,N,00607.0053583,E,2,10,1.0,368.054,M,49.483,M,0.48,0195*78
$GPVTG,32.1037,T,32.1037,M,1.236,N,2.290,K,D*29
$GPGGA,135241.60,4612.0579104,N,00607.0054641,E,2,10,1.0,368.060,M,49.483,M,0.12,0195*7C
$GPVTG,36.6962,T,36.6962,M,1.195,N,2.216,K,D*2D
$RDENS,1378,4996009,PC
$GPGGA,135241.80,4612.0579693,N,00607.0055188,E,2,10,1.0,368.046,M,49.483,M,0.32,0195*7E
$GPVTG,31.3733,T,31.3733,M,1.269,N,2.351,K,D*2F
$GPGGA,135242.00,4612.0580021,N,00607.0055698,E,2,10,1.0,367.971,M,49.483,M,0.52,0195*7E
$GPVTG,32.5607,T,32.5607,M,1.199,N,2.223,K,D*27
$GPGGA,135242.40,4612.0581262,N,00607.0056699,E,2,10,1.0,367.957,M,49.483,M,0.92,0195*74
$GPVTG,28.7232,T,28.7232,M,1.328,N,2.462,K,D*2C
$RDENS,1379,4996097,PC
$GPGGA,135242.60,4612.0581967,N,00607.0057126,E,2,10,1.0,368.007,M,49.483,M,0.05,0195*77
$GPVTG,28.1408,T,28.1408,M,1.326,N,2.457,K,D*24
$GPGGA,135243.00,4612.0583290,N,00607.0058132,E,2,10,1.0,367.931,M,49.483,M,0.35,0195*7B
$GPVTG,23.2870,T,23.2870,M,1.413,N,2.618,K,D*2C
$GPGGA,135243.20,4612.0584313,N,00607.0058615,E,2,10,1.0,367.985,M,49.483,M,0.55,0195*7F
$GPVTG,22.6653,T,22.6653,M,1.453,N,2.693,K,D*2B
$RDENS,1380,4996185,PC
$GPGGA,135243.60,4612.0585788,N,00607.0059441,E,2,10,1.0,367.973,M,49.483,M,0.95,0195*7B
$GPVTG,18.8292,T,18.8292,M,1.579,N,2.926,K,D*23
$GPGGA,135243.80,4612.0586506,N,00607.0059862,E,2,10,1.0,367.977,M,49.483,M,1.15,0195*72
$GPVTG,15.9664,T,15.9664,M,1.694,N,3.140,K,D*2A
$GPGGA,135244.20,4612.0588033,N,00607.0060445,E,2,09,1.1,368.126,M,49.483,M,1.55,0195*7F
$GPVTG,20.4193,T,20.4193,M,1.565,N,2.900,K,D*2A
$RDENS,1381,4996273,PC
$GPGGA,135244.40,4612.0588851,N,00607.0060858,E,2,09,1.1,368.134,M,49.483,M,1.75,0195*74
$GPVTG,16.3583,T,16.3583,M,1.701,N,3.152,K,D*24
$GPGGA,135244.60,4612.0589736,N,00607.0061276,E,2,09,1.1,368.127,M,49.483,M,0.06,0195*79
$GPVTG,17.4038,T,17.4038,M,1.755,N,3.253,K,D*27
$GPGGA,135245.00,4612.0591534,N,00607.0062178,E,2,09,1.1,368.095,M,49.483,M,0.11,0195*77
$GPVTG,14.3689,T,14.3689,M,1.862,N,3.451,K,D*28
$RDENS,1382,4996361,PC
$GPGGA,135245.20,4612.0592423,N,00607.0062554,E,2,09,1.1,368.082,M,49.483,M,0.31,0195*7F
$GPVTG,15.0021,T,15.0021,M,1.848,N,3.426,K,D*20
$GPGGA,135245.60,4612.0594472,N,00607.0063374,E,2,09,1.1,368.122,M,49.483,M,0.06,0195*73
$GPVTG,17.3050,T,17.3050,M,1.850,N,3.429,K,D*26
$GPGGA,135245.80,4612.0595415,N,00607.0063830,E,2,09,1.1,368.112,M,49.483,M,0.26,0195*77
$GPVTG,17.4871,T,17.4871,M,1.840,N,3.410,K,D*2D
$RDENS,1383,4996449,PC
$GPGGA,135246.20,4612.0597320,N,00607.0064690,E,2,09,1.1,368.100,M,49.483,M,0.66,0195*79
$GPVTG,17.7507,T,17.7507,M,1.812,N,3.359,K,D*20
$GPGGA,135246.40,4612.0598305,N,00607.0065178,E,2,09,1.1,368.101,M,49.483,M,0.86,0195*78
$GPVTG,18.3070,T,18.3070,M,1.738,N,3.220,K,D*28
$GPGGA,135246.80,4612.0600098,N,00607.0066017,E,2,09,1.1,368.099,M,49.483,M,1.26,0195*71
$GPVTG,17.8997,T,17.8997,M,1.750,N,3.243,K,D*23
$RDENS,1384,4996537,PC
$GPGGA,135247.00,4612.0601025,N,00607.0066530,E,2,09,1.1,368.107,M,49.483,M,0.14,0195*79
$GPVTG,16.3341,T,16.3341,M,1.752,N,3.246,K,D*24
$GPGGA,135247.20,4612.0601970,N,00607.0066894,E,2,09,1.1,368.113,M,49.483,M,0.34,0195*76
$GPVTG,17.9234,T,17.9234,M,1.779,N,3.297,K,D*21
$GPGGA,135247.60,4612.0603702,N,00607.0067795,E,2,09,1.1,368.083,M,49.483,M,0.74,0195*78
$GPVTG,18.4616,T,18.4616,M,1.666,N,3.087,K,D*2D
$RDENS,1385,4996625,PC
$GPGGA,135247.80,4612.0604595,N,00607.0068150,E,2,09,1.1,368.091,M,49.483,M,0.94,0195*70
$GPVTG,15.2467,T,15.2467,M,1.806,N,3.347,K,D*2A
$GPGGA,135248.20,4612.0606525,N,00607.0068886,E,2,09,1.1,368.065,M,49.483,M,1.34,0195*7E
$GPVTG,15.1242,T,15.1242,M,1.823,N,3.379,K,D*20
$GPGGA,135248.40,4612.0607527,N,00607.0069299,E,2,09,1.1,368.069,M,49.483,M,1.54,0195*74
$GPVTG,17.1640,T,17.1640,M,1.954,N,3.621,K,D*29
$RDENS,1386,4996713,PC
$GPGGA,135248.80,4612.0609692,N,00607.0070328,E,2,10,1.0,368.028,M,49.483,M,1.94,0195*78
$GPVTG,17.0807,T,17.0807,M,1.980,N,3.669,K,D*2C
$GPGGA,135249.00,4612.0610805,N,00607.0070858,E,2,10,1.0,368.026,M,49.483,M,2.14,0195*70
$GPVTG,19.8096,T,19.8096,M,2.230,N,4.133,K,D*20
$GPGGA,135249.40,4612.0613235,N,00607.0072031,E,2,10,1.0,368.047,M,49.483,M,0.19,0195*73
$GPVTG,19.7607,T,19.7607,M,2.322,N,4.303,K,D*23
$RDENS,1387,4996801,PC
$GPGGA,135249.60,4612.0614419,N,00607.0072651,E,2,10,1.0,368.032,M,49.483,M,0.05,0195*71
$GPVTG,20.7886,T,20.7886,M,2.557,N,4.739,K,D*2A
$GPGGA,135249.80,4612.0615726,N,00607.0073341,E,2,10,1.0,368.039,M,49.483,M,0.15,0195*7E
$GPVTG,22.6552,T,22.6552,M,2.528,N,4.685,K,D*24
$GPGGA,135250.20,4612.0618301,N,00607.0074724,E,2,09,1.1,368.085,M,49.483,M,0.55,0195*7A
$GPVTG,22.4247,T,22.4247,M,2.434,N,4.510,K,D*27
$RDENS,1388,4996888,PC
$GPGGA,135250.40,4612.0619614,N,00607.0075528,E,2,09,1.1,368.059,M,49.483,M,0.75,0195*70
$GPVTG,24.7678,T,24.7678,M,2.471,N,4.580,K,D*2F
$GPGGA,135250.80,4612.0622888,N,00607.0076902,E,2,10,0.9,368.188,M,49.483,M,1.15,0195*73
$GPVTG,23.9236,T,23.9236,M,2.464,N,4.567,K,D*22
$GPGGA,135251.00,4612.0624096,N,00607.0077709,E,2,10,0.9,368.198,M,49.483,M,0.14,0195*7E
$GPVTG,25.9758,T,25.9758,M,2.371,N,4.394,K,D*2B
$GPGGA,135251.40,4612.0626397,N,00607.0079411,E,2,10,0.9,368.195,M,49.483,M,0.26,0195*72
$RDENS,1389,4996976,PC
$GPVTG,27.1069,T,27.1069,M,2.320,N,4.299,K,D*23
$GPGGA,135251.60,4612.0627416,N,00607.0080297,E,2,10,0.9,368.181,M,49.483,M,0.13,0195*72
$GPVTG,27.8503,T,27.8503,M,2.208,N,4.093,K,D*20
$GPGGA,135252.00,4612.0629525,N,00607.0081948,E,2,10,0.9,368.188,M,49.483,M,0.53,0195*7D
$GPVTG,29.0010,T,29.0010,M,2.156,N,3.996,K,D*23
$GPGGA,135252.20,4612.0630415,N,00607.0082867,E,2,10,0.9,368.145,M,49.483,M,0.73,0195*79
$RDENS,1390,4997065,PC
$GPVTG,30.7765,T,30.7765,M,1.997,N,3.702,K,D*26
$GPGGA,135252.60,4612.0632331,N,00607.0084379,E,2,10,0.9,368.136,M,49.483,M,0.09,0195*75
$GPVTG,29.5981,T,29.5981,M,1.913,N,3.546,K,D*28
$GPGGA,135252.80,4612.0633270,N,00607.0085165,E,2,10,0.9,368.120,M,49.483,M,0.29,0195*75
$GPVTG,30.8005,T,30.8005,M,1.889,N,3.501,K,D*29
$GPGGA,135253.00,4612.0634209,N,00607.0085903,E,2,10,0.9,368.124,M,49.483,M,0.49,0195*7F
$RDENS,1391,4997153,PC
$GPVTG,29.2775,T,29.2775,M,1.809,N,3.352,K,D*21
$GPGGA,135253.40,4612.0635967,N,00607.0087328,E,2,10,0.9,368.114,M,49.483,M,0.89,0195*77
$GPVTG,28.5319,T,28.5319,M,1.801,N,3.337,K,D*2A
$GPGGA,135253.60,4612.0636830,N,00607.0088020,E,2,10,0.9,368.104,M,49.483,M,1.09,0195*79
$GPVTG,27.4438,T,27.4438,M,1.877,N,3.479,K,D*26
$GPGGA,135254.00,4612.0638694,N,00607.0089489,E,2,10,0.9,368.127,M,49.483,M,1.49,0195*75
$RDENS,1392,4997241,PC
$GPVTG,29.9361,T,29.9361,M,1.914,N,3.547,K,D*2E
$GPGGA,135254.20,4612.0639691,N,00607.0090329,E,2,10,0.9,368.142,M,49.483,M,1.69,0195*77
$GPVTG,30.3906,T,30.3906,M,2.124,N,3.936,K,D*2C
$GPGGA,135254.60,4612.0641679,N,00607.0092050,E,2,10,0.9,368.152,M,49.483,M,2.09,0195*71
$GPVTG,31.7691,T,31.7691,M,2.153,N,3.990,K,D*20
$GPGGA,135254.80,4612.0642752,N,00607.0093084,E,2,10,0.9,368.127,M,49.483,M,0.10,0195*74
$RDENS,1393,4997329,PC
$GPVTG,34.6901,T,34.6901,M,2.300,N,4.263,K,D*24
$GPGGA,135255.20,4612.0644873,N,00607.0095140,E,2,10,0.9,368.115,M,49.483,M,0.30,0195*79
$GPVTG,35.7322,T,35.7322,M,2.260,N,4.188,K,D*25
$GPGGA,135255.40,4612.0645832,N,00607.0096294,E,2,10,0.9,368.094,M,49.483,M,0.50,0195*7C
$GPVTG,40.4100,T,40.4100,M,2.200,N,4.077,K,D*22
$GPGGA,135255.60,4612.0646743,N,00607.0097427,E,2,10,0.9,368.091,M,49.483,M,0.70,0195*7C
$RDENS,1394,4997417,PC
$GPVTG,40.4044,T,40.4044,M,2.161,N,4.004,K,D*22
$GPGGA,135256.00,4612.0648476,N,00607.0099758,E,2,10,0.9,368.085,M,49.483,M,1.10,0195*75
$GPVTG,43.7020,T,43.7020,M,2.146,N,3.978,K,D*22
$GPGGA,135256.20,4612.0649317,N,00607.0100905,E,2,10,0.9,368.089,M,49.483,M,1.30,0195*7F
$GPVTG,47.8329,T,47.8329,M,2.016,N,3.736,K,D*22
$GPGGA,135256.60,4612.0650871,N,00607.0103315,E,2,11,0.9,368.028,M,49.483,M,1.70,0195*7E
$RDENS,1395,4997505,PC
$GPVTG,44.1034,T,44.1034,M,2.061,N,3.819,K,D*20
$GPGGA,135256.80,4612.0651519,N,00607.0104484,E,2,11,0.9,368.019,M,49.483,M,1.90,0195*76
$GPVTG,46.0526,T,46.0526,M,2.005,N,3.717,K,D*23
$GPGGA,135257.20,4612.0652950,N,00607.0106985,E,2,11,0.9,367.936,M,49.483,M,2.30,0195*73
$GPVTG,47.4868,T,47.4868,M,1.893,N,3.508,K,D*2B
$GPGGA,135257.40,4612.0653526,N,00607.0107982,E,2,10,0.9,368.047,M,49.483,M,2.50,0195*78
$RDENS,1396,4997593,PC
$GPVTG,47.4228,T,47.4228,M,1.846,N,3.420,K,D*28
$GPGGA,135257.80,4612.0654880,N,00607.0110215,E,2,10,0.9,368.041,M,49.483,M,2.90,0195*7B
$GPVTG,48.6165,T,48.6165,M,1.894,N,3.510,K,D*25
$GPGGA,135258.00,4612.0655535,N,00607.0111319,E,2,10,0.9,368.043,M,49.483,M,3.10,0195*79
$GPVTG,47.3493,T,47.3493,M,1.910,N,3.539,K,D*23
$GPVTG,44.9987,T,44.9987,M,1.914,N,3.547,K,D*2E
$RDENS,1397,4997681,PC
$GPGGA,135258.40,4612.0657037,N,00607.0113539,E,2,10,0.9,368.073,M,49.483,M,3.50,0195*79
$GPVTG,48.0108,T,48.0108,M,1.885,N,3.494,K,D*28
$GPGGA,135258.80,4612.0658516,N,00607.0115736,E,2,10,0.9,368.089,M,49.483,M,3.90,0195*7E
$GPVTG,45.5982,T,45.5982,M,1.936,N,3.588,K,D*2D
$GPGGA,135259.00,4612.0659288,N,00607.0116794,E,2,10,0.9,368.093,M,49.483,M,4.10,0195*79
$GPVTG,44.5296,T,44.5296,M,1.920,N,3.559,K,D*26
$RDENS,1398,4997769,PC
$GPGGA,135259.20,4612.0660037,N,00607.0117894,E,2,10,0.9,368.082,M,49.483,M,4.30,0195*7B
$GPVTG,43.8166,T,43.8166,M,1.948,N,3.609,K,D*2E
$GPGGA,135259.60,4612.0661628,N,00607.0120039,E,2,10,0.9,368.073,M,49.483,M,4.70,0195*77
$GPVTG,43.1222,T,43.1222,M,1.998,N,3.703,K,D*28
$GPGGA,135259.80,4612.0662502,N,00607.0121067,E,2,10,0.9,368.070,M,49.483,M,4.90,0195*76
$GPVTG,41.6864,T,41.6864,M,2.028,N,3.758,K,D*27
$RDENS,1399,4997857,PC
$GPGGA,135300.20,4612.0664200,N,00607.0123212,E,2,10,0.9,368.074,M,49.483,M,5.30,0195*7F
$GPVTG,38.6850,T,38.6850,M,2.087,N,3.868,K,D*2E
$GPGGA,135300.40,4612.0665012,N,00607.0124332,E,2,10,0.9,368.063,M,49.483,M,5.50,0195*7D
$GPVTG,39.9993,T,39.9993,M,2.175,N,4.031,K,D*21
$GPGGA,135300.80,4612.0666841,N,00607.0126557,E,2,10,0.9,368.053,M,49.483,M,5.90,0195*74
$GPVTG,40.3139,T,40.3139,M,2.185,N,4.049,K,D*21
$RDENS,1400,4997945,PC
$GPGGA,135301.00,4612.0667753,N,00607.0127682,E,2,10,0.9,368.054,M,49.483,M,6.10,0195*76
$GPVTG,41.2945,T,41.2945,M,2.153,N,3.990,K,D*20
$GPGGA,135301.40,4612.0669511,N,00607.0129993,E,2,10,0.9,368.020,M,49.483,M,6.50,0195*7E
$GPVTG,38.8803,T,38.8803,M,2.214,N,4.102,K,D*24
$GPGGA,135301.60,4612.0670423,N,00607.0131128,E,2,10,0.9,368.013,M,49.483,M,6.70,0195*77
$GPVTG,40.7036,T,40.7036,M,2.172,N,4.026,K,D*20
$RDENS,1401,4998033,PC
$GPGGA,135301.80,4612.0671329,N,00607.0132270,E,2,10,0.9,368.008,M,49.483,M,6.90,0195*7C
$GPVTG,39.5052,T,39.5052,M,2.214,N,4.103,K,D*25
$GPGGA,135302.20,4612.0673216,N,00607.0134498,E,2,10,0.9,368.024,M,49.483,M,7.30,0195*79
$GPVTG,38.5403,T,38.5403,M,2.245,N,4.160,K,D*24
$GPGGA,135302.40,4612.0674400,N,00607.0135668,E,2,11,0.9,368.191,M,49.483,M,7.50,0195*7D
$GPVTG,37.6445,T,37.6445,M,2.256,N,4.182,K,D*2A
$RDENS,1402,4998120,PC
$GPGGA,135302.80,4612.0676382,N,00607.0137938,E,2,11,0.9,368.217,M,49.483,M,7.90,0195*77
$GPVTG,39.6002,T,39.6002,M,2.278,N,4.222,K,D*2F
$GPGGA,135303.00,4612.0677395,N,00607.0139134,E,2,11,0.9,368.239,M,49.483,M,8.10,0195*78
$GPVTG,38.4726,T,38.4726,M,2.308,N,4.278,K,D*26
$GPGGA,135303.40,4612.0680629,N,00607.0142576,E,4,05,2.2,368.381,M,49.483,M,0.11,0195*79
$GPVTG,39.4849,T,39.4849,M,2.362,N,4.377,K,D*24
$GPGGA,135303.60,4612.0681618,N,00607.0143745,E,4,05,2.2,368.380,M,49.483,M,0.31,0195*78
$RDENS,1403,4998208,PC
$GPVTG,38.2760,T,38.2760,M,2.339,N,4.335,K,D*2C
$GPGGA,135304.00,4612.0683716,N,00607.0146136,E,4,05,2.2,368.383,M,49.483,M,0.11,0195*72
$GPVTG,40.8911,T,40.8911,M,2.393,N,4.434,K,D*2A
$GPGGA,135304.20,4612.0684741,N,00607.0147378,E,4,05,2.2,368.369,M,49.483,M,0.14,0195*7D
$GPVTG,41.5824,T,41.5824,M,2.362,N,4.378,K,D*2B
$GPGGA,135304.60,4612.0686702,N,00607.0149825,E,4,05,2.2,368.365,M,49.483,M,0.04,0195*7C
$RDENS,1404,4998296,PC
$GPVTG,39.7958,T,39.7958,M,2.384,N,4.418,K,D*22
$GPGGA,135304.80,4612.0687723,N,00607.0151043,E,4,05,2.2,368.378,M,49.483,M,0.09,0195*70
$GPVTG,41.2974,T,41.2974,M,2.385,N,4.419,K,D*22
$GPGGA,135305.00,4612.0688720,N,00607.0152317,E,4,05,2.2,368.365,M,49.483,M,0.11,0195*71
$GPVTG,40.5741,T,40.5741,M,2.358,N,4.371,K,D*2B
$GPGGA,135305.40,4612.0690761,N,00607.0154691,E,4,05,2.2,368.375,M,49.483,M,0.51,0195*71
$RDENS,1405,4998383,PC
$GPVTG,40.4715,T,40.4715,M,2.334,N,4.325,K,D*20
$GPGGA,135305.60,4612.0691702,N,00607.0155899,E,4,05,2.2,368.366,M,49.483,M,0.71,0195*70
$GPVTG,38.8338,T,38.8338,M,2.296,N,4.254,K,D*2E
$GPGGA,135306.00,4612.0693664,N,00607.0158222,E,4,05,2.2,368.363,M,49.483,M,1.11,0195*73
$GPVTG,39.7425,T,39.7425,M,2.303,N,4.268,K,D*2C
$GPGGA,135306.20,4612.0694649,N,00607.0159346,E,4,05,2.2,368.371,M,49.483,M,1.31,0195*7A
$RDENS,1406,4998471,PC
$GPVTG,37.6328,T,37.6328,M,2.316,N,4.292,K,D*2D
$GPGGA,135306.60,4612.0696728,N,00607.0161567,E,4,05,2.2,368.361,M,49.483,M,1.71,0195*71
$GPVTG,35.8276,T,35.8276,M,2.331,N,4.321,K,D*21
$GPGGA,135306.80,4612.0697719,N,00607.0162658,E,4,05,2.2,368.362,M,49.483,M,0.05,0195*71
$GPVTG,34.5690,T,34.5690,M,2.359,N,4.371,K,D*2A
$GPGGA,135307.20,4612.0699879,N,00607.0164761,E,4,05,2.2,368.377,M,49.483,M,0.35,0195*77
$RDENS,1407,4998559,PC
$GPVTG,34.9234,T,34.9234,M,2.278,N,4.221,K,D*2C
$GPGGA,135307.40,4612.0700894,N,00607.0165714,E,4,05,2.2,368.372,M,49.483,M,0.03,0195*70
$GPVTG,29.4721,T,29.4721,M,2.157,N,3.997,K,D*23
$GPGGA,135307.80,4612.0703029,N,00607.0167394,E,4,05,2.2,368.372,M,49.483,M,0.43,0195*7B
$GPVTG,27.4239,T,27.4239,M,2.183,N,4.046,K,D*28
$GPGGA,135308.00,4612.0704115,N,00607.0168174,E,4,05,2.2,368.369,M,49.483,M,0.63,0195*7E
$RDENS,1408,4998646,PC
$GPVTG,26.5277,T,26.5277,M,2.182,N,4.044,K,D*2B
$GPGGA,135308.20,4612.0705131,N,00607.0168913,E,4,05,2.2,368.356,M,49.483,M,0.83,0195*70
$GPVTG,24.6707,T,24.6707,M,2.158,N,4.000,K,D*2C
$GPGGA,135308.60,4612.0707330,N,00607.0170245,E,4,05,2.2,368.362,M,49.483,M,1.23,0195*78
$GPVTG,23.4884,T,23.4884,M,2.079,N,3.853,K,D*27
$GPGGA,135308.80,4612.0708357,N,00607.0170911,E,4,05,2.2,368.348,M,49.483,M,0.08,0195*72
$RDENS,1409,4998733,PC
$GPVTG,19.1640,T,19.1640,M,2.170,N,4.022,K,D*26
$GPGGA,135309.20,4612.0710660,N,00607.0172087,E,4,05,2.2,368.372,M,49.483,M,0.32,0195*75
$GPVTG,20.6767,T,20.6767,M,2.096,N,3.885,K,D*2D
$GPGGA,135309.40,4612.0711735,N,00607.0172696,E,4,05,2.2,368.366,M,49.483,M,0.08,0195*79
$GPVTG,18.2657,T,18.2657,M,2.119,N,3.927,K,D*22
$GPGGA,135309.80,4612.0714066,N,00607.0173735,E,4,05,2.2,368.378,M,49.483,M,0.15,0195*7B
$RDENS,1410,4998820,PC
$GPVTG,17.2175,T,17.2175,M,2.219,N,4.112,K,D*28
$GPGGA,135310.00,4612.0715263,N,00607.0174245,E,4,05,2.2,368.388,M,49.483,M,0.35,0195*75
$GPVTG,17.6459,T,17.6459,M,2.214,N,4.103,K,D*25
$GPGGA,135310.40,4612.0717588,N,00607.0175276,E,4,05,2.2,368.381,M,49.483,M,0.75,0195*7D
$GPVTG,16.1361,T,16.1361,M,2.207,N,4.089,K,D*24
$GPGGA,135310.60,4612.0718818,N,00607.0175733,E,4,05,2.2,368.395,M,49.483,M,0.06,0195*71
$RDENS,1411,4998907,PC
$GPVTG,16.8148,T,16.8148,M,2.309,N,4.279,K,D*26
$GPGGA,135310.80,4612.0720101,N,00607.0176234,E,4,05,2.2,368.400,M,49.483,M,0.14,0195*7C
$GPVTG,13.9900,T,13.9900,M,2.398,N,4.443,K,D*21
$GPGGA,135311.20,4612.0722617,N,00607.0177277,E,4,05,2.2,368.405,M,49.483,M,0.54,0195*72
$GPVTG,16.0669,T,16.0669,M,2.379,N,4.408,K,D*21
$GPGGA,135311.40,4612.0723969,N,00607.0177720,E,4,05,2.2,368.399,M,49.483,M,0.04,0195*73
$RDENS,1412,4998994,PC
$GPVTG,16.6061,T,16.6061,M,2.408,N,4.462,K,D*2C
$GPGGA,135311.80,4612.0726498,N,00607.0178863,E,4,05,2.2,368.406,M,49.483,M,0.36,0195*7E
$GPVTG,16.9555,T,16.9555,M,2.391,N,4.430,K,D*2C
$GPGGA,135312.00,4612.0727848,N,00607.0179363,E,4,05,2.2,368.410,M,49.483,M,0.56,0195*7E
$GPVTG,16.8732,T,16.8732,M,2.441,N,4.523,K,D*25
$GPGGA,135312.40,4612.0730380,N,00607.0180642,E,4,05,2.2,368.392,M,49.483,M,0.96,0195*72
$RDENS,1413,4999081,PC
$GPVTG,17.4300,T,17.4300,M,2.492,N,4.618,K,D*20
$GPGGA,135312.60,4612.0731798,N,00607.0181104,E,4,05,2.2,368.415,M,49.483,M,1.16,0195*79
$GPVTG,19.2058,T,19.2058,M,2.376,N,4.404,K,D*22
$GPGGA,135313.00,4612.0734262,N,00607.0182403,E,4,05,2.2,368.400,M,49.483,M,1.56,0195*7A
$GPVTG,17.5143,T,17.5143,M,2.397,N,4.442,K,D*2F
$GPGGA,135313.20,4612.0735419,N,00607.0183075,E,4,05,2.2,368.386,M,49.483,M,1.76,0195*7C
$RDENS,1414,4999168,PC
$GPVTG,20.2407,T,20.2407,M,2.302,N,4.267,K,D*22
$GPGGA,135313.60,4612.0737832,N,00607.0184397,E,4,05,2.2,368.385,M,49.483,M,2.16,0195*71
$GPVTG,23.1768,T,23.1768,M,2.245,N,4.160,K,D*24
$GPGGA,135313.80,4612.0739116,N,00607.0185001,E,4,05,2.2,368.399,M,49.483,M,0.15,0195*7F
$GPVTG,20.4438,T,20.4438,M,2.326,N,4.311,K,D*24
$GPGGA,135314.00,4612.0740207,N,00607.0185776,E,4,05,2.2,368.386,M,49.483,M,0.06,0195*76
$RDENS,1415,4999255,PC
$GPVTG,22.6907,T,22.6907,M,2.293,N,4.250,K,D*2F
$GPGGA,135314.40,4612.0742603,N,00607.0187101,E,4,05,2.2,368.406,M,49.483,M,0.34,0195*7A
$GPVTG,23.8773,T,23.8773,M,2.213,N,4.101,K,D*20
$GPGGA,135314.60,4612.0743644,N,00607.0187871,E,4,05,2.2,368.390,M,49.483,M,0.54,0195*7A
$GPVTG,25.5784,T,25.5784,M,2.167,N,4.015,K,D*24
$GPGGA,135315.00,4612.0745927,N,00607.0189399,E,4,05,2.2,368.401,M,49.483,M,0.94,0195*71
$RDENS,1416,4999342,PC
$GPVTG,27.1316,T,27.1316,M,2.263,N,4.194,K,D*2B
$GPGGA,135315.20,4612.0747056,N,00607.0190165,E,4,05,2.2,368.416,M,49.483,M,1.14,0195*78
$GPVTG,28.2901,T,28.2901,M,2.158,N,4.000,K,D*2C
$GPGGA,135315.60,4612.0749094,N,00607.0191881,E,4,05,2.2,368.392,M,49.483,M,1.54,0195*71
$GPVTG,27.7965,T,27.7965,M,2.205,N,4.086,K,D*29
$GPGGA,135315.80,4612.0750118,N,00607.0192697,E,4,06,2.0,368.374,M,49.483,M,0.09,0195*78
$RDENS,1417,4999429,PC
$GPVTG,26.3968,T,26.3968,M,2.233,N,4.139,K,D*29
$GPGGA,135316.20,4612.0752394,N,00607.0194269,E,4,06,2.0,368.384,M,49.483,M,0.49,0195*7D
$GPVTG,26.1209,T,26.1209,M,2.277,N,4.221,K,D*23
$GPGGA,135316.40,4612.0753482,N,00607.0195124,E,4,06,2.0,368.374,M,49.483,M,0.69,0195*7C
$GPVTG,26.5867,T,26.5867,M,2.272,N,4.211,K,D*25
$GPGGA,135316.60,4612.0754547,N,00607.0195978,E,4,06,2.0,368.363,M,49.483,M,0.89,0195*78
$RDENS,1418,4999516,PC
$GPVTG,24.9438,T,24.9438,M,2.294,N,4.251,K,D*29
$GPGGA,135317.00,4612.0756809,N,00607.0197603,E,4,06,2.0,368.361,M,49.483,M,1.29,0195*72
$GPVTG,26.1057,T,26.1057,M,2.277,N,4.220,K,D*22
$GPGGA,135317.20,4612.0757992,N,00607.0198416,E,4,06,2.0,368.365,M,49.483,M,1.49,0195*79
$GPVTG,24.3384,T,24.3384,M,2.397,N,4.443,K,D*2E
$GPGGA,135317.60,4612.0760506,N,00607.0199895,E,4,06,2.0,368.389,M,49.483,M,0.15,0195*74
$RDENS,1419,4999602,PC
$GPVTG,25.5011,T,25.5011,M,2.304,N,4.271,K,D*23
$GPGGA,135317.80,4612.0761728,N,00607.0200688,E,4,06,2.0,368.385,M,49.483,M,0.35,0195*7A
$GPVTG,25.0226,T,25.0226,M,2.416,N,4.478,K,D*28
$GPGGA,135318.20,4612.0764075,N,00607.0202362,E,4,06,2.0,368.367,M,49.483,M,0.75,0195*7E
$GPVTG,25.5564,T,25.5564,M,2.374,N,4.400,K,D*24
$GPGGA,135318.40,4612.0765414,N,00607.0203119,E,4,06,2.0,368.380,M,49.483,M,0.95,0195*72
$RDENS,1420,4999688,PC
$GPVTG,23.4846,T,23.4846,M,2.412,N,4.470,K,D*24
$GPGGA,135318.80,4612.0767891,N,00607.0204698,E,4,06,2.0,368.382,M,49.483,M,1.35,0195*7D
$GPVTG,23.9481,T,23.9481,M,2.509,N,4.649,K,D*27
$GPGGA,135319.00,4612.0769093,N,00607.0205559,E,4,06,2.0,368.360,M,49.483,M,1.55,0195*75
$GPVTG,24.4834,T,24.4834,M,2.545,N,4.717,K,D*25
$GPGGA,135319.20,4612.0770452,N,00607.0206366,E,4,06,2.0,368.375,M,49.483,M,1.75,0195*79
$RDENS,1421,4999773,PC
$GPVTG,24.6943,T,24.6943,M,2.554,N,4.734,K,D*24
$GPGGA,135319.60,4612.0773025,N,00607.0208034,E,4,06,2.0,368.375,M,49.483,M,2.15,0195*75
$GPVTG,22.8737,T,22.8737,M,2.567,N,4.758,K,D*2E
$GPGGA,135319.80,4612.0774340,N,00607.0208881,E,4,06,2.0,368.366,M,49.483,M,2.35,0195*7A
$GPVTG,23.0302,T,23.0302,M,2.588,N,4.796,K,D*2D
$GPGGA,135320.20,4612.0776935,N,00607.0210544,E,4,06,2.0,368.379,M,49.483,M,2.75,0195*77
$RDENS,1422,4999859,PC
$GPVTG,24.4272,T,24.4272,M,2.574,N,4.770,K,D*26
$GPVTG,25.7171,T,25.7171,M,2.638,N,4.889,K,D*24
$GPGGA,135320.60,4612.0779606,N,00607.0212373,E,4,06,2.0,368.368,M,49.483,M,3.15,0195*74
$GPVTG,25.8093,T,25.8093,M,2.499,N,4.631,K,D*20
$GPGGA,135320.80,4612.0780814,N,00607.0213257,E,4,06,2.0,368.377,M,49.483,M,3.35,0195*7B
$GPVTG,25.7301,T,25.7301,M,2.621,N,4.857,K,D*2F
$RDENS,1423,4999945,PC
$GPGGA,135321.20,4612.0783475,N,00607.0215054,E,4,06,2.0,368.372,M,49.483,M,3.75,0195*7E
$GPVTG,25.1636,T,25.1636,M,2.633,N,4.879,K,D*20
$GPGGA,135321.40,4612.0784699,N,00607.0215975,E,4,06,2.0,368.354,M,49.483,M,3.95,0195*7F
$GPVTG,26.2348,T,26.2348,M,2.581,N,4.784,K,D*27
$GPGGA,135321.80,4612.0787142,N,00607.0217915,E,4,06,2.0,368.328,M,49.483,M,4.35,0195*73
$GPVTG,26.0469,T,26.0469,M,2.601,N,4.820,K,D*2D
$RDENS,1424,5000032,PC
$GPGGA,135322.00,4612.0788601,N,00607.0218702,E,4,06,2.0,368.351,M,49.483,M,4.55,0195*78
$GPVTG,24.3863,T,24.3863,M,2.465,N,4.567,K,D*23
$GPGGA,135322.40,4612.0790969,N,00607.0220465,E,4,06,2.0,368.337,M,49.483,M,4.95,0195*71
$GPVTG,25.5586,T,25.5586,M,2.489,N,4.612,K,D*20
$GPGGA,135322.60,4612.0792355,N,00607.0221160,E,4,06,2.0,368.346,M,49.483,M,5.15,0195*7A
$GPVTG,23.8321,T,23.8321,M,2.429,N,4.501,K,D*2B
$RDENS,1425,5000117,PC
$GPGGA,135323.00,4612.0794836,N,00607.0222702,E,4,06,2.0,368.355,M,49.483,M,5.55,0195*72
$GPVTG,21.0435,T,21.0435,M,2.510,N,4.651,K,D*26
$GPGGA,135323.20,4612.0796066,N,00607.0223468,E,4,06,2.0,368.363,M,49.483,M,5.75,0195*76
$GPVTG,21.8603,T,21.8603,M,2.369,N,4.391,K,D*27
$GPGGA,135323.60,4612.0798528,N,00607.0224986,E,4,06,2.0,368.344,M,49.483,M,6.15,0195*79
$GPVTG,20.1568,T,20.1568,M,2.501,N,4.635,K,D*24
$RDENS,1426,5000203,PC
$GPGGA,135323.80,4612.0799737,N,00607.0225702,E,4,06,2.0,368.337,M,49.483,M,6.35,0195*7F
$GPVTG,22.3900,T,22.3900,M,2.415,N,4.475,K,D*26
$GPGGA,135324.00,4612.0801052,N,00607.0226412,E,4,06,2.0,368.351,M,49.483,M,6.55,0195*7D
$GPVTG,21.3842,T,21.3842,M,2.411,N,4.468,K,D*2E
$GPGGA,135324.40,4612.0803570,N,00607.0227810,E,4,06,2.0,368.352,M,49.483,M,6.95,0195*7E
$GPVTG,20.1040,T,20.1040,M,2.436,N,4.514,K,D*21
$RDENS,1427,5000290,PC
$GPGGA,135324.60,4612.0804905,N,00607.0228430,E,4,06,2.0,368.371,M,49.483,M,7.15,0195*7C
$GPVTG,20.6964,T,20.6964,M,2.359,N,4.372,K,D*29
$GPGGA,135325.00,4612.0807331,N,00607.0229820,E,4,06,2.0,368.367,M,49.483,M,7.55,0195*7A
$GPVTG,20.7513,T,20.7513,M,2.368,N,4.388,K,D*2E
$GPGGA,135325.20,4612.0808349,N,00607.0230542,E,4,06,2.0,368.336,M,49.483,M,7.75,0195*7F
$RDENS,1428,5000376,PC
$GPVTG,16.4466,T,16.4466,M,2.428,N,4.500,K,D*2B
$GPGGA,135325.60,4612.0810768,N,00607.0231670,E,4,06,2.0,368.340,M,49.483,M,8.15,0195*7E
$GPVTG,19.0324,T,19.0324,M,2.066,N,3.829,K,D*24
$GPGGA,135325.80,4612.0812115,N,00607.0232128,E,4,06,2.0,368.378,M,49.483,M,0.02,0195*72
$GPVTG,18.1521,T,18.1521,M,2.229,N,4.131,K,D*2A
$GPGGA,135326.20,4612.0814389,N,00607.0233283,E,4,06,2.0,368.361,M,49.483,M,0.42,0195*75
$RDENS,1429,5000462,PC
$GPVTG,19.1234,T,19.1234,M,2.150,N,3.985,K,D*27
$GPGGA,135326.40,4612.0815583,N,00607.0233748,E,4,06,2.0,368.376,M,49.483,M,0.62,0195*78
$GPVTG,18.7627,T,18.7627,M,2.079,N,3.853,K,D*27
$GPGGA,135326.60,4612.0816598,N,00607.0234332,E,4,06,2.0,368.359,M,49.483,M,0.82,0195*7E
$GPVTG,15.7850,T,15.7850,M,2.096,N,3.885,K,D*2D
$GPGGA,135327.00,4612.0818918,N,00607.0235136,E,4,06,2.0,368.382,M,49.483,M,1.22,0195*79
$RDENS,1430,5000548,PC
$GPVTG,15.1609,T,15.1609,M,2.062,N,3.822,K,D*2B
$GPGGA,135327.20,4612.0819960,N,00607.0235604,E,4,06,2.0,368.371,M,49.483,M,1.42,0195*79
$GPVTG,14.3433,T,14.3433,M,2.028,N,3.758,K,D*27
$GPGGA,135327.60,4612.0822009,N,00607.0236449,E,4,06,2.0,368.348,M,49.483,M,1.82,0195*7D
$GPVTG,14.9905,T,14.9905,M,1.929,N,3.575,K,D*21
$GPGGA,135327.80,4612.0823187,N,00607.0236785,E,4,06,2.0,368.351,M,49.483,M,2.02,0195*75
$RDENS,1431,5000634,PC
$GPVTG,12.6074,T,12.6074,M,1.977,N,3.663,K,D*2E
$GPGGA,135328.20,4612.0825318,N,00607.0237484,E,4,06,2.0,368.368,M,49.483,M,2.42,0195*7F
$GPVTG,12.9130,T,12.9130,M,1.969,N,3.650,K,D*21
$GPGGA,135328.40,4612.0826304,N,00607.0237848,E,4,06,2.0,368.352,M,49.483,M,2.62,0195*70
$GPVTG,11.8747,T,11.8747,M,1.866,N,3.457,K,D*2A
$GPGGA,135328.80,4612.0828389,N,00607.0238349,E,4,06,2.0,368.386,M,49.483,M,3.02,0195*7C
$GPVTG,9.6940,T,9.6940,M,1.862,N,3.451,K,D*28
$RDENS,1432,5000731,PC
$GPGGA,135329.00,4612.0829343,N,00607.0238606,E,4,06,2.0,368.391,M,49.483,M,3.22,0195*78
$GPVTG,10.5563,T,10.5563,M,1.747,N,3.237,K,D*26
$GPGGA,135329.20,4612.0830312,N,00607.0238868,E,4,06,2.0,368.374,M,49.483,M,3.42,0195*7D
$GPVTG,10.1307,T,10.1307,M,1.672,N,3.099,K,D*27
$GPGGA,135329.60,4612.0832175,N,00607.0239293,E,4,06,2.0,368.325,M,49.483,M,3.82,0195*7F
$GPVTG,5.9683,T,5.9683,M,1.858,N,3.444,K,D*25
$RDENS,1433,5000822,PC
$GPGGA,135329.80,4612.0833083,N,00607.0239409,E,4,06,2.0,368.320,M,49.483,M,4.02,0195*77
$GPVTG,6.0249,T,6.0249,M,1.670,N,3.095,K,D*29
$GPGGA,135330.00,4612.0834039,N,00607.0239506,E,4,06,2.0,368.318,M,49.483,M,4.22,0195*76
$GPVTG,4.0020,T,4.0020,M,1.580,N,2.927,K,D*24
$GPGGA,135330.40,4612.0835952,N,00607.0239610,E,4,06,2.0,368.358,M,49.483,M,4.62,0195*73
$GPVTG,3.6562,T,3.6562,M,1.526,N,2.829,K,D*27
$RDENS,1434,5000913,PC
$GPGGA,135330.60,4612.0836773,N,00607.0239734,E,4,06,2.0,368.366,M,49.483,M,4.82,0195*7B
$GPVTG,1.4557,T,1.4557,M,1.628,N,3.018,K,D*21
$GPGGA,135331.00,4612.0838544,N,00607.0239720,E,4,06,2.0,368.382,M,49.483,M,5.22,0195*70
$GPVTG,359.4850,T,359.4850,M,1.473,N,2.730,K,D*21
$GPGGA,135331.20,4612.0839357,N,00607.0239663,E,4,06,2.0,368.385,M,49.483,M,5.42,0195*70
$GPVTG,357.9916,T,357.9916,M,1.468,N,2.720,K,D*2A
$GPGGA,135331.60,4612.0840942,N,00607.0239606,E,4,06,2.0,368.378,M,49.483,M,5.82,0195*79
$RDENS,1435,5001004,PC
$GPVTG,356.2335,T,356.2335,M,1.434,N,2.657,K,D*22
$GPGGA,135331.80,4612.0841699,N,00607.0239575,E,4,06,2.0,368.361,M,49.483,M,6.02,0195*7B
$GPVTG,358.6582,T,358.6582,M,1.410,N,2.613,K,D*24
$GPGGA,135332.20,4612.0843245,N,00607.0239519,E,4,06,2.0,368.347,M,49.483,M,6.42,0195*7F
$GPVTG,357.9180,T,357.9180,M,1.392,N,2.580,K,D*20
$GPGGA,135332.40,4612.0844071,N,00607.0239367,E,4,06,2.0,368.357,M,49.483,M,6.62,0195*77
$RDENS,1436,5001094,PC
$GPVTG,355.9599,T,355.9599,M,1.262,N,2.338,K,D*2B
$GPGGA,135332.80,4612.0845542,N,00607.0239199,E,4,06,2.0,368.359,M,49.483,M,7.02,0195*75
$GPVTG,354.6407,T,354.6407,M,1.358,N,2.517,K,D*28
$GPGGA,135333.00,4612.0846259,N,00607.0239210,E,4,06,2.0,368.373,M,49.483,M,7.22,0195*7A
$GPVTG,357.9440,T,357.9440,M,1.215,N,2.252,K,D*26
$GPGGA,135333.40,4612.0847541,N,00607.0239160,E,4,06,2.0,368.362,M,49.483,M,7.62,0195*71
$RDENS,1437,5001184,PC
$GPVTG,356.0886,T,356.0886,M,1.257,N,2.330,K,D*25
$GPGGA,135333.60,4612.0848127,N,00607.0239160,E,4,06,2.0,368.352,M,49.483,M,7.82,0195*75
$GPVTG,357.7436,T,357.7436,M,1.148,N,2.127,K,D*2C
$GPGGA,135334.00,4612.0849377,N,00607.0239002,E,4,06,2.0,368.344,M,49.483,M,8.22,0195*75
$GPVTG,352.3743,T,352.3743,M,1.090,N,2.020,K,D*2E
$GPGGA,135334.20,4612.0849940,N,00607.0238938,E,2,06,2.0,368.353,M,49.483,M,8.42,0195*7E
$RDENS,1438,5001275,PC
$GPVTG,352.3554,T,352.3554,M,1.153,N,2.137,K,D*27
$GPGGA,135334.60,4612.0851083,N,00607.0238784,E,2,06,2.0,368.354,M,49.483,M,8.82,0195*77
$GPVTG,353.1811,T,353.1811,M,0.958,N,1.776,K,D*25
$GPGGA,135334.80,4612.0851693,N,00607.0238604,E,2,06,2.0,368.378,M,49.483,M,9.02,0195*70
$GPVTG,355.0366,T,355.0366,M,1.011,N,1.873,K,D*2A
$GPGGA,135335.20,4612.0852758,N,00607.0238466,E,2,06,2.0,368.392,M,49.483,M,9.42,0195*78
$GPVTG,354.8976,T,354.8976,M,0.858,N,1.591,K,D*2F
$RDENS,1439,5001366,PC
$GPGGA,135335.40,4612.0853297,N,00607.0238350,E,2,06,2.0,368.405,M,49.483,M,9.62,0195*70
$GPVTG,354.7393,T,354.7393,M,0.767,N,1.422,K,D*25
$GPGGA,135335.80,4612.0854148,N,00607.0238205,E,2,06,2.0,368.384,M,49.483,M,10.02,0195*4B
$GPVTG,351.1069,T,351.1069,M,0.911,N,1.688,K,D*28
$GPGGA,135336.00,4612.0854536,N,00607.0238195,E,2,06,2.0,368.363,M,49.483,M,10.22,0195*4C
$GPVTG,350.6623,T,350.6623,M,0.817,N,1.514,K,D*29
$RDENS,1440,5001456,PC
$GPGGA,135336.20,4612.0854952,N,00607.0238143,E,2,06,2.0,368.359,M,49.483,M,10.42,0195*44
$GPVTG,351.7568,T,351.7568,M,0.770,N,1.427,K,D*26
$GPGGA,135336.60,4612.0855809,N,00607.0238002,E,2,06,2.0,368.360,M,49.483,M,10.82,0195*4C
$GPVTG,354.6804,T,354.6804,M,0.793,N,1.470,K,D*29
