$GPGGA,124305.00,4612.0358074,N,00607.4142284,E,2,10,0.9,368.681,M,49.479,M,0.35,0195*76
$GPVTG,168.3071,T,168.3071,M,0.086,N,0.159,K,D*25
$GPGGA,124305.20,4612.0357435,N,00607.4142137,E,2,09,1.0,368.491,M,49.479,M,0.55,0195*74
$GPVTG,150.1955,T,150.1955,M,0.074,N,0.137,K,D*20
$GPGGA,124305.60,4612.0357644,N,00607.4142435,E,2,09,1.0,368.524,M,49.479,M,0.16,0195*7B
$GPVTG,163.4800,T,163.4800,M,0.098,N,0.182,K,D*2C
$GPGGA,124305.80,4612.0357737,N,00607.4142547,E,2,09,1.0,368.536,M,49.479,M,0.36,0195*75
$GPVTG,138.8945,T,138.8945,M,0.068,N,0.126,K,D*2D
$GPGGA,124306.20,4612.0358059,N,00607.4142910,E,2,10,0.9,368.618,M,49.479,M,0.76,0195*79
$GPVTG,178.5689,T,178.5689,M,0.070,N,0.129,K,D*2B
$RDENS,1612,4578477,PC
$GPGGA,124306.40,4612.0358023,N,00607.4142855,E,2,10,0.9,368.592,M,49.479,M,0.04,0195*76
$GPVTG,139.0903,T,139.0903,M,0.048,N,0.089,K,D*2B
$GPGGA,124306.80,4612.0357980,N,00607.4142801,E,2,10,0.9,368.528,M,49.479,M,0.36,0195*74
$GPVTG,158.4379,T,158.4379,M,0.050,N,0.092,K,D*28
$GPGGA,124307.00,4612.0357866,N,00607.4142671,E,2,10,0.9,368.448,M,49.479,M,0.56,0195*7C
$GPVTG,113.8819,T,113.8819,M,0.071,N,0.132,K,D*20
$RDENS,1613,4578566,PC
$GPGGA,124307.40,4612.0358241,N,00607.4143029,E,2,10,0.9,368.517,M,49.479,M,0.96,0195*75
$GPVTG,164.0603,T,164.0603,M,0.060,N,0.112,K,D*22
$GPGGA,124307.60,4612.0358171,N,00607.4143027,E,2,10,0.9,368.495,M,49.479,M,0.08,0195*75
$GPVTG,134.1458,T,134.1458,M,0.060,N,0.111,K,D*21
$GPGGA,124308.00,4612.0357806,N,00607.4143080,E,2,11,0.8,368.421,M,49.479,M,0.48,0195*7C
$GPVTG,169.5042,T,169.5042,M,0.057,N,0.106,K,D*23
$RDENS,1614,4578655,PC
$GPGGA,124308.20,4612.0357808,N,00607.4143098,E,2,11,0.8,368.420,M,49.479,M,0.68,0195*7A
$GPVTG,107.9008,T,107.9008,M,0.020,N,0.037,K,D*20
$GPGGA,124308.60,4612.0357800,N,00607.4143153,E,2,11,0.8,368.435,M,49.479,M,0.08,0195*72
$GPVTG,150.1835,T,150.1835,M,0.049,N,0.091,K,D*23
$GPGGA,124308.80,4612.0357947,N,00607.4143136,E,2,11,0.8,368.466,M,49.479,M,0.28,0195*79
$GPVTG,162.8064,T,162.8064,M,0.041,N,0.076,K,D*22
$RDENS,1615,4578744,PC
$GPGGA,124309.20,4612.0357659,N,00607.4143023,E,2,11,0.8,368.408,M,49.479,M,0.68,0195*7B
$GPVTG,164.3610,T,164.3610,M,0.030,N,0.055,K,D*25
$GPGGA,124309.40,4612.0357518,N,00607.4142940,E,2,11,0.8,368.380,M,49.479,M,0.88,0195*7F
$GPVTG,144.3122,T,144.3122,M,0.022,N,0.041,K,D*23
$GPGGA,124309.60,4612.0357453,N,00607.4142846,E,2,11,0.8,368.370,M,49.479,M,0.09,0195*72
$GPVTG,153.3197,T,153.3197,M,0.040,N,0.073,K,D*26
$RDENS,1616,4578833,PC
$GPGGA,124310.00,4612.0357404,N,00607.4142811,E,2,11,0.8,368.401,M,49.479,M,0.31,0195*76
$GPVTG,120.7609,T,120.7609,M,0.035,N,0.065,K,D*23
$GPGGA,124310.20,4612.0357382,N,00607.4142815,E,2,11,0.8,368.405,M,49.479,M,0.51,0195*7B
$GPVTG,70.2123,T,70.2123,M,0.015,N,0.028,K,D*28
$GPGGA,124310.60,4612.0357191,N,00607.4142606,E,2,11,0.8,368.388,M,49.479,M,0.91,0195*7D
$GPVTG,242.2789,T,242.2789,M,0.020,N,0.038,K,D*2F
$RDENS,1617,4578922,PC
$GPGGA,124310.80,4612.0356753,N,00607.4142504,E,2,11,0.8,368.304,M,49.479,M,0.06,0195*71
$GPVTG,261.7529,T,261.7529,M,0.016,N,0.029,K,D*2A
$GPGGA,124311.20,4612.0356810,N,00607.4142355,E,2,11,0.8,368.262,M,49.479,M,0.46,0195*75
$GPVTG,293.6475,T,293.6475,M,0.008,N,0.015,K,D*2A
$GPGGA,124311.40,4612.0356718,N,00607.4142295,E,2,11,0.8,368.238,M,49.479,M,0.66,0195*74
$GPVTG,240.7166,T,240.7166,M,0.014,N,0.026,K,D*27
$RDENS,1618,4579011,PC
$GPGGA,124311.80,4612.0356729,N,00607.4142472,E,2,11,0.8,368.331,M,49.479,M,0.20,0195*7F
$GPVTG,214.1508,T,214.1508,M,0.039,N,0.072,K,D*29
$GPGGA,124312.00,4612.0356392,N,00607.4142052,E,2,11,0.8,368.213,M,49.479,M,0.40,0195*71
$GPVTG,173.9358,T,173.9358,M,0.014,N,0.026,K,D*27
$GPGGA,124312.40,4612.0356093,N,00607.4141139,E,2,12,0.8,367.919,M,49.479,M,0.80,0195*79
$GPVTG,234.0071,T,234.0071,M,0.021,N,0.038,K,D*2E
$RDENS,1619,4579100,PC
$GPGGA,124312.60,4612.0356115,N,00607.4141702,E,2,12,0.8,368.116,M,49.479,M,0.14,0195*7F
$GPVTG,304.1208,T,304.1208,M,0.029,N,0.053,K,D*2B
$GPGGA,124313.00,4612.0356193,N,00607.4141952,E,2,12,0.8,368.219,M,49.479,M,0.54,0195*75
$GPVTG,252.1430,T,252.1430,M,0.031,N,0.057,K,D*26
$GPGGA,124313.20,4612.0356260,N,00607.4141360,E,2,12,0.8,368.016,M,49.479,M,0.74,0195*7C
$GPVTG,298.0131,T,298.0131,M,0.031,N,0.058,K,D*29
$RDENS,1620,4579189,PC
$GPGGA,124313.60,4612.0356177,N,00607.4141683,E,2,12,0.8,368.132,M,49.479,M,0.09,0195*78
$GPVTG,248.9946,T,248.9946,M,0.020,N,0.038,K,D*2F
$GPGGA,124313.80,4612.0356106,N,00607.4141647,E,2,12,0.8,368.114,M,49.479,M,0.29,0195*7E
$GPVTG,286.2298,T,286.2298,M,0.042,N,0.078,K,D*2F
$GPGGA,124314.00,4612.0355722,N,00607.4139835,E,2,12,0.8,367.528,M,49.479,M,0.49,0195*74
$GPVTG,264.1397,T,264.1397,M,0.039,N,0.072,K,D*29
$RDENS,1621,4579278,PC
$GPGGA,124314.40,4612.0356137,N,00607.4141173,E,2,12,0.8,368.059,M,49.479,M,0.89,0195*75
$GPVTG,297.8335,T,297.8335,M,0.059,N,0.109,K,D*22
$GPGGA,124314.60,4612.0356045,N,00607.4141014,E,2,12,0.8,367.997,M,49.479,M,0.08,0195*7E
$GPVTG,103.9112,T,103.9112,M,0.101,N,0.188,K,D*27
$GPGGA,124315.00,4612.0355807,N,00607.4141035,E,2,12,0.8,367.955,M,49.479,M,0.32,0195*70
$GPVTG,104.1554,T,104.1554,M,0.162,N,0.301,K,D*21
$RDENS,1622,4579367,PC
$GPGGA,124315.20,4612.0356038,N,00607.4140755,E,2,12,0.8,367.802,M,49.479,M,0.16,0195*70
$GPVTG,109.9894,T,109.9894,M,0.329,N,0.610,K,D*29
$GPGGA,124315.60,4612.0354748,N,00607.4141268,E,2,12,0.8,367.885,M,49.479,M,0.24,0195*72
$GPVTG,114.1883,T,114.1883,M,0.352,N,0.653,K,D*22
$GPGGA,124315.80,4612.0354349,N,00607.4140893,E,2,12,0.8,367.736,M,49.479,M,0.44,0195*77
$GPVTG,122.9768,T,122.9768,M,0.319,N,0.591,K,D*20
$RDENS,1623,4579456,PC
$GPGGA,124316.20,4612.0353541,N,00607.4141259,E,2,12,0.8,367.694,M,49.479,M,0.84,0195*7F
$GPVTG,121.6503,T,121.6503,M,0.353,N,0.654,K,D*24
$GPGGA,124316.40,4612.0354263,N,00607.4141590,E,2,12,0.8,367.813,M,49.479,M,0.02,0195*74
$GPVTG,105.3652,T,105.3652,M,0.351,N,0.650,K,D*22
$GPGGA,124316.80,4612.0355865,N,00607.4144854,E,2,12,0.8,368.573,M,49.479,M,0.42,0195*75
$GPVTG,105.8509,T,105.8509,M,0.289,N,0.536,K,D*25
$GPGGA,124317.00,4612.0355169,N,00607.4144148,E,2,12,0.8,368.313,M,49.479,M,0.62,0195*7F
$RDENS,1624,4579545,PC
$GPVTG,110.3880,T,110.3880,M,0.319,N,0.591,K,D*20
$GPGGA,124317.40,4612.0355530,N,00607.4145142,E,2,11,0.8,368.412,M,49.479,M,0.05,0195*7C
$GPVTG,107.3550,T,107.3550,M,0.338,N,0.626,K,D*2C
$GPGGA,124317.60,4612.0354141,N,00607.4143992,E,2,10,0.9,367.970,M,49.479,M,0.25,0195*7A
$GPVTG,115.5050,T,115.5050,M,0.310,N,0.575,K,D*23
$GPGGA,124318.00,4612.0352718,N,00607.4144002,E,2,10,0.9,367.883,M,49.479,M,0.65,0195*71
$RDENS,1625,4579634,PC
$GPVTG,138.3450,T,138.3450,M,0.326,N,0.605,K,D*22
$GPGGA,124318.20,4612.0354070,N,00607.4144476,E,2,11,0.8,368.184,M,49.479,M,0.85,0195*74
$GPVTG,89.0451,T,89.0451,M,0.339,N,0.629,K,D*22
$GPGGA,124318.60,4612.0355057,N,00607.4145846,E,2,11,0.8,368.415,M,49.479,M,1.25,0195*7C
$GPVTG,107.4529,T,107.4529,M,0.346,N,0.642,K,D*27
$GPGGA,124318.80,4612.0353363,N,00607.4144133,E,2,11,0.8,367.756,M,49.479,M,0.15,0195*73
$RDENS,1626,4579723,PC
$GPVTG,123.7708,T,123.7708,M,0.274,N,0.507,K,D*25
$GPGGA,124319.00,4612.0354969,N,00607.4146950,E,2,10,0.9,368.595,M,49.479,M,0.35,0195*72
$GPVTG,110.8163,T,110.8163,M,0.216,N,0.400,K,D*27
$GPGGA,124319.40,4612.0355337,N,00607.4147891,E,2,11,0.8,368.767,M,49.479,M,0.05,0195*77
$GPVTG,118.6352,T,118.6352,M,0.267,N,0.495,K,D*2D
$GPGGA,124319.60,4612.0355066,N,00607.4148135,E,2,11,0.8,368.801,M,49.479,M,0.15,0195*74
$RDENS,1627,4579812,PC
$GPVTG,113.8467,T,113.8467,M,0.224,N,0.415,K,D*22
$GPGGA,124320.00,4612.0355864,N,00607.4148448,E,2,10,0.9,368.757,M,49.479,M,0.55,0195*75
$GPVTG,113.3992,T,113.3992,M,0.151,N,0.280,K,D*29
$GPGGA,124320.20,4612.0356280,N,00607.4148562,E,2,10,0.9,368.732,M,49.479,M,0.75,0195*7C
$GPVTG,98.1223,T,98.1223,M,0.092,N,0.171,K,D*2A
$GPGGA,124320.60,4612.0357548,N,00607.4149527,E,2,10,0.9,368.903,M,49.479,M,0.04,0195*70
$RDENS,1628,4579901,PC
$GPVTG,119.1608,T,119.1608,M,0.061,N,0.113,K,D*22
$GPGGA,124320.80,4612.0357660,N,00607.4149587,E,2,10,0.9,368.907,M,49.479,M,0.24,0195*7B
$GPVTG,18.3626,T,18.3626,M,0.048,N,0.089,K,D*2B
$GPGGA,124321.20,4612.0357648,N,00607.4149580,E,2,10,0.9,368.931,M,49.479,M,0.64,0195*7C
$GPVTG,322.7292,T,322.7292,M,0.039,N,0.071,K,D*2A
$GPGGA,124321.40,4612.0358168,N,00607.4149610,E,2,10,0.9,368.887,M,49.479,M,0.84,0195*78
$RDENS,1629,4579990,PC
$GPVTG,328.0601,T,328.0601,M,0.047,N,0.086,K,D*2B
$GPGGA,124321.80,4612.0358055,N,00607.4149240,E,2,10,0.9,368.785,M,49.479,M,1.24,0195*7C
$GPVTG,344.1004,T,344.1004,M,0.037,N,0.068,K,D*2C
$GPGGA,124322.00,4612.0358178,N,00607.4149181,E,2,10,0.9,368.779,M,49.479,M,0.08,0195*7B
$GPVTG,286.7641,T,286.7641,M,0.056,N,0.104,K,D*20
$GPGGA,124322.40,4612.0357720,N,00607.4149051,E,2,09,1.0,368.802,M,49.479,M,0.48,0195*70
$RDENS,1630,4580079,PC
$GPVTG,317.1151,T,317.1151,M,0.065,N,0.121,K,D*27
$GPVTG,308.2748,T,308.2748,M,0.111,N,0.205,K,D*20
$GPVTG,330.1240,T,330.1240,M,0.105,N,0.195,K,D*2F
$GPVTG,294.2014,T,294.2014,M,0.094,N,0.174,K,D*29
$GPVTG,326.0200,T,326.0200,M,0.184,N,0.342,K,D*2E
$RDENS,1631,4580168,PC
$GPVTG,293.3308,T,293.3308,M,0.133,N,0.246,K,D*27
$GPGGA,124323.60,4612.0357961,N,00607.4148699,E,2,09,1.0,368.773,M,49.479,M,0.12,0195*7D
$GPVTG,314.0779,T,314.0779,M,0.134,N,0.248,K,D*2E
$GPGGA,124323.80,4612.0356815,N,00607.4148661,E,2,09,1.0,368.915,M,49.479,M,0.32,0195*7B
$GPVTG,282.4253,T,282.4253,M,0.130,N,0.240,K,D*22
$RDENS,1632,4580257,PC
$GPGGA,124324.20,4612.0358175,N,00607.4148374,E,2,10,0.9,368.748,M,49.479,M,0.72,0195*74
$GPVTG,272.6970,T,272.6970,M,0.138,N,0.256,K,D*2D
$GPGGA,124324.40,4612.0357102,N,00607.4148341,E,2,10,0.9,368.870,M,49.479,M,0.16,0195*7D
$GPVTG,297.7647,T,297.7647,M,0.105,N,0.195,K,D*2F
$GPGGA,124324.80,4612.0359884,N,00607.4148094,E,2,10,0.9,368.505,M,49.479,M,0.24,0195*7D
$GPVTG,291.2505,T,291.2505,M,0.079,N,0.146,K,D*2B
$RDENS,1633,4580346,PC
$GPGGA,124325.00,4612.0359940,N,00607.4147924,E,2,10,0.9,368.492,M,49.479,M,0.44,0195*79
$GPVTG,298.5477,T,298.5477,M,0.260,N,0.482,K,D*2C
$GPVTG,302.2995,T,302.2995,M,0.339,N,0.628,K,D*23
$GPVTG,297.9249,T,297.9249,M,0.350,N,0.649,K,D*2B
$GPGGA,124325.60,4612.0356773,N,00607.4147171,E,2,09,0.9,368.823,M,49.479,M,1.04,0195*7D
$GPVTG,283.4258,T,283.4258,M,0.574,N,1.065,K,D*22
$GPGGA,124325.80,4612.0356795,N,00607.4146690,E,2,09,0.9,368.810,M,49.479,M,0.10,0195*76
$RDENS,1634,4580434,PC
$GPVTG,273.3763,T,273.3763,M,0.368,N,0.682,K,D*27
$GPGGA,124326.20,4612.0355779,N,00607.4146061,E,2,08,1.0,368.719,M,49.479,M,0.50,0195*7D
$GPVTG,265.3154,T,265.3154,M,0.722,N,1.337,K,D*27
$GPGGA,124326.40,4612.0355392,N,00607.4145265,E,2,08,1.0,368.658,M,49.479,M,0.70,0195*79
$GPVTG,276.4844,T,276.4844,M,0.738,N,1.368,K,D*26
$GPGGA,124326.80,4612.0355980,N,00607.4144400,E,2,09,0.9,368.769,M,49.479,M,0.08,0195*7D
$RDENS,1635,4580523,PC
$GPVTG,301.1354,T,301.1354,M,0.753,N,1.396,K,D*2A
$GPGGA,124327.00,4612.0356242,N,00607.4143842,E,2,09,0.9,368.814,M,49.479,M,0.28,0195*78
$GPVTG,289.0581,T,289.0581,M,0.854,N,1.583,K,D*20
$GPGGA,124327.40,4612.0356873,N,00607.4142816,E,2,09,0.9,368.883,M,49.479,M,0.68,0195*7E
$GPVTG,276.6998,T,276.6998,M,0.859,N,1.592,K,D*2D
$GPGGA,124327.60,4612.0357115,N,00607.4142168,E,2,09,0.9,368.861,M,49.479,M,0.10,0195*77
$RDENS,1636,4580612,PC
$GPVTG,277.5335,T,277.5335,M,0.628,N,1.163,K,D*2F
$GPGGA,124328.00,4612.0356702,N,00607.4140645,E,2,09,0.9,368.773,M,49.479,M,0.50,0195*7D
$GPVTG,306.2837,T,306.2837,M,1.006,N,1.865,K,D*2B
$GPGGA,124328.20,4612.0357082,N,00607.4140291,E,2,08,0.9,368.852,M,49.479,M,0.70,0195*73
$GPVTG,281.2189,T,281.2189,M,0.924,N,1.713,K,D*2D
$GPGGA,124328.60,4612.0357773,N,00607.4139084,E,2,08,0.9,368.837,M,49.479,M,0.15,0195*76
$RDENS,1637,4580701,PC
$GPVTG,294.2224,T,294.2224,M,0.707,N,1.311,K,D*24
$GPGGA,124328.80,4612.0358608,N,00607.4138926,E,2,08,0.9,368.968,M,49.479,M,0.35,0195*73
$GPVTG,273.7837,T,273.7837,M,0.786,N,1.457,K,D*28
$GPGGA,124329.20,4612.0359491,N,00607.4138157,E,2,08,0.9,369.111,M,49.479,M,0.75,0195*76
$GPVTG,296.5252,T,296.5252,M,0.773,N,1.433,K,D*20
$GPGGA,124329.40,4612.0359685,N,00607.4137699,E,2,08,0.9,369.116,M,49.479,M,0.95,0195*74
$RDENS,1638,4580790,PC
$GPVTG,281.2061,T,281.2061,M,0.874,N,1.620,K,D*28
$GPGGA,124329.60,4612.0359799,N,00607.4137069,E,2,08,0.9,369.088,M,49.479,M,1.15,0195*7C
$GPVTG,283.9819,T,283.9819,M,0.714,N,1.323,K,D*27
$GPGGA,124330.00,4612.0355366,N,00607.4132853,E,2,07,1.0,368.216,M,49.479,M,1.55,0195*79
$GPVTG,283.3098,T,283.3098,M,0.614,N,1.138,K,D*2E
$GPGGA,124330.20,4612.0358998,N,00607.4134141,E,2,08,1.0,368.837,M,49.479,M,1.75,0195*75
$RDENS,1639,4580879,PC
$GPVTG,287.3754,T,287.3754,M,0.444,N,0.823,K,D*2B
$GPVTG,279.8149,T,279.8149,M,0.412,N,0.763,K,D*23
$GPVTG,281.1126,T,281.1126,M,0.362,N,0.670,K,D*20
$GPVTG,282.6732,T,282.6732,M,0.292,N,0.541,K,D*2F
$GPGGA,124331.00,4612.0362564,N,00607.4134960,E,2,10,0.8,369.182,M,49.479,M,2.55,0195*7C
$GPVTG,293.7272,T,293.7272,M,0.284,N,0.526,K,D*29
$GPVTG,293.3763,T,293.3763,M,0.258,N,0.479,K,D*23
$RDENS,1640,4580968,PC
$GPVTG,282.2378,T,282.2378,M,0.174,N,0.323,K,D*26
$GPGGA,124331.60,4612.0360936,N,00607.4134128,E,2,09,0.9,369.158,M,49.479,M,0.14,0195*7E
$GPVTG,261.8553,T,261.8553,M,0.098,N,0.181,K,D*2F
$GPVTG,265.8296,T,265.8296,M,0.073,N,0.135,K,D*25
$GPVTG,222.0456,T,222.0456,M,0.065,N,0.120,K,D*26
$RDENS,1641,4581057,PC
$GPGGA,124332.20,4612.0362190,N,00607.4135199,E,2,10,0.9,369.562,M,49.479,M,0.74,0195*77
$GPVTG,218.4123,T,218.4123,M,0.110,N,0.203,K,D*27
$GPGGA,124332.40,4612.0362211,N,00607.4135206,E,2,10,0.9,369.574,M,49.479,M,0.01,0195*7B
$GPVTG,186.5747,T,186.5747,M,0.014,N,0.026,K,D*27
$GPVTG,120.2965,T,120.2965,M,0.114,N,0.212,K,D*23
$GPVTG,127.7485,T,127.7485,M,0.192,N,0.356,K,D*2C
$GPVTG,134.9126,T,134.9126,M,0.236,N,0.437,K,D*21
$RDENS,1642,4581146,PC
$GPVTG,98.0720,T,98.0720,M,0.241,N,0.447,K,D*26
$GPVTG,75.9427,T,75.9427,M,0.195,N,0.362,K,D*2C
$GPVTG,95.6447,T,95.6447,M,0.220,N,0.408,K,D*2A
$GPVTG,119.6804,T,119.6804,M,0.183,N,0.339,K,D*25
$RDENS,1643,4581235,PC
$GPVTG,92.9625,T,92.9625,M,0.238,N,0.442,K,D*2D
$GPVTG,81.3211,T,81.3211,M,0.242,N,0.449,K,D*2B
$GPVTG,82.4766,T,82.4766,M,0.265,N,0.491,K,D*2B
$GPVTG,82.7299,T,82.7299,M,0.225,N,0.416,K,D*20
$GPVTG,81.2390,T,81.2390,M,0.209,N,0.388,K,D*2E
$RDENS,1644,4581324,PC
$GPVTG,94.1416,T,94.1416,M,0.249,N,0.461,K,D*2A
$GPVTG,79.8202,T,79.8202,M,0.287,N,0.532,K,D*2F
$GPVTG,80.9486,T,80.9486,M,0.294,N,0.545,K,D*2D
$GPVTG,76.1967,T,76.1967,M,0.271,N,0.502,K,D*25
$RDENS,1645,4581413,PC
$GPVTG,74.7415,T,74.7415,M,0.216,N,0.400,K,D*27
$GPVTG,62.5973,T,62.5973,M,0.292,N,0.542,K,D*2C
$GPVTG,57.3538,T,57.3538,M,0.324,N,0.601,K,D*24
$GPVTG,55.6016,T,55.6016,M,0.416,N,0.772,K,D*27
$GPVTG,50.0073,T,50.0073,M,0.596,N,1.105,K,D*29
$RDENS,1646,4581502,PC
$GPVTG,64.6397,T,64.6397,M,0.553,N,1.025,K,D*23
$GPVTG,63.5971,T,63.5971,M,0.845,N,1.566,K,D*2B
$GPVTG,72.3155,T,72.3155,M,0.517,N,0.958,K,D*21
$GPVTG,71.2925,T,71.2925,M,0.506,N,0.938,K,D*27
$RDENS,1647,4581591,PC
$GPVTG,58.6638,T,58.6638,M,0.660,N,1.223,K,D*24
$GPVTG,65.0612,T,65.0612,M,0.473,N,0.876,K,D*2F
$GPVTG,59.0423,T,59.0423,M,0.632,N,1.172,K,D*24
$GPVTG,47.8190,T,47.8190,M,0.467,N,0.866,K,D*2B
$RDENS,1648,4581680,PC
$GPVTG,59.0620,T,59.0620,M,0.779,N,1.444,K,D*2A
$GPVTG,51.4105,T,51.4105,M,0.638,N,1.182,K,D*21
$GPVTG,49.9927,T,49.9927,M,1.048,N,1.943,K,D*24
$GPVTG,56.6056,T,56.6056,M,0.709,N,1.315,K,D*2E
$GPVTG,53.2202,T,53.2202,M,0.946,N,1.753,K,D*2D
$RDENS,1649,4581769,PC
$GPVTG,51.1480,T,51.1480,M,0.840,N,1.557,K,D*2C
$GPVTG,54.9821,T,54.9821,M,0.982,N,1.820,K,D*2E
$GPVTG,49.2206,T,49.2206,M,0.915,N,1.696,K,D*23
$GPVTG,50.8942,T,50.8942,M,1.065,N,1.974,K,D*2F
$RDENS,1650,4581858,PC
$GPVTG,52.2571,T,52.2571,M,1.127,N,2.089,K,D*20
$GPVTG,46.5282,T,46.5282,M,1.034,N,1.916,K,D*2F
$GPGGA,124340.60,4612.0364353,N,00607.4146180,E,2,09,1.0,368.661,M,49.479,M,1.21,0195*71
$GPVTG,47.7866,T,47.7866,M,1.092,N,2.023,K,D*2F
$GPGGA,124340.80,4612.0365827,N,00607.4147393,E,2,09,1.0,368.797,M,49.479,M,0.05,0195*78
$GPVTG,41.3359,T,41.3359,M,1.001,N,1.855,K,D*2F
$RDENS,1651,4581947,PC
$GPGGA,124341.20,4612.0366792,N,00607.4148679,E,2,09,1.0,368.826,M,49.479,M,0.45,0195*7E
$GPVTG,44.2627,T,44.2627,M,1.230,N,2.279,K,D*28
$GPGGA,124341.40,4612.0366801,N,00607.4149019,E,2,09,1.0,368.770,M,49.479,M,0.12,0195*72
$GPVTG,50.3693,T,50.3693,M,0.855,N,1.584,K,D*26
$GPGGA,124341.80,4612.0367602,N,00607.4150165,E,2,09,1.0,368.815,M,49.479,M,0.28,0195*75
$GPVTG,48.3427,T,48.3427,M,0.955,N,1.769,K,D*26
$RDENS,1652,4582036,PC
$GPGGA,124342.00,4612.0367783,N,00607.4150649,E,2,09,1.0,368.826,M,49.479,M,0.48,0195*79
$GPVTG,37.3577,T,37.3577,M,1.192,N,2.209,K,D*24
$GPGGA,124342.40,4612.0368355,N,00607.4151671,E,2,11,0.8,368.728,M,49.479,M,0.88,0195*7A
$GPVTG,32.8802,T,32.8802,M,1.208,N,2.238,K,D*26
$GPGGA,124342.60,4612.0368981,N,00607.4152132,E,2,11,0.8,368.721,M,49.479,M,0.09,0195*78
$GPVTG,33.7679,T,33.7679,M,1.212,N,2.245,K,D*27
$RDENS,1653,4582125,PC
$GPGGA,124343.00,4612.0368703,N,00607.4152533,E,2,09,0.9,368.660,M,49.479,M,0.31,0195*79
$GPVTG,36.3408,T,36.3408,M,1.312,N,2.431,K,D*23
$GPGGA,124343.20,4612.0368893,N,00607.4152747,E,2,09,0.9,368.544,M,49.479,M,0.51,0195*7F
$GPVTG,36.8801,T,36.8801,M,1.143,N,2.119,K,D*2A
$GPGGA,124343.40,4612.0369702,N,00607.4153396,E,2,09,0.9,368.608,M,49.479,M,0.71,0195*7F
$GPVTG,27.0353,T,27.0353,M,1.228,N,2.276,K,D*2E
$RDENS,1654,4582214,PC
$GPGGA,124343.80,4612.0370534,N,00607.4154113,E,2,10,0.8,368.553,M,49.479,M,1.11,0195*77
$GPVTG,18.3005,T,18.3005,M,1.227,N,2.274,K,D*23
$GPGGA,124344.00,4612.0370672,N,00607.4154151,E,2,10,0.8,368.440,M,49.479,M,1.31,0195*7E
$GPVTG,27.6836,T,27.6836,M,1.087,N,2.014,K,D*2F
$GPGGA,124344.40,4612.0372046,N,00607.4154990,E,2,10,0.8,368.421,M,49.479,M,1.71,0195*7F
$GPVTG,23.9188,T,23.9188,M,1.474,N,2.731,K,D*27
$RDENS,1655,4582303,PC
$GPGGA,124344.60,4612.0373310,N,00607.4155400,E,2,10,0.8,368.498,M,49.479,M,0.16,0195*7B
$GPVTG,33.6016,T,33.6016,M,1.201,N,2.226,K,D*20
$GPGGA,124345.00,4612.0375106,N,00607.4156385,E,2,09,1.0,368.558,M,49.479,M,0.24,0195*7B
$GPVTG,19.2425,T,19.2425,M,1.490,N,2.762,K,D*2B
$GPGGA,124345.20,4612.0375833,N,00607.4156969,E,2,09,1.0,368.575,M,49.479,M,0.44,0195*77
$GPVTG,19.2172,T,19.2172,M,1.559,N,2.889,K,D*25
$GPGGA,124345.60,4612.0377634,N,00607.4158011,E,2,09,1.0,368.611,M,49.479,M,0.02,0195*73
$RDENS,1656,4582392,PC
$GPVTG,19.2540,T,19.2540,M,1.777,N,3.294,K,D*2C
$GPGGA,124345.80,4612.0378670,N,00607.4158692,E,2,09,1.0,368.671,M,49.479,M,0.22,0195*7B
$GPVTG,22.9315,T,22.9315,M,1.633,N,3.026,K,D*26
$GPGGA,124346.20,4612.0380830,N,00607.4159622,E,2,09,1.0,368.689,M,49.479,M,0.62,0195*76
$GPVTG,21.9947,T,21.9947,M,1.623,N,3.008,K,D*2B
$GPGGA,124346.40,4612.0381775,N,00607.4160291,E,2,09,1.0,368.761,M,49.479,M,0.82,0195*70
$RDENS,1657,4582482,PC
$GPVTG,20.8999,T,20.8999,M,1.548,N,2.870,K,D*23
$GPGGA,124346.60,4612.0381308,N,00607.4160096,E,2,09,1.0,368.534,M,49.479,M,1.02,0195*72
$GPVTG,18.7769,T,18.7769,M,1.575,N,2.918,K,D*22
$GPGGA,124347.00,4612.0383745,N,00607.4160959,E,2,09,1.0,368.624,M,49.479,M,1.42,0195*76
$GPVTG,17.4283,T,17.4283,M,1.513,N,2.804,K,D*2E
$GPGGA,124347.20,4612.0384609,N,00607.4161384,E,2,09,1.0,368.615,M,49.479,M,1.62,0195*71
$RDENS,1658,4582571,PC
$GPVTG,19.2445,T,19.2445,M,1.496,N,2.773,K,D*2D
$GPGGA,124347.60,4612.0386132,N,00607.4162358,E,2,09,1.0,368.690,M,49.479,M,0.09,0195*7B
$GPVTG,17.3567,T,17.3567,M,1.330,N,2.465,K,D*22
$GPGGA,124347.80,4612.0386099,N,00607.4162489,E,2,09,1.0,368.611,M,49.479,M,0.05,0195*7B
$GPVTG,15.2642,T,15.2642,M,1.396,N,2.586,K,D*22
$GPVTG,13.3921,T,13.3921,M,1.451,N,2.689,K,D*22
$RDENS,1659,4582660,PC
$GPVTG,13.8709,T,13.8709,M,1.452,N,2.691,K,D*28
$GPGGA,124348.40,4612.0394391,N,00607.4168299,E,2,11,0.8,369.652,M,49.479,M,0.55,0195*7E
$GPVTG,13.1590,T,13.1590,M,1.485,N,2.753,K,D*2D
$GPGGA,124348.60,4612.0394804,N,00607.4167507,E,2,11,0.8,369.386,M,49.479,M,0.08,0195*70
$GPVTG,3.7783,T,3.7783,M,1.341,N,2.486,K,D*29
$GPVTG,15.3190,T,15.3190,M,1.305,N,2.419,K,D*2F
$GPGGA,124349.00,4612.0396945,N,00607.4168117,E,2,10,0.9,369.623,M,49.479,M,0.48,0195*75
$RDENS,1660,4582749,PC
$GPVTG,11.5090,T,11.5090,M,1.503,N,2.786,K,D*2A
$GPGGA,124349.40,4612.0398681,N,00607.4169023,E,2,10,0.9,369.728,M,49.479,M,0.88,0195*79
$GPVTG,15.7954,T,15.7954,M,1.451,N,2.689,K,D*22
$GPGGA,124349.60,4612.0399154,N,00607.4168849,E,2,10,0.9,369.618,M,49.479,M,0.07,0195*75
$GPVTG,12.4192,T,12.4192,M,1.365,N,2.530,K,D*23
$GPGGA,124350.00,4612.0399646,N,00607.4168092,E,2,10,0.9,369.186,M,49.479,M,0.47,0195*75
$RDENS,1661,4582838,PC
$GPVTG,11.5303,T,11.5303,M,1.592,N,2.950,K,D*27
$GPGGA,124350.20,4612.0400264,N,00607.4168113,E,2,10,0.9,369.120,M,49.479,M,0.67,0195*72
$GPVTG,8.7466,T,8.7466,M,1.544,N,2.862,K,D*2C
$GPGGA,124350.40,4612.0401642,N,00607.4169178,E,2,10,0.9,369.394,M,49.479,M,0.02,0195*77
$GPVTG,10.9415,T,10.9415,M,1.501,N,2.782,K,D*2C
$GPGGA,124350.80,4612.0404448,N,00607.4170428,E,2,11,0.8,369.661,M,49.479,M,0.42,0195*75
$RDENS,1662,4582927,PC
$GPVTG,11.4668,T,11.4668,M,1.428,N,2.646,K,D*2F
$GPGGA,124351.00,4612.0404599,N,00607.4169992,E,2,11,0.8,369.438,M,49.479,M,0.62,0195*79
$GPVTG,9.4225,T,9.4225,M,1.431,N,2.652,K,D*22
$GPVTG,9.0386,T,9.0386,M,1.400,N,2.595,K,D*28
$GPGGA,124351.40,4612.0405518,N,00607.4169853,E,2,11,0.8,369.273,M,49.479,M,1.02,0195*77
$GPVTG,11.7772,T,11.7772,M,1.378,N,2.553,K,D*2A
$RDENS,1663,4583016,PC
$GPGGA,124351.80,4612.0406571,N,00607.4169929,E,2,11,0.8,369.144,M,49.479,M,1.42,0195*78
$GPVTG,11.1713,T,11.1713,M,1.454,N,2.695,K,D*2A
$GPGGA,124352.00,4612.0406631,N,00607.4169572,E,2,11,0.8,368.998,M,49.479,M,1.62,0195*7C
$GPVTG,11.8409,T,11.8409,M,1.607,N,2.978,K,D*22
$GPGGA,124352.40,4612.0408504,N,00607.4170381,E,2,11,0.8,369.057,M,49.479,M,0.01,0195*7E
$GPVTG,13.3391,T,13.3391,M,1.590,N,2.946,K,D*22
$GPGGA,124352.60,4612.0409245,N,00607.4170711,E,2,11,0.8,369.063,M,49.479,M,0.19,0195*7C
$RDENS,1664,4583105,PC
$GPVTG,15.8529,T,15.8529,M,1.682,N,3.117,K,D*2F
$GPGGA,124353.00,4612.0410240,N,00607.4170768,E,2,11,0.8,368.863,M,49.479,M,0.22,0195*79
$GPVTG,14.7862,T,14.7862,M,1.602,N,2.969,K,D*27
$GPGGA,124353.20,4612.0411199,N,00607.4170917,E,2,11,0.8,368.785,M,49.479,M,0.42,0195*7A
$GPVTG,16.3733,T,16.3733,M,1.735,N,3.215,K,D*23
$GPGGA,124353.60,4612.0411958,N,00607.4171046,E,2,11,0.8,368.577,M,49.479,M,0.14,0195*7B
$RDENS,1665,4583195,PC
$GPVTG,18.3432,T,18.3432,M,1.746,N,3.236,K,D*26
$GPGGA,124353.80,4612.0412988,N,00607.4171546,E,2,11,0.8,368.611,M,49.479,M,0.34,0195*7F
$GPVTG,21.3888,T,21.3888,M,1.845,N,3.419,K,D*21
$GPGGA,124354.00,4612.0413868,N,00607.4172074,E,2,11,0.8,368.628,M,49.479,M,0.54,0195*75
$GPVTG,18.3765,T,18.3765,M,1.801,N,3.338,K,D*25
$GPGGA,124354.40,4612.0415662,N,00607.4173002,E,2,11,0.8,368.647,M,49.479,M,0.94,0195*76
$RDENS,1666,4583285,PC
$GPVTG,19.0959,T,19.0959,M,1.829,N,3.389,K,D*25
$GPGGA,124354.60,4612.0416560,N,00607.4173392,E,2,11,0.8,368.609,M,49.479,M,1.14,0195*7F
$GPVTG,20.2656,T,20.2656,M,1.773,N,3.286,K,D*2B
$GPGGA,124355.00,4612.0417622,N,00607.4174176,E,2,11,0.8,368.484,M,49.479,M,1.54,0195*70
$GPVTG,21.0151,T,21.0151,M,1.784,N,3.305,K,D*29
$GPGGA,124355.20,4612.0416967,N,00607.4174229,E,2,11,0.8,368.378,M,49.479,M,1.74,0195*72
$RDENS,1667,4583375,PC
$GPVTG,22.0409,T,22.0409,M,1.838,N,3.406,K,D*25
$GPGGA,124355.60,4612.0419035,N,00607.4175450,E,2,11,0.8,368.293,M,49.479,M,0.03,0195*7B
$GPVTG,19.7033,T,19.7033,M,1.723,N,3.193,K,D*29
$GPGGA,124355.80,4612.0420929,N,00607.4176187,E,2,11,0.8,368.420,M,49.479,M,0.12,0195*79
$GPVTG,20.9423,T,20.9423,M,1.773,N,3.286,K,D*2B
$GPGGA,124356.20,4612.0423201,N,00607.4177309,E,2,11,0.8,368.444,M,49.479,M,0.52,0195*71
$GPVTG,20.4983,T,20.4983,M,1.960,N,3.633,K,D*2D
$RDENS,1668,4583466,PC
$GPGGA,124356.40,4612.0423851,N,00607.4177811,E,2,11,0.8,368.330,M,49.479,M,0.72,0195*7C
$GPVTG,21.5711,T,21.5711,M,2.017,N,3.738,K,D*2D
$GPGGA,124356.60,4612.0426301,N,00607.4178466,E,2,10,0.9,368.649,M,49.479,M,0.92,0195*73
$GPVTG,22.6343,T,22.6343,M,1.899,N,3.519,K,D*21
$GPGGA,124357.00,4612.0428084,N,00607.4179548,E,2,10,0.9,368.623,M,49.479,M,1.32,0195*7F
$GPVTG,21.5422,T,21.5422,M,2.016,N,3.736,K,D*22
$RDENS,1669,4583558,PC
$GPGGA,124357.20,4612.0429128,N,00607.4180145,E,2,10,0.9,368.661,M,49.479,M,0.09,0195*7B
$GPVTG,20.0592,T,20.0592,M,2.021,N,3.745,K,D*22
$GPGGA,124357.60,4612.0430965,N,00607.4181120,E,2,10,0.9,368.623,M,49.479,M,0.15,0195*7F
$GPVTG,21.0841,T,21.0841,M,2.022,N,3.748,K,D*2C
$GPGGA,124357.80,4612.0431904,N,00607.4181630,E,2,10,0.9,368.610,M,49.479,M,0.35,0195*73
$GPVTG,20.7039,T,20.7039,M,2.125,N,3.939,K,D*22
$RDENS,1670,4583647,PC
$GPGGA,124358.20,4612.0433924,N,00607.4182787,E,2,10,0.9,368.602,M,49.479,M,0.75,0195*7F
$GPVTG,21.9465,T,21.9465,M,2.059,N,3.816,K,D*24
$GPGGA,124358.40,4612.0434953,N,00607.4183301,E,2,10,0.9,368.584,M,49.479,M,0.06,0195*7C
$GPVTG,20.0561,T,20.0561,M,2.074,N,3.844,K,D*2C
$GPGGA,124358.80,4612.0437123,N,00607.4184377,E,2,10,0.9,368.540,M,49.479,M,0.34,0195*73
$GPVTG,21.3175,T,21.3175,M,2.120,N,3.929,K,D*26
$RDENS,1671,4583737,PC
$GPGGA,124359.00,4612.0438252,N,00607.4184972,E,2,10,0.9,368.539,M,49.479,M,0.54,0195*77
$GPVTG,20.8858,T,20.8858,M,2.095,N,3.883,K,D*28
$GPGGA,124359.20,4612.0439286,N,00607.4185557,E,2,10,0.9,368.532,M,49.479,M,0.74,0195*7E
$GPVTG,21.5988,T,21.5988,M,2.122,N,3.932,K,D*2E
$GPGGA,124359.60,4612.0441539,N,00607.4186799,E,2,10,0.9,368.537,M,49.479,M,0.05,0195*76
$GPVTG,19.5808,T,19.5808,M,2.237,N,4.145,K,D*26
$RDENS,1672,4583827,PC
$GPGGA,124359.80,4612.0442620,N,00607.4187353,E,2,10,0.9,368.513,M,49.479,M,0.25,0195*77
$GPVTG,21.5235,T,21.5235,M,2.207,N,4.091,K,D*2D
$GPGGA,124400.20,4612.0443305,N,00607.4187031,E,2,11,0.8,368.078,M,49.479,M,0.65,0195*7E
$GPVTG,19.7861,T,19.7861,M,2.136,N,3.958,K,D*27
$GPGGA,124400.40,4612.0444529,N,00607.4187557,E,2,12,0.8,368.069,M,49.479,M,0.04,0195*76
$GPVTG,19.8754,T,19.8754,M,2.198,N,4.074,K,D*23
$GPGGA,124400.80,4612.0446994,N,00607.4189207,E,2,11,0.8,368.164,M,49.479,M,0.44,0195*75
$RDENS,1673,4583918,PC
$GPVTG,21.6815,T,21.6815,M,2.154,N,3.992,K,D*25
$GPGGA,124401.00,4612.0448219,N,00607.4189945,E,2,11,0.8,368.193,M,49.479,M,0.64,0195*7B
$GPVTG,19.9758,T,19.9758,M,2.161,N,4.004,K,D*22
$GPGGA,124401.40,4612.0450486,N,00607.4191238,E,2,11,0.8,368.243,M,49.479,M,0.00,0195*72
$GPVTG,21.0123,T,21.0123,M,2.051,N,3.802,K,D*29
$GPGGA,124401.60,4612.0451629,N,00607.4191918,E,2,11,0.8,368.251,M,49.479,M,0.20,0195*7E
$RDENS,1674,4584010,PC
$GPVTG,19.8438,T,19.8438,M,2.127,N,3.942,K,D*2C
$GPGGA,124402.00,4612.0453931,N,00607.4193210,E,2,11,0.8,368.285,M,49.479,M,0.60,0195*73
$GPVTG,21.0822,T,21.0822,M,2.127,N,3.941,K,D*2F
$GPGGA,124402.20,4612.0455023,N,00607.4193792,E,2,11,0.8,368.283,M,49.479,M,0.80,0195*7A
$GPVTG,19.2220,T,19.2220,M,2.062,N,3.822,K,D*2B
$GPGGA,124402.40,4612.0456151,N,00607.4194438,E,2,11,0.8,368.270,M,49.479,M,1.00,0195*7A
$GPVTG,20.3770,T,20.3770,M,2.113,N,3.917,K,D*2B
$RDENS,1675,4584100,PC
$GPGGA,124402.80,4612.0458104,N,00607.4195734,E,2,11,0.8,368.244,M,49.479,M,1.40,0195*75
$GPVTG,18.8685,T,18.8685,M,2.071,N,3.838,K,D*22
$GPGGA,124403.00,4612.0459183,N,00607.4196356,E,2,11,0.8,368.259,M,49.479,M,1.60,0195*7F
$GPVTG,18.8016,T,18.8016,M,2.137,N,3.961,K,D*2C
$GPGGA,124403.40,4612.0461400,N,00607.4197454,E,2,11,0.8,368.260,M,49.479,M,2.00,0195*75
$GPVTG,20.7158,T,20.7158,M,2.120,N,3.929,K,D*26
$RDENS,1676,4584191,PC
$GPGGA,124403.60,4612.0462531,N,00607.4197981,E,2,11,0.8,368.244,M,49.479,M,2.20,0195*76
$GPVTG,19.0284,T,19.0284,M,2.195,N,4.068,K,D*23
$GPGGA,124404.00,4612.0464747,N,00607.4199095,E,2,11,0.8,368.222,M,49.479,M,2.60,0195*74
$GPVTG,18.1693,T,18.1693,M,2.154,N,3.991,K,D*26
$GPGGA,124404.20,4612.0465972,N,00607.4199632,E,2,11,0.8,368.217,M,49.479,M,2.80,0195*7C
$GPVTG,17.3205,T,17.3205,M,2.153,N,3.990,K,D*20
$RDENS,1677,4584280,PC
$GPGGA,124404.60,4612.0468304,N,00607.4200619,E,2,11,0.8,368.221,M,49.479,M,0.02,0195*79
$GPVTG,17.7694,T,17.7694,M,2.166,N,4.015,K,D*25
$GPGGA,124404.80,4612.0469479,N,00607.4201170,E,2,11,0.8,368.215,M,49.479,M,0.22,0195*77
$GPVTG,16.8575,T,16.8575,M,2.152,N,3.989,K,D*29
$GPGGA,124405.00,4612.0470611,N,00607.4201621,E,2,11,0.8,368.188,M,49.479,M,0.07,0195*79
$GPVTG,18.0772,T,18.0772,M,2.256,N,4.180,K,D*28
$RDENS,1678,4584372,PC
$GPGGA,124405.40,4612.0472866,N,00607.4202695,E,2,11,0.8,368.165,M,49.479,M,0.47,0195*7A
$GPVTG,17.0023,T,17.0023,M,2.248,N,4.166,K,D*2F
$GPGGA,124405.60,4612.0474001,N,00607.4203196,E,2,11,0.8,368.172,M,49.479,M,0.67,0195*76
$GPVTG,15.1484,T,15.1484,M,2.224,N,4.122,K,D*25
$GPGGA,124406.00,4612.0476403,N,00607.4204103,E,2,11,0.8,368.150,M,49.479,M,1.07,0195*7B
$GPVTG,15.4108,T,15.4108,M,2.282,N,4.230,K,D*29
$RDENS,1679,4584463,PC
$GPGGA,124406.20,4612.0477605,N,00607.4204638,E,2,11,0.8,368.147,M,49.479,M,1.27,0195*77
$GPVTG,15.3395,T,15.3395,M,2.209,N,4.094,K,D*26
$GPGGA,124406.60,4612.0479910,N,00607.4205632,E,2,12,0.8,368.164,M,49.479,M,0.14,0195*7E
$GPVTG,15.4672,T,15.4672,M,2.253,N,4.176,K,D*24
$GPGGA,124406.80,4612.0481113,N,00607.4206163,E,2,12,0.8,368.161,M,49.479,M,0.34,0195*7B
$GPVTG,13.7394,T,13.7394,M,2.263,N,4.193,K,D*2C
$GPGGA,124407.20,4612.0480998,N,00607.4208319,E,4,08,0.9,368.537,M,49.479,M,0.24,0195*71
$RDENS,1680,4584553,PC
$GPVTG,13.3776,T,13.3776,M,2.263,N,4.194,K,D*2B
$GPGGA,124407.40,4612.0482225,N,00607.4208781,E,4,08,0.9,368.544,M,49.479,M,0.44,0195*7F
$GPVTG,12.9323,T,12.9323,M,2.292,N,4.248,K,D*27
$GPGGA,124407.60,4612.0483483,N,00607.4209199,E,4,08,0.9,368.534,M,49.479,M,0.07,0195*78
$GPVTG,13.0717,T,13.0717,M,2.226,N,4.126,K,D*23
$GPGGA,124408.00,4612.0485929,N,00607.4209983,E,4,08,0.9,368.539,M,49.479,M,0.47,0195*70
$RDENS,1681,4584645,PC
$GPVTG,12.4621,T,12.4621,M,2.305,N,4.272,K,D*21
$GPGGA,124408.20,4612.0487203,N,00607.4210372,E,4,08,0.9,368.532,M,49.479,M,0.67,0195*76
$GPVTG,12.8829,T,12.8829,M,2.274,N,4.215,K,D*27
$GPGGA,124408.60,4612.0489670,N,00607.4211162,E,4,08,0.9,368.554,M,49.479,M,1.07,0195*79
$GPVTG,12.3462,T,12.3462,M,2.264,N,4.196,K,D*2E
$GPGGA,124408.80,4612.0490948,N,00607.4211549,E,4,08,0.9,368.547,M,49.479,M,1.27,0195*76
$GPVTG,11.7854,T,11.7854,M,2.324,N,4.307,K,D*21
$RDENS,1682,4584737,PC
$GPGGA,124409.20,4612.0493513,N,00607.4212299,E,4,08,0.9,368.547,M,49.479,M,1.67,0195*71
$GPVTG,11.2865,T,11.2865,M,2.397,N,4.443,K,D*2E
$GPGGA,124409.40,4612.0494780,N,00607.4212675,E,4,08,0.9,368.545,M,49.479,M,1.87,0195*72
$GPVTG,10.9508,T,10.9508,M,2.346,N,4.349,K,D*2F
$GPGGA,124409.80,4612.0497369,N,00607.4213402,E,4,08,0.9,368.533,M,49.479,M,0.22,0195*72
$GPVTG,11.2431,T,11.2431,M,2.400,N,4.447,K,D*23
$RDENS,1683,4584828,PC
$GPGGA,124410.00,4612.0498656,N,00607.4213751,E,4,08,0.9,368.531,M,49.479,M,0.42,0195*75
$GPVTG,10.8429,T,10.8429,M,2.379,N,4.409,K,D*20
$GPGGA,124410.40,4612.0501283,N,00607.4214455,E,4,08,0.9,368.544,M,49.479,M,0.82,0195*72
$GPVTG,10.2043,T,10.2043,M,2.430,N,4.503,K,D*21
$GPGGA,124410.60,4612.0502618,N,00607.4214781,E,4,08,0.9,368.538,M,49.479,M,1.02,0195*7D
$GPVTG,9.5329,T,9.5329,M,2.434,N,4.511,K,D*26
$RDENS,1684,4584919,PC
$GPGGA,124410.80,4612.0503929,N,00607.4215108,E,4,08,0.9,368.544,M,49.479,M,1.22,0195*70
$GPVTG,10.1202,T,10.1202,M,2.461,N,4.560,K,D*20
$GPGGA,124411.20,4612.0506606,N,00607.4215781,E,4,08,0.9,368.553,M,49.479,M,0.14,0195*79
$GPVTG,9.6405,T,9.6405,M,2.422,N,4.488,K,D*20
$GPGGA,124411.40,4612.0507960,N,00607.4216104,E,4,08,0.9,368.551,M,49.479,M,0.05,0195*7B
$GPVTG,8.6000,T,8.6000,M,2.477,N,4.590,K,D*28
$RDENS,1685,4585008,PC
$GPGGA,124411.60,4612.0509327,N,00607.4216406,E,4,08,0.9,368.553,M,49.479,M,0.15,0195*7A
$GPVTG,9.2476,T,9.2476,M,2.474,N,4.585,K,D*2F
$GPGGA,124412.00,4612.0512030,N,00607.4217007,E,4,08,0.9,368.549,M,49.479,M,0.55,0195*7B
$GPVTG,10.1411,T,10.1411,M,2.557,N,4.740,K,D*24
$GPGGA,124412.40,4612.0514815,N,00607.4217670,E,4,08,0.9,368.544,M,49.479,M,0.95,0195*71
$GPVTG,8.6420,T,8.6420,M,2.513,N,4.658,K,D*2C
$RDENS,1686,4585099,PC
$GPGGA,124412.60,4612.0516195,N,00607.4217963,E,4,08,0.9,368.543,M,49.479,M,1.15,0195*73
$GPVTG,8.3727,T,8.3727,M,2.490,N,4.615,K,D*2F
$GPGGA,124412.80,4612.0517568,N,00607.4218255,E,4,08,0.9,368.538,M,49.479,M,0.04,0195*76
$GPVTG,9.7729,T,9.7729,M,2.537,N,4.701,K,D*27
$GPGGA,124413.00,4612.0518966,N,00607.4218600,E,4,08,0.9,368.548,M,49.479,M,0.24,0195*73
$GPVTG,9.3906,T,9.3906,M,2.512,N,4.656,K,D*23
$GPVTG,9.5886,T,9.5886,M,2.539,N,4.705,K,D*2D
$RDENS,1687,4585189,PC
$GPGGA,124413.60,4612.0523130,N,00607.4219547,E,4,08,0.9,368.548,M,49.479,M,0.01,0195*70
$GPVTG,8.4576,T,8.4576,M,2.561,N,4.747,K,D*26
$GPGGA,124413.80,4612.0524535,N,00607.4219856,E,4,08,0.9,368.540,M,49.479,M,0.21,0195*7F
$GPVTG,9.2097,T,9.2097,M,2.494,N,4.623,K,D*2E
$GPGGA,124414.00,4612.0525908,N,00607.4220169,E,4,08,0.9,368.547,M,49.479,M,0.41,0195*7D
$GPVTG,8.0584,T,8.0584,M,2.554,N,4.734,K,D*24
$RDENS,1688,4585286,PC
$GPGGA,124414.40,4612.0528691,N,00607.4220781,E,4,08,0.9,368.541,M,49.479,M,0.81,0195*71
$GPVTG,9.1072,T,9.1072,M,2.500,N,4.634,K,D*24
$GPGGA,124414.60,4612.0530077,N,00607.4221096,E,4,08,0.9,368.533,M,49.479,M,0.13,0195*7A
$GPVTG,10.0661,T,10.0661,M,2.563,N,4.750,K,D*22
$GPGGA,124415.00,4612.0532848,N,00607.4221751,E,4,08,0.9,368.547,M,49.479,M,0.53,0195*70
$GPVTG,8.5273,T,8.5273,M,2.445,N,4.531,K,D*22
$GPGGA,124415.20,4612.0534210,N,00607.4222047,E,4,08,0.9,368.548,M,49.479,M,0.73,0195*7D
$GPVTG,9.7570,T,9.7570,M,2.521,N,4.672,K,D*25
$RDENS,1689,4585383,PC
$GPGGA,124415.40,4612.0535596,N,00607.4222388,E,4,08,0.9,368.553,M,49.479,M,0.93,0195*77
$GPVTG,8.7190,T,8.7190,M,2.482,N,4.600,K,D*28
$GPGGA,124415.80,4612.0538325,N,00607.4222979,E,4,08,0.9,368.541,M,49.479,M,1.33,0195*74
$GPVTG,8.4588,T,8.4588,M,2.464,N,4.567,K,D*22
$GPGGA,124416.00,4612.0539678,N,00607.4223269,E,4,08,0.9,368.529,M,49.479,M,1.53,0195*70
$GPVTG,8.4963,T,8.4963,M,2.482,N,4.599,K,D*2B
$RDENS,1690,4585480,PC
$GPGGA,124416.40,4612.0542408,N,00607.4223834,E,4,08,0.9,368.540,M,49.479,M,0.22,0195*77
$GPVTG,7.1219,T,7.1219,M,2.524,N,4.677,K,D*25
$GPGGA,124416.60,4612.0543800,N,00607.4224087,E,4,08,0.9,368.543,M,49.479,M,0.42,0195*72
$GPVTG,8.0834,T,8.0834,M,2.424,N,4.492,K,D*2D
$GPGGA,124417.00,4612.0546487,N,00607.4224565,E,4,08,0.9,368.552,M,49.479,M,0.82,0195*76
$GPVTG,6.2453,T,6.2453,M,2.391,N,4.431,K,D*2D
$GPGGA,124417.20,4612.0547806,N,00607.4224773,E,4,08,0.9,368.555,M,49.479,M,1.02,0195*7B
$RDENS,1691,4585577,PC
$GPVTG,4.5617,T,4.5617,M,2.341,N,4.338,K,D*2E
$GPGGA,124417.40,4612.0549109,N,00607.4224919,E,4,08,0.9,368.554,M,49.479,M,0.02,0195*77
$GPVTG,4.1465,T,4.1465,M,2.297,N,4.256,K,D*2D
$GPGGA,124417.80,4612.0551640,N,00607.4225132,E,4,08,0.9,368.544,M,49.479,M,0.15,0195*7F
$GPVTG,3.0108,T,3.0108,M,2.260,N,4.188,K,D*25
$GPGGA,124418.00,4612.0552889,N,00607.4225224,E,4,08,0.9,368.554,M,49.479,M,0.35,0195*77
$RDENS,1692,4585663,PC
$GPVTG,2.7393,T,2.7393,M,2.218,N,4.111,K,D*2A
$GPGGA,124418.40,4612.0555327,N,00607.4225357,E,4,08,0.9,368.556,M,49.479,M,0.75,0195*78
$GPVTG,0.0350,T,0.0350,M,2.162,N,4.006,K,D*23
$GPGGA,124418.60,4612.0556570,N,00607.4225370,E,4,08,0.9,368.555,M,49.479,M,0.12,0195*7A
$GPVTG,0.4446,T,0.4446,M,2.164,N,4.010,K,D*22
$GPGGA,124419.00,4612.0558978,N,00607.4225335,E,4,08,0.9,368.567,M,49.479,M,0.52,0195*73
$RDENS,1693,4585749,PC
$GPVTG,358.3191,T,358.3191,M,2.163,N,4.008,K,D*2C
$GPGGA,124419.20,4612.0560171,N,00607.4225282,E,4,08,0.9,368.564,M,49.479,M,0.72,0195*77
$GPVTG,357.1749,T,357.1749,M,2.126,N,3.939,K,D*21
$GPGGA,124419.60,4612.0562523,N,00607.4225093,E,4,08,0.9,368.562,M,49.479,M,0.05,0195*76
$GPVTG,356.3100,T,356.3100,M,2.125,N,3.938,K,D*23
$GPGGA,124419.80,4612.0563691,N,00607.4224939,E,4,08,0.9,368.564,M,49.479,M,0.15,0195*7C
$RDENS,1694,4585835,PC
$GPVTG,354.2647,T,354.2647,M,2.064,N,3.825,K,D*2A
$GPGGA,124420.20,4612.0566004,N,00607.4224608,E,4,08,0.9,368.562,M,49.479,M,0.55,0195*7C
$GPVTG,354.2186,T,354.2186,M,2.108,N,3.907,K,D*20
$GPGGA,124420.40,4612.0567137,N,00607.4224452,E,4,08,0.9,368.572,M,49.479,M,0.75,0195*74
$GPVTG,353.4938,T,353.4938,M,2.157,N,3.997,K,D*23
$GPGGA,124420.80,4612.0569501,N,00607.4224089,E,4,08,0.9,368.579,M,49.479,M,1.15,0195*79
$RDENS,1695,4585921,PC
$GPVTG,354.4178,T,354.4178,M,2.144,N,3.974,K,D*2C
$GPGGA,124421.00,4612.0570738,N,00607.4223918,E,4,08,0.9,368.597,M,49.479,M,1.35,0195*74
$GPVTG,354.3877,T,354.3877,M,2.239,N,4.150,K,D*2C
$GPGGA,124421.40,4612.0573259,N,00607.4223552,E,4,08,0.9,368.592,M,49.479,M,1.75,0195*72
$GPVTG,354.1166,T,354.1166,M,2.320,N,4.300,K,D*22
$GPGGA,124421.60,4612.0574570,N,00607.4223382,E,4,08,0.9,368.585,M,49.479,M,1.95,0195*78
$RDENS,1696,4586006,PC
$GPVTG,356.0407,T,356.0407,M,2.366,N,4.385,K,D*2D
$GPGGA,124422.00,4612.0577231,N,00607.4223130,E,4,08,0.9,368.567,M,49.479,M,0.14,0195*73
$GPVTG,356.5377,T,356.5377,M,2.431,N,4.505,K,D*26
$GPGGA,124422.20,4612.0578558,N,00607.4222983,E,4,08,0.9,368.559,M,49.479,M,0.05,0195*7A
$GPVTG,358.7305,T,358.7305,M,2.336,N,4.328,K,D*2F
$RDENS,1697,4586092,PC
$GPGGA,124422.60,4612.0581194,N,00607.4222882,E,4,08,0.9,368.563,M,49.479,M,0.35,0195*76
$GPVTG,358.1606,T,358.1606,M,2.405,N,4.457,K,D*27
$GPGGA,124422.80,4612.0582545,N,00607.4222849,E,4,08,0.9,368.563,M,49.479,M,0.02,0195*70
$GPVTG,359.9608,T,359.9608,M,2.387,N,4.424,K,D*2E
$GPGGA,124423.20,4612.0585207,N,00607.4222838,E,4,08,0.9,368.554,M,49.479,M,0.42,0195*7B
$GPVTG,359.7043,T,359.7043,M,2.380,N,4.410,K,D*2E
$RDENS,1698,4586178,PC
$GPGGA,124423.40,4612.0586495,N,00607.4222863,E,4,08,0.9,368.546,M,49.479,M,0.62,0195*7C
$GPVTG,1.4927,T,1.4927,M,2.340,N,4.337,K,D*20
$GPGGA,124423.60,4612.0587791,N,00607.4222911,E,4,08,0.9,368.546,M,49.479,M,0.82,0195*72
$GPVTG,2.8316,T,2.8316,M,2.297,N,4.256,K,D*2D
$GPGGA,124423.80,4612.0589061,N,00607.4223001,E,4,08,0.9,368.553,M,49.479,M,1.02,0195*7E
$GPVTG,3.2229,T,3.2229,M,2.301,N,4.263,K,D*25
$RDENS,1699,4586264,PC
$GPGGA,124424.20,4612.0591570,N,00607.4223248,E,4,08,0.9,368.559,M,49.479,M,1.42,0195*7E
$GPVTG,4.9053,T,4.9053,M,2.238,N,4.148,K,D*24
$GPGGA,124424.40,4612.0592813,N,00607.4223399,E,4,08,0.9,368.557,M,49.479,M,1.62,0195*72
$GPVTG,5.0118,T,5.0118,M,2.185,N,4.049,K,D*21
$GPGGA,124424.80,4612.0595234,N,00607.4223765,E,4,08,0.9,368.543,M,49.479,M,0.04,0195*75
$GPVTG,5.7154,T,5.7154,M,2.190,N,4.059,K,D*24
$RDENS,1700,4586350,PC
$GPGGA,124425.00,4612.0596443,N,00607.4223937,E,4,08,0.9,368.542,M,49.479,M,0.24,0195*73
$GPVTG,8.6895,T,8.6895,M,2.138,N,3.962,K,D*20
$GPGGA,124425.40,4612.0598777,N,00607.4224401,E,4,08,0.9,368.524,M,49.479,M,0.21,0195*77
$GPVTG,10.1261,T,10.1261,M,2.085,N,3.865,K,D*21
$GPGGA,124425.80,4612.0601050,N,00607.4224935,E,4,08,0.9,368.541,M,49.479,M,0.35,0195*76
$GPVTG,8.6461,T,8.6461,M,2.061,N,3.820,K,D*2A
$GPVTG,11.2545,T,11.2545,M,2.004,N,3.714,K,D*21
$RDENS,1701,4586437,PC
$GPGGA,124426.00,4612.0602141,N,00607.4225246,E,4,08,0.9,368.536,M,49.479,M,0.55,0195*77
$GPVTG,10.1029,T,10.1029,M,2.015,N,3.734,K,D*23
$GPGGA,124426.40,4612.0604317,N,00607.4225812,E,4,08,0.9,368.524,M,49.479,M,0.95,0195*70
$GPVTG,10.2623,T,10.2623,M,1.966,N,3.643,K,D*2C
$GPGGA,124426.60,4612.0605366,N,00607.4226088,E,4,08,0.9,368.533,M,49.479,M,1.15,0195*72
$GPVTG,12.1361,T,12.1361,M,1.918,N,3.555,K,D*21
$RDENS,1702,4586523,PC
$GPGGA,124427.00,4612.0607440,N,00607.4226710,E,4,08,0.9,368.550,M,49.479,M,1.55,0195*73
$GPVTG,11.5059,T,11.5059,M,1.899,N,3.519,K,D*21
$GPGGA,124427.20,4612.0608506,N,00607.4226989,E,4,08,0.9,368.551,M,49.479,M,1.75,0195*70
$GPVTG,11.3466,T,11.3466,M,1.896,N,3.514,K,D*23
$GPGGA,124427.60,4612.0610568,N,00607.4227626,E,4,08,0.9,368.550,M,49.479,M,2.15,0195*7A
$GPVTG,12.5381,T,12.5381,M,1.896,N,3.514,K,D*23
$RDENS,1703,4586609,PC
$GPGGA,124427.80,4612.0611582,N,00607.4227970,E,4,08,0.9,368.565,M,49.479,M,2.35,0195*79
$GPVTG,10.8432,T,10.8432,M,1.788,N,3.313,K,D*22
$GPGGA,124428.20,4612.0613572,N,00607.4228534,E,4,08,0.9,368.562,M,49.479,M,2.75,0195*71
$GPVTG,11.2179,T,11.2179,M,1.869,N,3.464,K,D*25
$GPGGA,124428.40,4612.0614532,N,00607.4228818,E,4,08,0.9,368.565,M,49.479,M,2.95,0195*7E
$GPVTG,9.0600,T,9.0600,M,1.815,N,3.363,K,D*2E
$RDENS,1704,4586695,PC
$GPGGA,124428.60,4612.0615531,N,00607.4229048,E,4,08,0.9,368.568,M,49.479,M,3.15,0195*76
$GPVTG,7.0907,T,7.0907,M,1.757,N,3.256,K,D*20
$GPGGA,124428.80,4612.0616501,N,00607.4229223,E,4,08,0.9,368.570,M,49.479,M,3.35,0195*7C
$GPVTG,7.4751,T,7.4751,M,1.728,N,3.202,K,D*29
$GPGGA,124429.20,4612.0618395,N,00607.4229611,E,4,08,0.9,368.570,M,49.479,M,3.75,0195*73
$GPVTG,7.3384,T,7.3384,M,1.748,N,3.240,K,D*29
$RDENS,1705,4586781,PC
$GPGGA,124429.40,4612.0619356,N,00607.4229792,E,4,08,0.9,368.580,M,49.479,M,3.95,0195*70
$GPVTG,4.9518,T,4.9518,M,1.690,N,3.132,K,D*2B
$GPGGA,124429.80,4612.0621217,N,00607.4230059,E,4,08,0.9,368.577,M,49.479,M,4.35,0195*7E
$GPVTG,3.9755,T,3.9755,M,1.700,N,3.151,K,D*26
$GPGGA,124430.00,4612.0622164,N,00607.4230155,E,4,08,0.9,368.577,M,49.479,M,4.55,0195*71
$GPVTG,5.0658,T,5.0658,M,1.650,N,3.058,K,D*2A
$RDENS,1706,4586867,PC
$GPGGA,124430.40,4612.0623970,N,00607.4230377,E,4,08,0.9,368.574,M,49.479,M,4.95,0195*74
$GPVTG,5.2178,T,5.2178,M,1.653,N,3.064,K,D*26
$GPGGA,124430.60,4612.0624886,N,00607.4230498,E,4,08,0.9,368.571,M,49.479,M,5.15,0195*73
$GPVTG,3.1779,T,3.1779,M,1.644,N,3.046,K,D*20
$GPGGA,124430.80,4612.0625786,N,00607.4230574,E,4,08,0.9,368.561,M,49.479,M,5.35,0195*73
$GPVTG,3.4042,T,3.4042,M,1.588,N,2.943,K,D*2E
$RDENS,1707,4586953,PC
$GPGGA,124431.20,4612.0627539,N,00607.4230724,E,4,08,0.9,368.573,M,49.479,M,5.75,0195*7C
$GPVTG,2.6153,T,2.6153,M,1.569,N,2.908,K,D*2E
$GPGGA,124431.40,4612.0628399,N,00607.4230786,E,4,08,0.9,368.569,M,49.479,M,0.16,0195*7A
$GPVTG,3.5547,T,3.5547,M,1.572,N,2.914,K,D*29
$GPGGA,124431.80,4612.0630149,N,00607.4230939,E,4,11,0.8,368.582,M,49.479,M,0.24,0195*77
$GPVTG,0.1593,T,0.1593,M,1.565,N,2.900,K,D*2A
$RDENS,1708,4587039,PC
$GPGGA,124432.00,4612.0631015,N,00607.4230942,E,4,11,0.8,368.571,M,49.479,M,0.44,0195*73
$GPVTG,1.1900,T,1.1900,M,1.524,N,2.824,K,D*28
$GPGGA,124432.40,4612.0632685,N,00607.4231021,E,4,11,0.8,368.578,M,49.479,M,0.10,0195*7E
$GPVTG,358.5608,T,358.5608,M,1.490,N,2.762,K,D*2B
$GPGGA,124432.60,4612.0633513,N,00607.4230989,E,4,11,0.8,368.565,M,49.479,M,0.12,0195*75
$GPVTG,2.6286,T,2.6286,M,1.488,N,2.757,K,D*24
$RDENS,1709,4587125,PC
$GPVTG,0.1486,T,0.1486,M,1.498,N,2.777,K,D*27
$GPGGA,124433.00,4612.0635166,N,00607.4231047,E,4,11,0.8,368.561,M,49.479,M,0.28,0195*75
$GPVTG,359.6122,T,359.6122,M,1.441,N,2.671,K,D*24
$GPGGA,124433.40,4612.0636776,N,00607.4231051,E,4,11,0.8,368.555,M,49.479,M,0.68,0195*71
$GPVTG,1.0583,T,1.0583,M,1.467,N,2.718,K,D*2E
$GPGGA,124433.60,4612.0637581,N,00607.4231053,E,4,11,0.8,368.567,M,49.479,M,0.88,0195*75
$RDENS,1710,4587211,PC
$GPVTG,1.4415,T,1.4415,M,1.465,N,2.714,K,D*20
$GPGGA,124433.80,4612.0638399,N,00607.4231076,E,4,11,0.8,368.560,M,49.479,M,1.08,0195*72
$GPVTG,2.4135,T,2.4135,M,1.378,N,2.554,K,D*2D
$GPGGA,124434.20,4612.0639919,N,00607.4231095,E,4,11,0.8,368.579,M,49.479,M,1.48,0195*7D
$GPVTG,1.5210,T,1.5210,M,1.388,N,2.572,K,D*26
$GPGGA,124434.40,4612.0640681,N,00607.4231125,E,4,11,0.8,368.595,M,49.479,M,1.68,0195*71
$RDENS,1711,4587297,PC
$GPVTG,354.9769,T,354.9769,M,1.416,N,2.624,K,D*26
$GPGGA,124434.80,4612.0642191,N,00607.4231037,E,4,10,0.9,368.584,M,49.479,M,2.08,0195*7E
$GPVTG,358.8655,T,358.8655,M,1.297,N,2.403,K,D*2E
$GPGGA,124435.20,4612.0643682,N,00607.4231083,E,4,10,0.9,368.580,M,49.479,M,2.48,0195*7E
$GPVTG,4.1792,T,4.1792,M,1.381,N,2.560,K,D*2C
$GPVTG,5.0946,T,5.0946,M,1.460,N,2.705,K,D*25
$RDENS,1712,4587383,PC
$GPGGA,124435.40,4612.0644488,N,00607.4231190,E,4,10,0.9,368.579,M,49.479,M,2.68,0195*70
$GPVTG,8.5186,T,8.5186,M,1.458,N,2.702,K,D*29
$GPGGA,124435.60,4612.0645296,N,00607.4231352,E,4,10,0.9,368.562,M,49.479,M,2.88,0195*72
$GPVTG,9.8306,T,9.8306,M,1.445,N,2.678,K,D*29
$GPGGA,124436.00,4612.0646862,N,00607.4231684,E,4,10,0.9,368.556,M,49.479,M,3.28,0195*77
$GPVTG,8.3736,T,8.3736,M,1.396,N,2.588,K,D*2C
$RDENS,1713,4587469,PC
$GPGGA,124436.20,4612.0647623,N,00607.4231857,E,4,10,0.9,368.559,M,49.479,M,3.48,0195*76
$GPVTG,7.4288,T,7.4288,M,1.343,N,2.489,K,D*24
$GPGGA,124436.60,4612.0649127,N,00607.4232131,E,4,10,0.9,368.538,M,49.479,M,3.88,0195*7E
$GPVTG,7.7100,T,7.7100,M,1.278,N,2.369,K,D*24
$GPGGA,124436.80,4612.0649815,N,00607.4232273,E,4,10,0.9,368.529,M,49.479,M,4.08,0195*72
$GPVTG,11.3837,T,11.3837,M,1.229,N,2.277,K,D*2E
$RDENS,1714,4587555,PC
$GPGGA,124437.20,4612.0651168,N,00607.4232582,E,4,10,0.9,368.547,M,49.479,M,4.48,0195*76
$GPVTG,8.3908,T,8.3908,M,1.210,N,2.242,K,D*22
$GPGGA,124437.40,4612.0651807,N,00607.4232739,E,4,10,0.9,368.562,M,49.479,M,4.68,0195*77
$GPVTG,7.0941,T,7.0941,M,1.122,N,2.079,K,D*2A
$GPGGA,124437.60,4612.0652416,N,00607.4232856,E,4,10,0.9,368.572,M,49.479,M,4.88,0195*73
$GPVTG,9.2012,T,9.2012,M,1.139,N,2.112,K,D*2C
$RDENS,1715,4587641,PC
$GPGGA,124438.00,4612.0653651,N,00607.4233078,E,4,10,0.9,368.560,M,49.479,M,5.28,0195*77
$GPVTG,8.8393,T,8.8393,M,1.019,N,1.889,K,D*27
$GPGGA,124438.20,4612.0654225,N,00607.4233189,E,4,10,0.9,368.557,M,49.479,M,5.48,0195*78
$GPVTG,4.8089,T,4.8089,M,1.015,N,1.881,K,D*23
$GPGGA,124438.60,4612.0655347,N,00607.4233322,E,4,10,0.9,368.544,M,49.479,M,5.88,0195*75
$GPVTG,5.5221,T,5.5221,M,0.966,N,1.790,K,D*20
$RDENS,1716,4587727,PC
$GPGGA,124438.80,4612.0655885,N,00607.4233398,E,4,10,0.9,368.555,M,49.479,M,6.08,0195*74
$GPVTG,3.0459,T,3.0459,M,0.920,N,1.705,K,D*2E
$GPGGA,124439.20,4612.0656924,N,00607.4233444,E,4,10,0.9,368.557,M,49.479,M,6.48,0195*76
$GPVTG,2.6005,T,2.6005,M,0.837,N,1.551,K,D*2A
$GPGGA,124439.40,4612.0657386,N,00607.4233474,E,4,10,0.9,368.568,M,49.479,M,6.68,0195*7E
$GPVTG,2.9945,T,2.9945,M,0.884,N,1.638,K,D*2E
$RDENS,1717,4587813,PC
$GPGGA,124439.60,4612.0657879,N,00607.4233501,E,4,10,0.9,368.556,M,49.479,M,6.88,0195*77
$GPVTG,359.1001,T,359.1001,M,0.818,N,1.515,K,D*27
$GPGGA,124440.00,4612.0658827,N,00607.4233451,E,4,10,0.9,368.542,M,49.479,M,7.28,0195*71
$GPVTG,0.3814,T,0.3814,M,0.865,N,1.604,K,D*2E
$GPGGA,124440.20,4612.0659288,N,00607.4233467,E,4,10,0.9,368.549,M,49.479,M,7.48,0195*75
$GPVTG,356.5083,T,356.5083,M,0.786,N,1.457,K,D*28
$RDENS,1718,4587899,PC
$GPGGA,124440.60,4612.0660139,N,00607.4233399,E,4,10,0.9,368.542,M,49.479,M,7.88,0195*73
$GPVTG,352.6504,T,352.6504,M,0.754,N,1.398,K,D*23
$GPGGA,124441.00,4612.0660982,N,00607.4233260,E,4,10,0.9,368.540,M,49.479,M,8.28,0195*7C
$GPVTG,354.1194,T,354.1194,M,0.804,N,1.490,K,D*26
$GPGGA,124441.20,4612.0661384,N,00607.4233240,E,4,10,0.9,368.529,M,49.479,M,8.48,0195*78
$GPVTG,2.2527,T,2.2527,M,0.827,N,1.533,K,D*2F
$GPGGA,124441.40,4612.0661835,N,00607.4233271,E,4,10,0.9,368.521,M,49.479,M,8.68,0195*77
$RDENS,1719,4587996,PC
$GPVTG,358.9858,T,358.9858,M,0.683,N,1.265,K,D*2B
$GPGGA,124441.80,4612.0662642,N,00607.4233257,E,4,10,0.9,368.506,M,49.479,M,9.08,0195*70
$GPVTG,1.2708,T,1.2708,M,0.638,N,1.182,K,D*21
$GPGGA,124442.00,4612.0662991,N,00607.4233269,E,4,10,0.9,368.528,M,49.479,M,9.28,0195*79
$GPVTG,1.9085,T,1.9085,M,0.695,N,1.289,K,D*2E
$GPGGA,124442.20,4612.0663389,N,00607.4233274,E,4,10,0.9,368.531,M,49.479,M,9.48,0195*7B
$GPVTG,354.9134,T,354.9134,M,0.591,N,1.095,K,D*26
$RDENS,1720,4588093,PC
$GPGGA,124442.60,4612.0664096,N,00607.4233214,E,4,10,0.9,368.565,M,49.479,M,9.88,0195*7E
$GPVTG,355.7799,T,355.7799,M,0.657,N,1.218,K,D*28
$GPGGA,124443.00,4612.0664845,N,00607.4233176,E,4,10,0.9,368.574,M,49.479,M,10.28,0195*4A
$GPVTG,358.7180,T,358.7180,M,0.739,N,1.370,K,D*2E
$GPGGA,124443.20,4612.0665222,N,00607.4233135,E,4,10,0.9,368.561,M,49.479,M,10.48,0195*47
$GPVTG,354.3821,T,354.3821,M,0.735,N,1.362,K,D*21
$RDENS,1721,4588190,PC
$GPGGA,124443.60,4612.0665992,N,00607.4233088,E,4,10,0.9,368.556,M,49.479,M,10.88,0195*4C
$GPVTG,359.6336,T,359.6336,M,0.689,N,1.277,K,D*22
$GPGGA,124443.80,4612.0666357,N,00607.4233014,E,4,10,0.9,368.551,M,49.479,M,11.08,0195*49
$GPVTG,352.5397,T,352.5397,M,0.686,N,1.271,K,D*2B
$GPGGA,124444.20,4612.0667090,N,00607.4232895,E,4,10,0.9,368.570,M,49.479,M,11.48,0195*4A
$GPVTG,355.0013,T,355.0013,M,0.654,N,1.212,K,D*21
$GPGGA,124444.40,4612.0667448,N,00607.4232881,E,4,10,0.9,368.598,M,49.479,M,11.68,0195*4C
$RDENS,1722,4588287,PC
$GPVTG,353.2313,T,353.2313,M,0.752,N,1.394,K,D*29
$GPGGA,124444.80,4612.0668238,N,00607.4232715,E,4,10,0.9,368.598,M,49.479,M,0.01,0195*73
$GPVTG,351.4989,T,351.4989,M,0.680,N,1.260,K,D*2D
$GPGGA,124445.00,4612.0668636,N,00607.4232594,E,4,10,0.9,368.588,M,49.479,M,0.21,0195*78
$GPVTG,352.8174,T,352.8174,M,0.691,N,1.280,K,D*23
$GPGGA,124445.40,4612.0669389,N,00607.4232514,E,4,10,0.9,368.580,M,49.479,M,0.11,0195*7F
$RDENS,1723,4588384,PC
$GPVTG,354.1272,T,354.1272,M,0.640,N,1.186,K,D*2A
$GPGGA,124445.60,4612.0669809,N,00607.4232399,E,4,10,0.9,368.585,M,49.479,M,0.06,0195*7E
$GPVTG,348.6809,T,348.6809,M,0.653,N,1.210,K,D*24
$GPGGA,124446.00,4612.0670565,N,00607.4232220,E,4,10,0.9,368.576,M,49.479,M,0.46,0195*7F
$GPVTG,348.3134,T,348.3134,M,0.646,N,1.197,K,D*2C
$GPGGA,124446.20,4612.0670959,N,00607.4232071,E,4,10,0.9,368.576,M,49.479,M,0.66,0195*7A
$GPVTG,348.9715,T,348.9715,M,0.687,N,1.274,K,D*2F
$RDENS,1724,4588481,PC
$GPGGA,124446.60,4612.0671696,N,00607.4231799,E,4,10,0.9,368.565,M,49.479,M,0.16,0195*74
$GPVTG,342.2233,T,342.2233,M,0.660,N,1.223,K,D*24
$GPGGA,124446.80,4612.0672108,N,00607.4231724,E,4,10,0.9,368.578,M,49.479,M,0.36,0195*71
$GPVTG,356.6572,T,356.6572,M,0.674,N,1.249,K,D*2D
$GPGGA,124447.00,4612.0672486,N,00607.4231683,E,4,10,0.9,368.583,M,49.479,M,0.56,0195*75
$GPVTG,3.6159,T,3.6159,M,0.739,N,1.369,K,D*26
$GPVTG,3.6882,T,3.6882,M,0.846,N,1.569,K,D*27
$RDENS,1725,4588578,PC
$GPGGA,124447.40,4612.0673324,N,00607.4231798,E,4,10,0.9,368.613,M,49.479,M,0.01,0195*7C
$GPVTG,6.7645,T,6.7645,M,0.748,N,1.387,K,D*20
$GPGGA,124447.60,4612.0673755,N,00607.4231836,E,4,10,0.9,368.596,M,49.479,M,0.19,0195*70
$GPVTG,13.1519,T,13.1519,M,0.966,N,1.791,K,D*21
$GPGGA,124448.00,4612.0674733,N,00607.4232290,E,4,10,0.9,368.604,M,49.479,M,0.59,0195*77
$GPVTG,21.2478,T,21.2478,M,0.939,N,1.740,K,D*27
$GPGGA,124448.40,4612.0675739,N,00607.4232825,E,4,10,0.9,368.564,M,49.479,M,0.05,0195*70
$RDENS,1726,4588675,PC
$GPVTG,21.5249,T,21.5249,M,0.957,N,1.774,K,D*28
$GPGGA,124448.60,4612.0676258,N,00607.4233186,E,4,10,0.9,368.548,M,49.479,M,0.15,0195*7D
$GPVTG,31.6945,T,31.6945,M,0.982,N,1.821,K,D*2F
$GPGGA,124449.00,4612.0677205,N,00607.4233985,E,4,10,0.9,368.530,M,49.479,M,0.55,0195*73
$GPVTG,29.1530,T,29.1530,M,1.007,N,1.865,K,D*2A
$GPGGA,124449.20,4612.0677622,N,00607.4234493,E,4,10,0.9,368.542,M,49.479,M,0.75,0195*7A
$GPVTG,38.1316,T,38.1316,M,1.008,N,1.868,K,D*28
$RDENS,1727,4588772,PC
$GPGGA,124449.60,4612.0678475,N,00607.4235482,E,4,10,0.9,368.548,M,49.479,M,1.15,0195*7D
$GPVTG,43.3650,T,43.3650,M,0.938,N,1.739,K,D*28
$GPGGA,124449.80,4612.0678851,N,00607.4235985,E,4,10,0.9,368.564,M,49.479,M,0.13,0195*7A
$GPVTG,38.0943,T,38.0943,M,0.958,N,1.776,K,D*25
$GPGGA,124450.00,4612.0679255,N,00607.4236421,E,4,10,0.9,368.551,M,49.479,M,0.33,0195*71
$GPVTG,43.4624,T,43.4624,M,0.872,N,1.616,K,D*2B
$RDENS,1728,4588861,PC
$GPGGA,124450.40,4612.0679934,N,00607.4237380,E,4,10,0.9,368.564,M,49.479,M,0.00,0195*72
$GPVTG,44.5202,T,44.5202,M,0.840,N,1.557,K,D*2C
$GPGGA,124450.60,4612.0680284,N,00607.4237694,E,4,10,0.9,368.545,M,49.479,M,0.20,0195*77
$GPVTG,47.3455,T,47.3455,M,0.809,N,1.498,K,D*23
$GPGGA,124451.00,4612.0680921,N,00607.4238543,E,4,10,0.9,368.557,M,49.479,M,0.60,0195*75
$GPVTG,36.8028,T,36.8028,M,0.758,N,1.404,K,D*2D
$RDENS,1729,4588950,PC
$GPGGA,124451.20,4612.0681181,N,00607.4238960,E,4,10,0.9,368.564,M,49.479,M,0.80,0195*77
$GPVTG,41.1003,T,41.1003,M,0.792,N,1.468,K,D*21
$GPGGA,124451.60,4612.0681816,N,00607.4239716,E,4,10,0.9,368.542,M,49.479,M,1.20,0195*75
$GPVTG,40.3010,T,40.3010,M,0.693,N,1.285,K,D*24
$GPGGA,124451.80,4612.0682068,N,00607.4240102,E,4,10,0.9,368.552,M,49.479,M,1.40,0195*73
$GPVTG,39.3031,T,39.3031,M,0.637,N,1.180,K,D*2C
$RDENS,1730,4589039,PC
$GPGGA,124452.20,4612.0682628,N,00607.4240727,E,4,10,0.9,368.537,M,49.479,M,0.13,0195*7D
$GPVTG,35.2751,T,35.2751,M,0.663,N,1.228,K,D*2C
$GPGGA,124452.40,4612.0682831,N,00607.4241036,E,4,10,0.9,368.545,M,49.479,M,0.33,0195*7C
$GPVTG,43.6366,T,43.6366,M,0.636,N,1.179,K,D*2B
$GPGGA,124452.60,4612.0683073,N,00607.4241399,E,4,10,0.9,368.570,M,49.479,M,0.53,0195*77
$GPVTG,43.0075,T,43.0075,M,0.499,N,0.924,K,D*2D
$RDENS,1731,4589128,PC
$GPGGA,124453.00,4612.0683519,N,00607.4241939,E,4,10,0.9,368.562,M,49.479,M,0.10,0195*7D
$GPVTG,39.5123,T,39.5123,M,0.548,N,1.016,K,D*29
$GPGGA,124453.20,4612.0683736,N,00607.4242216,E,4,10,0.9,368.556,M,49.479,M,0.30,0195*70
$GPVTG,39.9094,T,39.9094,M,0.584,N,1.083,K,D*25
$GPGGA,124453.60,4612.0684156,N,00607.4242768,E,4,10,0.9,368.575,M,49.479,M,0.05,0195*78
$GPVTG,46.1431,T,46.1431,M,0.434,N,0.805,K,D*28
$RDENS,1732,4589217,PC
$GPGGA,124453.80,4612.0684361,N,00607.4242974,E,4,10,0.9,368.583,M,49.479,M,0.15,0195*7B
$GPVTG,42.5754,T,42.5754,M,0.505,N,0.936,K,D*2A
$GPGGA,124454.20,4612.0684752,N,00607.4243519,E,4,10,0.9,368.575,M,49.479,M,0.55,0195*79
$GPVTG,45.1203,T,45.1203,M,0.476,N,0.882,K,D*21
$GPGGA,124454.40,4612.0684916,N,00607.4243731,E,4,10,0.9,368.587,M,49.479,M,0.75,0195*76
$GPVTG,44.5717,T,44.5717,M,0.448,N,0.831,K,D*24
$RDENS,1733,4589306,PC
$GPGGA,124454.80,4612.0685323,N,00607.4244178,E,4,10,0.9,368.584,M,49.479,M,1.15,0195*7F
$GPVTG,35.7432,T,35.7432,M,0.416,N,0.772,K,D*27
$GPGGA,124455.00,4612.0685473,N,00607.4244415,E,4,10,0.9,368.592,M,49.479,M,1.35,0195*7F
$GPVTG,43.9152,T,43.9152,M,0.419,N,0.777,K,D*2D
$GPGGA,124455.20,4612.0685650,N,00607.4244652,E,4,10,0.9,368.578,M,49.479,M,0.05,0195*79
$GPVTG,46.4967,T,46.4967,M,0.417,N,0.773,K,D*27
$RDENS,1734,4589395,PC
$GPGGA,124455.60,4612.0686010,N,00607.4245081,E,4,10,0.9,368.558,M,49.479,M,0.35,0195*74
$GPVTG,37.7743,T,37.7743,M,0.416,N,0.772,K,D*27
$GPGGA,124455.80,4612.0686166,N,00607.4245291,E,4,10,0.9,368.562,M,49.479,M,0.55,0195*76
$GPVTG,45.4528,T,45.4528,M,0.326,N,0.605,K,D*22
$GPGGA,124456.20,4612.0686424,N,00607.4245667,E,4,10,0.9,368.572,M,49.479,M,0.95,0195*7C
$GPVTG,40.7339,T,40.7339,M,0.327,N,0.607,K,D*21
$RDENS,1735,4589484,PC
$GPGGA,124456.40,4612.0686593,N,00607.4245850,E,4,10,0.9,368.571,M,49.479,M,1.15,0195*77
$GPVTG,46.0417,T,46.0417,M,0.292,N,0.542,K,D*2C
$GPGGA,124456.80,4612.0686830,N,00607.4246205,E,4,10,0.9,368.587,M,49.479,M,1.55,0195*7B
$GPVTG,45.4930,T,45.4930,M,0.298,N,0.551,K,D*24
$GPGGA,124457.00,4612.0686967,N,00607.4246388,E,4,10,0.9,368.581,M,49.479,M,1.75,0195*71
$GPVTG,37.6171,T,37.6171,M,0.311,N,0.576,K,D*21
$RDENS,1736,4589572,PC
$GPGGA,124457.40,4612.0687230,N,00607.4246705,E,4,10,0.9,368.573,M,49.479,M,2.15,0195*74
$GPVTG,38.1910,T,38.1910,M,0.286,N,0.529,K,D*24
$GPGGA,124457.60,4612.0687341,N,00607.4246876,E,4,10,0.9,368.580,M,49.479,M,2.35,0195*74
$GPVTG,46.1786,T,46.1786,M,0.337,N,0.624,K,D*21
$GPGGA,124457.80,4612.0687480,N,00607.4247065,E,4,10,0.9,368.568,M,49.479,M,2.55,0195*7B
$GPVTG,47.5621,T,47.5621,M,0.275,N,0.509,K,D*2A
$GPGGA,124458.20,4612.0687627,N,00607.4247364,E,4,10,0.9,368.584,M,49.479,M,2.95,0195*7D
$RDENS,1737,4589662,PC
$GPVTG,50.1420,T,50.1420,M,0.180,N,0.334,K,D*2B
$GPGGA,124458.40,4612.0687693,N,00607.4247494,E,4,10,0.9,368.594,M,49.479,M,3.15,0195*74
$GPVTG,41.7770,T,41.7770,M,0.172,N,0.318,K,D*28
$GPGGA,124458.80,4612.0688040,N,00607.4247878,E,4,09,1.3,368.558,M,49.479,M,0.07,0195*72
$GPVTG,39.7684,T,39.7684,M,0.307,N,0.569,K,D*28
$GPGGA,124459.00,4612.0688158,N,00607.4248012,E,4,09,1.3,368.570,M,49.479,M,0.07,0195*72
$RDENS,1738,4589751,PC
$GPVTG,44.0628,T,44.0628,M,0.260,N,0.482,K,D*2C
$GPGGA,124459.40,4612.0688329,N,00607.4248298,E,4,09,1.3,368.584,M,49.479,M,0.47,0195*7D
$GPVTG,39.6051,T,39.6051,M,0.258,N,0.478,K,D*22
$GPGGA,124459.60,4612.0688409,N,00607.4248439,E,4,09,1.3,368.588,M,49.479,M,0.09,0195*71
$GPVTG,51.3854,T,51.3854,M,0.240,N,0.444,K,D*24
$GPGGA,124500.00,4612.0688546,N,00607.4248673,E,4,09,1.3,368.587,M,49.479,M,0.31,0195*78
$RDENS,1739,4589840,PC
$GPVTG,109.8265,T,109.8265,M,0.096,N,0.179,K,D*26
$GPGGA,124500.20,4612.0688617,N,00607.4248774,E,4,09,1.3,368.591,M,49.479,M,0.51,0195*7A
$GPVTG,42.2898,T,42.2898,M,0.202,N,0.375,K,D*27
$GPGGA,124500.60,4612.0688799,N,00607.4248984,E,4,09,1.3,368.580,M,49.479,M,0.00,0195*7C
$GPVTG,36.5371,T,36.5371,M,0.154,N,0.285,K,D*29
$GPGGA,124500.80,4612.0688893,N,00607.4249099,E,4,09,1.3,368.575,M,49.479,M,0.20,0195*7B
$RDENS,1740,4589929,PC
$GPVTG,35.3121,T,35.3121,M,0.095,N,0.177,K,D*2B
$GPGGA,124501.00,4612.0688943,N,00607.4249164,E,4,09,1.3,368.577,M,49.479,M,0.40,0195*79
$GPVTG,46.0802,T,46.0802,M,0.105,N,0.195,K,D*2F
$GPGGA,124501.40,4612.0689030,N,00607.4249351,E,4,09,1.3,368.596,M,49.479,M,0.80,0195*76
$GPVTG,48.9521,T,48.9521,M,0.131,N,0.242,K,D*21
$GPGGA,124501.60,4612.0689104,N,00607.4249460,E,4,09,1.3,368.590,M,49.479,M,1.00,0195*78
$GPVTG,41.5426,T,41.5426,M,0.126,N,0.234,K,D*26
$RDENS,1741,4590018,PC
$GPGGA,124502.00,4612.0689236,N,00607.4249669,E,4,09,1.3,368.591,M,49.479,M,0.05,0195*71
$GPVTG,36.6825,T,36.6825,M,0.197,N,0.365,K,D*29
$GPGGA,124502.20,4612.0689287,N,00607.4249775,E,4,09,1.3,368.583,M,49.479,M,0.15,0195*77
$GPVTG,40.7341,T,40.7341,M,0.225,N,0.416,K,D*20
$GPGGA,124502.60,4612.0689427,N,00607.4249930,E,4,09,1.3,368.565,M,49.479,M,0.55,0195*7C
$GPVTG,40.6092,T,40.6092,M,0.166,N,0.307,K,D*23
$RDENS,1742,4590107,PC
$GPGGA,124502.80,4612.0689479,N,00607.4249974,E,4,09,1.3,368.560,M,49.479,M,0.75,0195*7E
$GPVTG,34.1164,T,34.1164,M,0.066,N,0.122,K,D*27
$GPGGA,124503.20,4612.0689564,N,00607.4250076,E,4,09,1.3,368.555,M,49.479,M,1.15,0195*7A
$GPVTG,64.9340,T,64.9340,M,0.077,N,0.143,K,D*20
