$GPVTG,252.8823,T,252.8823,M,0.083,N,0.154,K,D*2D
$GPGGA,154303.60,4612.5046845,N,00605.1569644,E,4,07,1.4,367.822,M,49.518,M,0.08,0195*7C
$GPVTG,242.9667,T,242.9667,M,0.072,N,0.134,K,D*25
$GPGGA,154304.00,4612.5046775,N,00605.1569553,E,4,07,1.4,367.808,M,49.518,M,0.32,0195*75
$GPVTG,225.8787,T,225.8787,M,0.125,N,0.231,K,D*20
$GPGGA,154304.20,4612.5046764,N,00605.1569492,E,4,07,1.4,367.809,M,49.518,M,0.52,0195*7C
$GPVTG,196.1870,T,196.1870,M,0.114,N,0.211,K,D*20
$GPGGA,154304.60,4612.5046606,N,00605.1569443,E,4,07,1.4,367.810,M,49.518,M,0.03,0195*7D
$GPVTG,206.8582,T,206.8582,M,0.147,N,0.273,K,D*22
$GPGGA,154304.80,4612.5046499,N,00605.1569412,E,4,07,1.4,367.809,M,49.518,M,0.23,0195*79
$GPVTG,186.6979,T,186.6979,M,0.124,N,0.229,K,D*28
$GPGGA,154305.20,4612.5046376,N,00605.1569333,E,4,07,1.4,367.815,M,49.518,M,0.63,0195*79
$GPVTG,219.6350,T,219.6350,M,0.144,N,0.266,K,D*25
$GPGGA,154305.40,4612.5046373,N,00605.1569245,E,4,07,1.4,367.823,M,49.518,M,0.08,0195*72
$GPVTG,248.2747,T,248.2747,M,0.205,N,0.381,K,D*2B
$GPGGA,154305.60,4612.5046344,N,00605.1569115,E,4,07,1.4,367.806,M,49.518,M,0.12,0195*7E
$GPVTG,253.7506,T,253.7506,M,0.296,N,0.549,K,D*23
$GPGGA,154306.00,4612.5046220,N,00605.1568728,E,4,07,1.4,367.818,M,49.518,M,0.52,0195*7A
$GPVTG,234.5024,T,234.5024,M,0.227,N,0.420,K,D*27
$GPGGA,154306.20,4612.5046071,N,00605.1568537,E,4,07,1.4,367.820,M,49.518,M,0.72,0195*7B
$GPVTG,221.1244,T,221.1244,M,0.333,N,0.617,K,D*25
$GPGGA,154306.60,4612.5045854,N,00605.1568087,E,4,07,1.4,367.811,M,49.518,M,1.12,0195*78
$GPVTG,246.1728,T,246.1728,M,0.414,N,0.768,K,D*2E
$GPGGA,154306.80,4612.5045692,N,00605.1567813,E,4,07,1.4,367.805,M,49.518,M,1.32,0195*7F
$GPVTG,245.9534,T,245.9534,M,0.373,N,0.691,K,D*2F
$GPGGA,154307.20,4612.5045590,N,00605.1567039,E,4,07,1.4,367.846,M,49.518,M,1.72,0195*76
$GPVTG,261.2572,T,261.2572,M,0.442,N,0.819,K,D*24
$GPGGA,154307.40,4612.5045493,N,00605.1566659,E,4,07,1.4,367.855,M,49.518,M,0.07,0195*72
$GPVTG,258.8603,T,258.8603,M,0.594,N,1.101,K,D*2F
$GPGGA,154307.80,4612.5045696,N,00605.1565517,E,4,07,1.4,367.895,M,49.518,M,0.33,0195*78
$GPVTG,283.0905,T,283.0905,M,0.745,N,1.380,K,D*2A
$GPGGA,154308.00,4612.5045841,N,00605.1564948,E,4,07,1.4,367.954,M,49.518,M,0.53,0195*76
$GPVTG,251.4714,T,251.4714,M,0.751,N,1.392,K,D*2C
$GPGGA,154308.40,4612.5045493,N,00605.1564074,E,4,07,1.4,367.950,M,49.518,M,0.93,0195*7F
$GPVTG,234.1684,T,234.1684,M,0.507,N,0.940,K,D*29
$GPVTG,250.2354,T,250.2354,M,0.772,N,1.430,K,D*22
$RDENS,8935,5658724,PC
$GPGGA,154308.80,4612.5045194,N,00605.1563111,E,4,07,1.4,367.966,M,49.518,M,1.33,0195*7A
$GPVTG,238.5058,T,238.5058,M,0.611,N,1.133,K,D*20
$GPGGA,154309.00,4612.5045022,N,00605.1562666,E,4,07,1.4,367.962,M,49.518,M,1.53,0195*7B
$GPVTG,236.1198,T,236.1198,M,0.502,N,0.931,K,D*2A
$GPGGA,154309.40,4612.5044817,N,00605.1561858,E,4,07,1.4,367.931,M,49.518,M,1.93,0195*7A
$GPVTG,248.3230,T,248.3230,M,0.798,N,1.478,K,D*2A
$RDENS,8936,5658811,PC
$GPGGA,154309.60,4612.5044564,N,00605.1561562,E,4,07,1.4,367.899,M,49.518,M,2.13,0195*7D
$GPVTG,250.4551,T,250.4551,M,0.602,N,1.115,K,D*26
$GPGGA,154310.00,4612.5044373,N,00605.1560666,E,4,07,1.4,367.915,M,49.518,M,2.53,0195*74
$GPVTG,242.4937,T,242.4937,M,0.519,N,0.962,K,D*26
$GPGGA,154310.20,4612.5044261,N,00605.1560215,E,4,07,1.4,367.914,M,49.518,M,2.73,0195*77
$GPVTG,255.1000,T,255.1000,M,0.691,N,1.280,K,D*23
$RDENS,8937,5658899,PC
$GPGGA,154310.60,4612.5043943,N,00605.1559303,E,4,07,1.4,367.924,M,49.518,M,3.13,0195*77
$GPVTG,231.2633,T,231.2633,M,0.589,N,1.092,K,D*28
$GPGGA,154310.80,4612.5043909,N,00605.1558826,E,4,07,1.4,367.915,M,49.518,M,3.33,0195*7A
$GPVTG,224.3537,T,224.3537,M,0.547,N,1.014,K,D*24
$GPGGA,154311.20,4612.5043392,N,00605.1558126,E,4,07,1.4,367.921,M,49.518,M,3.73,0195*73
$GPVTG,227.0068,T,227.0068,M,0.624,N,1.156,K,D*25
$RDENS,8938,5658988,PC
$GPGGA,154311.40,4612.5043275,N,00605.1557702,E,4,07,1.4,367.909,M,49.518,M,3.93,0195*76
$GPVTG,236.5687,T,236.5687,M,0.593,N,1.100,K,D*29
$GPGGA,154311.80,4612.5042868,N,00605.1556863,E,4,07,1.4,367.918,M,49.518,M,4.33,0195*79
$GPVTG,236.4898,T,236.4898,M,0.575,N,1.065,K,D*23
$GPGGA,154312.00,4612.5042783,N,00605.1556466,E,4,07,1.4,367.925,M,49.518,M,4.53,0195*79
$GPVTG,226.7504,T,226.7504,M,0.570,N,1.057,K,D*27
$RDENS,8939,5659076,PC
$GPGGA,154312.40,4612.5042325,N,00605.1555734,E,4,07,1.4,367.901,M,49.518,M,4.93,0195*78
$GPVTG,228.3822,T,228.3822,M,0.642,N,1.189,K,D*27
$GPGGA,154312.60,4612.5042210,N,00605.1555390,E,4,07,1.4,367.889,M,49.518,M,5.13,0195*7F
$GPVTG,242.6047,T,242.6047,M,0.598,N,1.108,K,D*2A
$GPGGA,154312.80,4612.5042120,N,00605.1554838,E,4,07,1.4,367.897,M,49.518,M,5.33,0195*74
$GPVTG,251.5206,T,251.5206,M,0.482,N,0.893,K,D*2A
$RDENS,8940,5659164,PC
$GPGGA,154313.20,4612.5041752,N,00605.1554145,E,4,07,1.4,367.876,M,49.518,M,5.73,0195*77
$GPVTG,231.8390,T,231.8390,M,0.681,N,1.262,K,D*2E
$GPGGA,154313.40,4612.5041625,N,00605.1553869,E,4,07,1.4,367.862,M,49.518,M,5.93,0195*7B
$GPVTG,225.5242,T,225.5242,M,0.414,N,0.767,K,D*21
$GPGGA,154313.80,4612.5041329,N,00605.1553343,E,4,07,1.4,367.857,M,49.518,M,6.33,0195*72
$GPVTG,235.1429,T,235.1429,M,0.386,N,0.715,K,D*28
$RDENS,8941,5659252,PC
$GPGGA,154314.00,4612.5041214,N,00605.1553123,E,4,07,1.4,367.878,M,49.518,M,6.53,0195*7D
$GPVTG,207.6602,T,207.6602,M,0.349,N,0.646,K,D*2C
$GPGGA,154314.40,4612.5040839,N,00605.1552840,E,4,07,1.4,367.905,M,49.518,M,6.93,0195*77
$GPVTG,195.7002,T,195.7002,M,0.405,N,0.751,K,D*24
$GPGGA,154314.60,4612.5040661,N,00605.1552671,E,4,07,1.4,367.914,M,49.518,M,7.13,0195*73
$GPVTG,200.5811,T,200.5811,M,0.278,N,0.514,K,D*2B
$RDENS,8942,5659340,PC
$GPGGA,154315.00,4612.5040393,N,00605.1552503,E,4,07,1.4,367.899,M,49.518,M,7.53,0195*7A
$GPVTG,205.8529,T,205.8529,M,0.213,N,0.395,K,D*29
$GPGGA,154315.20,4612.5040288,N,00605.1552481,E,4,07,1.4,367.901,M,49.518,M,7.73,0195*7A
$GPVTG,165.7816,T,165.7816,M,0.243,N,0.450,K,D*22
$GPGGA,154315.60,4612.5040048,N,00605.1552609,E,4,07,1.4,367.895,M,49.518,M,8.13,0195*77
$GPVTG,155.9830,T,155.9830,M,0.205,N,0.379,K,D*2C
$RDENS,8943,5659428,PC
$GPGGA,154315.80,4612.5039939,N,00605.1552695,E,4,07,1.4,367.899,M,49.518,M,8.33,0195*73
$GPVTG,146.9615,T,146.9615,M,0.259,N,0.480,K,D*24
$GPGGA,154316.20,4612.5039726,N,00605.1552963,E,4,07,1.4,367.924,M,49.518,M,8.73,0195*7F
$GPVTG,120.9042,T,120.9042,M,0.280,N,0.518,K,D*20
$GPGGA,154316.40,4612.5039634,N,00605.1553184,E,4,07,1.4,367.926,M,49.518,M,8.93,0195*77
$GPVTG,108.4825,T,108.4825,M,0.286,N,0.530,K,D*2C
$RDENS,8944,5659516,PC
$GPGGA,154316.80,4612.5039579,N,00605.1553672,E,4,07,1.4,367.909,M,49.518,M,9.33,0195*79
$GPVTG,104.4217,T,104.4217,M,0.428,N,0.794,K,D*22
$GPGGA,154317.00,4612.5039548,N,00605.1553970,E,4,07,1.4,367.893,M,49.518,M,9.53,0195*7B
$GPVTG,91.4052,T,91.4052,M,0.376,N,0.697,K,D*2C
$GPGGA,154317.40,4612.5039443,N,00605.1554685,E,4,07,1.4,367.893,M,49.518,M,9.93,0195*7B
$GPVTG,70.8069,T,70.8069,M,0.318,N,0.590,K,D*20
$RDENS,8945,5659604,PC
$GPGGA,154317.60,4612.5039414,N,00605.1555023,E,4,07,1.4,367.896,M,49.518,M,10.13,0195*45
$GPVTG,90.6174,T,90.6174,M,0.415,N,0.770,K,D*26
$GPGGA,154317.80,4612.5039507,N,00605.1555444,E,4,07,1.4,367.886,M,49.518,M,10.33,0195*4E
$GPVTG,69.8736,T,69.8736,M,0.529,N,0.980,K,D*29
$GPGGA,154318.20,4612.5039923,N,00605.1556358,E,4,07,1.4,367.915,M,49.518,M,10.73,0195*47
$GPVTG,63.4072,T,63.4072,M,0.696,N,1.290,K,D*25
$RDENS,8946,5659692,PC
$GPGGA,154318.40,4612.5039960,N,00605.1556806,E,4,07,1.4,367.962,M,49.518,M,10.93,0195*48
$GPVTG,70.0825,T,70.0825,M,0.473,N,0.876,K,D*2F
$GPGGA,154318.80,4612.5041002,N,00605.1557393,E,4,06,1.9,367.789,M,49.518,M,0.11,0195*7C
$GPVTG,38.9315,T,38.9315,M,0.960,N,1.779,K,D*21
$GPGGA,154319.00,4612.5041221,N,00605.1557890,E,4,06,1.9,367.770,M,49.518,M,0.31,0195*7A
$GPVTG,35.4788,T,35.4788,M,0.805,N,1.492,K,D*25
$RDENS,8947,5659780,PC
$GPGGA,154319.40,4612.5041663,N,00605.1559112,E,4,06,1.9,367.737,M,49.518,M,0.71,0195*76
$GPVTG,56.0865,T,56.0865,M,0.797,N,1.477,K,D*2A
$GPGGA,154319.60,4612.5042235,N,00605.1559413,E,4,06,1.9,367.705,M,49.518,M,0.02,0195*71
$GPVTG,42.6815,T,42.6815,M,0.897,N,1.662,K,D*23
$GPGGA,154320.00,4612.5043008,N,00605.1560293,E,4,06,1.9,367.732,M,49.518,M,0.38,0195*79
$GPVTG,40.5268,T,40.5268,M,0.810,N,1.501,K,D*2A
$GPGGA,154320.20,4612.5043157,N,00605.1560554,E,4,06,1.9,367.747,M,49.518,M,0.58,0195*78
$RDENS,8948,5659867,PC
$GPVTG,59.1300,T,59.1300,M,0.555,N,1.028,K,D*28
$GPGGA,154320.40,4612.5043317,N,00605.1560960,E,4,06,1.9,367.767,M,49.518,M,0.78,0195*73
$GPVTG,44.3460,T,44.3460,M,0.442,N,0.818,K,D*25
$GPGGA,154320.80,4612.5043554,N,00605.1561413,E,4,06,1.9,367.792,M,49.518,M,1.18,0195*7B
$GPVTG,53.0311,T,53.0311,M,0.356,N,0.660,K,D*26
$GPGGA,154321.00,4612.5043661,N,00605.1561674,E,4,06,1.9,367.772,M,49.518,M,1.38,0195*78
$RDENS,8949,5659954,PC
$GPVTG,39.4564,T,39.4564,M,0.339,N,0.628,K,D*23
$GPGGA,154321.40,4612.5043942,N,00605.1562017,E,4,06,1.9,367.791,M,49.518,M,1.78,0195*7B
$GPVTG,53.2531,T,53.2531,M,0.311,N,0.577,K,D*20
$GPGGA,154321.60,4612.5044014,N,00605.1562227,E,4,06,1.9,367.796,M,49.518,M,1.98,0195*7C
$GPVTG,45.2001,T,45.2001,M,0.330,N,0.611,K,D*20
$GPGGA,154322.00,4612.5044277,N,00605.1562587,E,4,06,1.9,367.794,M,49.518,M,2.38,0195*78
$RDENS,8950,5660041,PC
$GPVTG,44.0428,T,44.0428,M,0.290,N,0.538,K,D*23
$GPGGA,154322.20,4612.5044427,N,00605.1562690,E,4,06,1.9,367.788,M,49.518,M,2.58,0195*77
$GPVTG,62.3247,T,62.3247,M,0.179,N,0.332,K,D*2B
$GPGGA,154322.60,4612.5044458,N,00605.1562995,E,4,06,1.9,367.786,M,49.518,M,2.98,0195*73
$GPVTG,71.5268,T,71.5268,M,0.192,N,0.355,K,D*2F
$GPGGA,154322.80,4612.5044436,N,00605.1563135,E,4,06,1.9,367.783,M,49.518,M,3.18,0195*7A
$RDENS,8951,5660128,PC
$GPVTG,95.2481,T,95.2481,M,0.172,N,0.319,K,D*29
$GPGGA,154323.20,4612.5044543,N,00605.1563424,E,4,06,1.9,367.771,M,49.518,M,3.58,0195*7E
$GPVTG,67.5596,T,67.5596,M,0.237,N,0.439,K,D*2E
$GPGGA,154323.40,4612.5044664,N,00605.1563573,E,4,06,1.9,367.768,M,49.518,M,3.78,0195*77
$GPVTG,53.0158,T,53.0158,M,0.294,N,0.544,K,D*2C
$GPGGA,154323.60,4612.5044732,N,00605.1563772,E,4,06,1.9,367.772,M,49.518,M,3.98,0195*71
$RDENS,8952,5660216,PC
$GPVTG,43.9702,T,43.9702,M,0.358,N,0.664,K,D*2C
$GPGGA,154324.00,4612.5044963,N,00605.1564232,E,4,06,1.9,367.767,M,49.518,M,4.38,0195*75
$GPVTG,36.0864,T,36.0864,M,0.380,N,0.704,K,D*2E
$GPGGA,154324.20,4612.5045140,N,00605.1564458,E,4,06,1.9,367.764,M,49.518,M,4.58,0195*70
$GPVTG,27.4502,T,27.4502,M,0.446,N,0.827,K,D*2D
$GPGGA,154324.60,4612.5045540,N,00605.1564880,E,4,06,1.9,367.751,M,49.518,M,4.98,0195*73
$RDENS,8953,5660302,PC
$GPVTG,27.9782,T,27.9782,M,0.432,N,0.801,K,D*2A
$GPGGA,154324.80,4612.5045577,N,00605.1565267,E,4,06,1.9,367.742,M,49.518,M,5.18,0195*70
$GPVTG,74.8427,T,74.8427,M,0.439,N,0.813,K,D*22
$GPGGA,154325.20,4612.5045610,N,00605.1565960,E,4,06,1.9,367.767,M,49.518,M,5.58,0195*76
$GPVTG,71.0162,T,71.0162,M,0.392,N,0.727,K,D*2C
$GPGGA,154325.40,4612.5046012,N,00605.1566147,E,4,06,1.9,367.787,M,49.518,M,5.78,0195*75
$RDENS,8954,5660389,PC
$GPVTG,60.1281,T,60.1281,M,0.433,N,0.803,K,D*29
$GPGGA,154325.80,4612.5042092,N,00605.1567458,E,2,09,1.4,367.735,M,49.518,M,6.18,0195*77
$GPVTG,50.3390,T,50.3390,M,0.537,N,0.995,K,D*22
$GPGGA,154326.00,4612.5042325,N,00605.1567777,E,2,09,1.4,367.760,M,49.518,M,6.38,0195*7F
$GPVTG,40.1840,T,40.1840,M,0.524,N,0.970,K,D*2B
$GPGGA,154326.20,4612.5042547,N,00605.1568078,E,2,09,1.4,367.743,M,49.518,M,6.58,0195*7F
$RDENS,8955,5660476,PC
$GPVTG,51.0737,T,51.0737,M,0.564,N,1.045,K,D*21
$GPGGA,154326.60,4612.5043118,N,00605.1568661,E,2,09,1.4,367.761,M,49.518,M,6.98,0195*76
$GPVTG,34.9837,T,34.9837,M,0.647,N,1.198,K,D*22
$GPGGA,154326.80,4612.5043370,N,00605.1568966,E,2,09,1.4,367.748,M,49.518,M,7.18,0195*7E
$GPVTG,31.2903,T,31.2903,M,0.611,N,1.132,K,D*21
$GPGGA,154327.20,4612.5043997,N,00605.1569586,E,2,09,1.4,367.726,M,49.518,M,7.58,0195*79
$RDENS,8956,5660563,PC
$GPVTG,48.1278,T,48.1278,M,0.509,N,0.943,K,D*24
$GPGGA,154327.40,4612.5044318,N,00605.1569730,E,2,09,1.4,367.741,M,49.518,M,7.78,0195*79
$GPVTG,29.3863,T,29.3863,M,0.535,N,0.992,K,D*27
$GPGGA,154327.80,4612.5044959,N,00605.1570119,E,2,09,1.4,367.781,M,49.518,M,8.18,0195*7A
$GPVTG,28.7662,T,28.7662,M,0.601,N,1.113,K,D*23
$GPGGA,154328.00,4612.5045413,N,00605.1570525,E,2,09,1.4,367.752,M,49.518,M,8.38,0195*78
$RDENS,8957,5660650,PC
$GPVTG,40.5677,T,40.5677,M,0.648,N,1.201,K,D*2E
$GPGGA,154328.40,4612.5046102,N,00605.1570823,E,2,10,1.2,367.788,M,49.518,M,8.78,0195*7C
$GPVTG,18.0421,T,18.0421,M,0.669,N,1.240,K,D*28
$GPGGA,154328.60,4612.5046393,N,00605.1570923,E,2,10,1.2,367.819,M,49.518,M,8.98,0195*7C
$GPVTG,23.1322,T,23.1322,M,0.547,N,1.015,K,D*25
$RDENS,8958,5660737,PC
$GPGGA,154328.80,4612.5046604,N,00605.1571054,E,2,10,1.2,367.842,M,49.518,M,9.18,0195*76
$GPVTG,22.2697,T,22.2697,M,0.610,N,1.131,K,D*23
$GPGGA,154329.20,4612.5046824,N,00605.1571478,E,2,10,1.2,367.812,M,49.518,M,9.58,0195*7A
$GPVTG,18.5063,T,18.5063,M,0.632,N,1.172,K,D*24
$GPGGA,154329.40,4612.5047270,N,00605.1571556,E,2,10,1.2,367.831,M,49.518,M,9.78,0195*78
$GPVTG,11.8751,T,11.8751,M,0.680,N,1.260,K,D*2D
$RDENS,8959,5660824,PC
$GPGGA,154329.80,4612.5047714,N,00605.1571759,E,2,10,1.2,367.814,M,49.518,M,10.18,0195*47
$GPVTG,10.1476,T,10.1476,M,0.551,N,1.021,K,D*25
$GPGGA,154330.00,4612.5047741,N,00605.1571814,E,2,10,1.2,367.832,M,49.518,M,10.38,0195*47
$GPVTG,19.3289,T,19.3289,M,0.570,N,1.056,K,D*26
$GPGGA,154330.40,4612.5051473,N,00605.1569860,E,2,12,0.9,368.526,M,49.518,M,10.78,0195*47
$GPVTG,13.6655,T,13.6655,M,0.694,N,1.286,K,D*20
$RDENS,8960,5660912,PC
$GPGGA,154330.60,4612.5051755,N,00605.1570091,E,2,12,0.9,368.490,M,49.518,M,10.98,0195*4E
$GPVTG,12.7405,T,12.7405,M,0.515,N,0.955,K,D*2E
$GPVTG,351.4587,T,351.4587,M,0.540,N,1.000,K,D*26
$GPGGA,154331.20,4612.5052386,N,00605.1570901,E,2,12,0.9,368.277,M,49.518,M,11.58,0195*40
$GPVTG,344.2216,T,344.2216,M,0.452,N,0.838,K,D*26
$RDENS,8961,5660999,PC
$GPGGA,154331.60,4612.5052950,N,00605.1571105,E,2,11,1.1,368.221,M,49.518,M,11.98,0195*4D
$GPVTG,4.8951,T,4.8951,M,0.548,N,1.015,K,D*2A
$GPGGA,154331.80,4612.5053482,N,00605.1570922,E,2,12,1.1,368.342,M,49.518,M,0.01,0195*7B
$GPVTG,353.8069,T,353.8069,M,0.424,N,0.786,K,D*2D
$GPGGA,154332.20,4612.5053906,N,00605.1570836,E,2,12,1.1,368.384,M,49.518,M,0.26,0195*78
$GPVTG,359.9144,T,359.9144,M,0.514,N,0.952,K,D*28
$RDENS,8962,5661086,PC
$GPGGA,154332.40,4612.5054174,N,00605.1570880,E,2,12,1.0,368.368,M,49.518,M,0.46,0195*7C
$GPVTG,11.1081,T,11.1081,M,0.430,N,0.798,K,D*27
$GPGGA,154332.80,4612.5054529,N,00605.1570969,E,2,12,1.0,368.353,M,49.518,M,0.86,0195*7E
$GPVTG,2.6104,T,2.6104,M,0.341,N,0.631,K,D*24
$GPGGA,154333.00,4612.5052934,N,00605.1571619,E,2,11,1.1,368.137,M,49.518,M,1.06,0195*73
$GPVTG,351.0029,T,351.0029,M,0.457,N,0.847,K,D*2B
$RDENS,8963,5661173,PC
$GPGGA,154333.20,4612.5053218,N,00605.1571666,E,2,11,1.1,368.127,M,49.518,M,0.13,0195*79
$GPVTG,337.2416,T,337.2416,M,0.514,N,0.952,K,D*28
$GPGGA,154333.60,4612.5053768,N,00605.1571552,E,2,11,1.1,368.117,M,49.518,M,0.27,0195*7F
$GPVTG,344.3649,T,344.3649,M,0.626,N,1.161,K,D*23
$GPGGA,154333.80,4612.5054080,N,00605.1571521,E,2,11,1.1,368.138,M,49.518,M,0.09,0195*72
$GPVTG,345.4978,T,345.4978,M,0.354,N,0.657,K,D*20
$RDENS,8964,5661261,PC
$GPGGA,154334.20,4612.5053259,N,00605.1571956,E,2,10,1.5,367.887,M,49.518,M,0.49,0195*71
$GPVTG,350.5414,T,350.5414,M,0.305,N,0.565,K,D*26
$GPGGA,154334.40,4612.5053597,N,00605.1571832,E,2,10,1.5,367.870,M,49.518,M,0.69,0195*7B
$GPVTG,337.3359,T,337.3359,M,0.343,N,0.636,K,D*21
$GPGGA,154334.80,4612.5054053,N,00605.1571598,E,2,10,1.5,367.891,M,49.518,M,1.09,0195*78
$GPVTG,338.8811,T,338.8811,M,0.163,N,0.302,K,D*23
$RDENS,8965,5661349,PC
$GPGGA,154335.00,4612.5054146,N,00605.1571513,E,2,10,1.5,367.895,M,49.518,M,1.29,0195*71
$GPVTG,12.4168,T,12.4168,M,0.051,N,0.095,K,D*2E
$GPGGA,154335.40,4612.5054285,N,00605.1571487,E,2,10,1.5,367.927,M,49.518,M,1.69,0195*79
$GPVTG,151.1202,T,151.1202,M,0.175,N,0.325,K,D*21
$GPGGA,154335.60,4612.5054116,N,00605.1571605,E,2,09,2.1,367.921,M,49.518,M,1.89,0195*7D
$GPVTG,141.1073,T,141.1073,M,0.099,N,0.183,K,D*2C
$RDENS,8966,5661437,PC
$GPGGA,154336.00,4612.5054166,N,00605.1571604,E,2,09,2.1,367.951,M,49.518,M,2.29,0195*70
$GPVTG,157.3123,T,157.3123,M,0.130,N,0.241,K,D*23
$GPGGA,154336.20,4612.5054204,N,00605.1571626,E,2,09,2.1,367.960,M,49.518,M,2.49,0195*71
$GPVTG,65.4478,T,65.4478,M,0.040,N,0.074,K,D*21
$GPGGA,154336.60,4612.5055957,N,00605.1568973,E,2,11,1.1,368.892,M,49.518,M,0.12,0195*7B
$GPVTG,70.7800,T,70.7800,M,0.035,N,0.065,K,D*23
$RDENS,8967,5661525,PC
$GPGGA,154336.80,4612.5055905,N,00605.1568571,E,2,11,1.1,369.044,M,49.518,M,0.32,0195*7C
$GPVTG,207.4793,T,207.4793,M,0.016,N,0.030,K,D*22
$GPGGA,154337.00,4612.5055627,N,00605.1570456,E,2,12,1.0,368.485,M,49.518,M,0.52,0195*7B
$GPVTG,19.5587,T,19.5587,M,0.005,N,0.010,K,D*22
$GPGGA,154337.40,4612.5055697,N,00605.1570383,E,2,12,1.0,368.495,M,49.518,M,0.92,0195*76
$GPVTG,290.6021,T,290.6021,M,0.045,N,0.084,K,D*2B
$RDENS,8968,5661613,PC
$GPGGA,154337.60,4612.5055689,N,00605.1570325,E,2,12,1.0,368.517,M,49.518,M,1.12,0195*75
$GPVTG,301.6309,T,301.6309,M,0.024,N,0.044,K,D*20
$GPGGA,154338.00,4612.5055680,N,00605.1570612,E,2,12,1.0,368.424,M,49.518,M,0.05,0195*72
$GPVTG,195.4023,T,195.4023,M,0.063,N,0.117,K,D*24
$GPGGA,154338.20,4612.5055742,N,00605.1570362,E,2,12,1.0,368.498,M,49.518,M,0.15,0195*7B
$GPVTG,281.4568,T,281.4568,M,0.008,N,0.015,K,D*2A
$RDENS,8969,5661701,PC
$GPGGA,154338.60,4612.5055765,N,00605.1570480,E,2,12,1.0,368.441,M,49.518,M,0.03,0195*72
$GPVTG,219.4056,T,219.4056,M,0.028,N,0.051,K,D*28
$GPGGA,154338.80,4612.5055687,N,00605.1570894,E,2,12,1.0,368.308,M,49.518,M,0.23,0195*70
$GPVTG,43.9256,T,43.9256,M,0.007,N,0.013,K,D*23
$GPGGA,154339.20,4612.5055749,N,00605.1570598,E,2,12,1.0,368.397,M,49.518,M,0.63,0195*7B
$GPVTG,1.0465,T,1.0465,M,0.017,N,0.032,K,D*21
$RDENS,8970,5661789,PC
$GPGGA,154339.40,4612.5055671,N,00605.1570994,E,2,12,1.0,368.272,M,49.518,M,0.83,0195*73
$GPVTG,230.2101,T,230.2101,M,0.035,N,0.065,K,D*23
$GPGGA,154339.80,4612.5055509,N,00605.1570614,E,2,12,1.0,368.405,M,49.518,M,0.23,0195*78
$GPVTG,235.7063,T,235.7063,M,0.018,N,0.033,K,D*2F
$GPGGA,154340.00,4612.5055625,N,00605.1569935,E,2,12,1.0,368.584,M,49.518,M,0.43,0195*79
$GPVTG,286.2092,T,286.2092,M,0.073,N,0.136,K,D*26
$RDENS,8971,5661876,PC
$GPGGA,154340.40,4612.5055676,N,00605.1569700,E,2,12,1.0,368.633,M,49.518,M,0.00,0195*7B
$GPVTG,254.1026,T,254.1026,M,0.016,N,0.030,K,D*22
$GPGGA,154340.60,4612.5055699,N,00605.1569536,E,2,12,1.0,368.666,M,49.518,M,0.20,0195*7D
$GPVTG,280.5495,T,280.5495,M,0.090,N,0.166,K,D*2E
$GPGGA,154341.00,4612.5055547,N,00605.1570207,E,2,12,1.0,368.450,M,49.518,M,0.60,0195*74
$GPVTG,250.6576,T,250.6576,M,0.063,N,0.118,K,D*2B
$RDENS,8972,5661963,PC
$GPGGA,154341.20,4612.5055362,N,00605.1571220,E,2,12,1.0,368.158,M,49.518,M,0.80,0195*70
$GPVTG,272.4301,T,272.4301,M,0.051,N,0.094,K,D*2F
$GPGGA,154341.40,4612.5055378,N,00605.1571191,E,2,13,0.9,368.152,M,49.518,M,1.00,0195*7E
$GPVTG,274.5554,T,274.5554,M,0.040,N,0.074,K,D*21
$GPGGA,154341.80,4612.5055335,N,00605.1571171,E,2,13,0.9,368.106,M,49.518,M,0.06,0195*73
$GPVTG,295.1022,T,295.1022,M,0.282,N,0.523,K,D*2A
$RDENS,8973,5662051,PC
$GPGGA,154342.00,4612.5055838,N,00605.1569254,E,2,13,0.9,368.575,M,49.518,M,0.14,0195*70
$GPVTG,308.6519,T,308.6519,M,0.223,N,0.413,K,D*23
$GPGGA,154342.40,4612.5056869,N,00605.1570770,E,4,10,1.0,367.836,M,49.518,M,0.54,0195*74
$GPVTG,323.0766,T,323.0766,M,0.303,N,0.562,K,D*27
$GPGGA,154342.60,4612.5057029,N,00605.1570557,E,4,09,1.2,367.861,M,49.518,M,0.74,0195*76
$GPVTG,322.9981,T,322.9981,M,0.449,N,0.832,K,D*26
$RDENS,8974,5662139,PC
$GPGGA,154343.00,4612.5057305,N,00605.1570411,E,4,08,1.4,367.810,M,49.518,M,1.14,0195*79
$GPVTG,311.6193,T,311.6193,M,0.297,N,0.551,K,D*2B
$GPGGA,154343.20,4612.5057311,N,00605.1570361,E,4,08,1.4,367.792,M,49.518,M,1.34,0195*79
$GPVTG,226.0935,T,226.0935,M,0.101,N,0.187,K,D*28
$GPGGA,154343.60,4612.5057239,N,00605.1570291,E,4,08,1.4,367.778,M,49.518,M,1.74,0195*78
$GPVTG,215.9926,T,215.9926,M,0.081,N,0.150,K,D*2B
$RDENS,8975,5662227,PC
$GPGGA,154343.80,4612.5057202,N,00605.1570258,E,4,08,1.4,367.774,M,49.518,M,0.05,0195*70
$GPVTG,279.7456,T,279.7456,M,0.149,N,0.276,K,D*29
$GPGGA,154344.20,4612.5057233,N,00605.1570012,E,4,08,1.4,367.788,M,49.518,M,0.35,0195*73
$GPVTG,278.4874,T,278.4874,M,0.136,N,0.251,K,D*24
$GPGGA,154344.40,4612.5057275,N,00605.1569871,E,4,08,1.4,367.795,M,49.518,M,0.55,0195*78
$GPVTG,292.7040,T,292.7040,M,0.182,N,0.337,K,D*2A
$RDENS,8976,5662315,PC
$GPGGA,154344.80,4612.5057399,N,00605.1569615,E,4,08,1.4,367.800,M,49.518,M,0.95,0195*74
$GPVTG,313.6498,T,313.6498,M,0.213,N,0.395,K,D*29
$GPGGA,154345.00,4612.5057478,N,00605.1569498,E,4,08,1.4,367.798,M,49.518,M,1.15,0195*75
$GPVTG,319.0598,T,319.0598,M,0.292,N,0.541,K,D*2F
$GPGGA,154345.40,4612.5057697,N,00605.1569170,E,4,08,1.4,367.788,M,49.518,M,1.55,0195*74
$GPVTG,307.7268,T,307.7268,M,0.283,N,0.524,K,D*2C
$RDENS,8977,5662403,PC
$GPGGA,154345.60,4612.5057801,N,00605.1568921,E,4,08,1.4,367.778,M,49.518,M,0.14,0195*71
$GPVTG,311.9276,T,311.9276,M,0.437,N,0.809,K,D*27
$GPGGA,154345.80,4612.5057929,N,00605.1568712,E,4,08,1.4,367.757,M,49.518,M,0.17,0195*74
$GPVTG,308.2382,T,308.2382,M,0.442,N,0.819,K,D*24
$GPGGA,154346.20,4612.5058292,N,00605.1568199,E,4,08,1.4,367.742,M,49.518,M,0.23,0195*7F
$GPVTG,324.5321,T,324.5321,M,0.387,N,0.718,K,D*24
$RDENS,8978,5662491,PC
$GPGGA,154346.40,4612.5058505,N,00605.1567955,E,4,08,1.4,367.736,M,49.518,M,0.43,0195*72
$GPVTG,319.6465,T,319.6465,M,0.533,N,0.988,K,D*2A
$GPGGA,154346.80,4612.5059022,N,00605.1567293,E,4,08,1.4,367.746,M,49.518,M,0.83,0195*75
$GPVTG,313.1552,T,313.1552,M,0.595,N,1.103,K,D*2C
$GPGGA,154347.00,4612.5059350,N,00605.1566864,E,4,08,1.4,367.742,M,49.518,M,1.03,0195*74
$GPVTG,320.7292,T,320.7292,M,0.855,N,1.584,K,D*26
$RDENS,8979,5662579,PC
$GPGGA,154347.40,4612.5059986,N,00605.1565986,E,4,08,1.4,367.765,M,49.518,M,1.43,0195*7E
$GPVTG,308.7841,T,308.7841,M,0.838,N,1.552,K,D*26
$GPGGA,154347.60,4612.5060436,N,00605.1565449,E,4,08,1.4,367.751,M,49.518,M,0.08,0195*77
$GPVTG,316.3852,T,316.3852,M,0.941,N,1.743,K,D*2B
$GPGGA,154348.00,4612.5061282,N,00605.1564485,E,4,08,1.4,367.747,M,49.518,M,0.48,0195*74
$GPVTG,321.7839,T,321.7839,M,1.106,N,2.049,K,D*2F
$RDENS,8980,5662667,PC
$GPGGA,154348.20,4612.5061720,N,00605.1563948,E,4,08,1.4,367.747,M,49.519,M,0.01,0195*7C
$GPVTG,318.0761,T,318.0761,M,0.932,N,1.727,K,D*2D
$GPGGA,154348.60,4612.5062422,N,00605.1562972,E,4,08,1.4,367.746,M,49.519,M,0.41,0195*77
$GPVTG,314.0722,T,314.0722,M,0.676,N,1.253,K,D*24
$GPGGA,154348.80,4612.5062775,N,00605.1562412,E,4,08,1.4,367.753,M,49.519,M,0.61,0195*75
$GPVTG,316.7004,T,316.7004,M,0.984,N,1.824,K,D*2C
$RDENS,8981,5662754,PC
$GPGGA,154349.20,4612.5063580,N,00605.1561330,E,4,08,1.4,367.772,M,49.519,M,1.01,0195*77
$GPVTG,318.3531,T,318.3531,M,0.957,N,1.773,K,D*2F
$GPGGA,154349.40,4612.5063880,N,00605.1560812,E,4,08,1.4,367.783,M,49.519,M,1.21,0195*7A
$GPVTG,318.3581,T,318.3581,M,0.969,N,1.797,K,D*28
$GPGGA,154349.80,4612.5064629,N,00605.1559777,E,4,08,1.4,367.786,M,49.519,M,0.03,0195*7E
$GPVTG,314.6722,T,314.6722,M,0.885,N,1.640,K,D*20
$RDENS,8982,5662842,PC
$GPGGA,154350.00,4612.5064992,N,00605.1559247,E,4,08,1.4,367.802,M,49.519,M,0.23,0195*76
$GPVTG,308.7778,T,308.7778,M,0.946,N,1.753,K,D*2D
$GPGGA,154350.20,4612.5065327,N,00605.1558760,E,4,08,1.4,367.799,M,49.519,M,0.43,0195*7B
$GPVTG,311.2109,T,311.2109,M,0.769,N,1.426,K,D*2F
$GPGGA,154350.60,4612.5065884,N,00605.1557748,E,4,08,1.4,367.787,M,49.519,M,0.83,0195*7B
$GPVTG,315.3568,T,315.3568,M,0.804,N,1.490,K,D*26
$RDENS,8983,5662926,PC
$GPGGA,154350.80,4612.5066167,N,00605.1557257,E,4,08,1.4,367.809,M,49.519,M,1.03,0195*79
$GPVTG,310.0190,T,310.0190,M,0.911,N,1.689,K,D*29
$GPGGA,154351.20,4612.5066756,N,00605.1556233,E,4,08,1.4,367.803,M,49.519,M,1.43,0195*7B
$GPVTG,312.3891,T,312.3891,M,0.725,N,1.344,K,D*24
$GPGGA,154351.40,4612.5066980,N,00605.1555719,E,4,08,1.4,367.832,M,49.519,M,0.17,0195*74
$GPVTG,312.9264,T,312.9264,M,0.866,N,1.605,K,D*2C
$RDENS,8984,5663011,PC
$GPGGA,154351.80,4612.5067544,N,00605.1554723,E,4,08,1.4,367.821,M,49.519,M,0.23,0195*70
$GPVTG,303.6469,T,303.6469,M,0.746,N,1.383,K,D*2A
$GPGGA,154352.00,4612.5067808,N,00605.1554229,E,4,08,1.4,367.832,M,49.519,M,0.43,0195*75
$GPVTG,310.0954,T,310.0954,M,0.997,N,1.848,K,D*24
$GPGGA,154352.40,4612.5068438,N,00605.1553023,E,4,08,1.4,367.808,M,49.519,M,0.83,0195*7B
$GPVTG,299.2692,T,299.2692,M,0.889,N,1.648,K,D*24
$RDENS,8985,5663096,PC
$GPGGA,154352.60,4612.5068683,N,00605.1552393,E,4,08,1.4,367.811,M,49.519,M,0.02,0195*73
$GPVTG,305.6701,T,305.6701,M,1.064,N,1.972,K,D*28
$GPGGA,154353.00,4612.5069341,N,00605.1551028,E,4,09,1.2,367.818,M,49.519,M,0.42,0195*74
$GPVTG,304.5420,T,304.5420,M,1.057,N,1.959,K,D*21
$GPVTG,303.4412,T,303.4412,M,1.248,N,2.313,K,D*2A
$RDENS,8986,5663183,PC
$GPGGA,154353.40,4612.5070086,N,00605.1549390,E,4,09,1.2,367.833,M,49.519,M,0.82,0195*7C
$GPVTG,306.4554,T,306.4554,M,1.253,N,2.322,K,D*22
$GPGGA,154353.60,4612.5070467,N,00605.1548601,E,4,09,1.2,367.807,M,49.519,M,1.02,0195*77
$GPVTG,305.2857,T,305.2857,M,1.381,N,2.560,K,D*2C
$GPGGA,154354.00,4612.5071339,N,00605.1546780,E,4,09,1.2,367.802,M,49.519,M,0.07,0195*7C
$GPVTG,302.2032,T,302.2032,M,1.314,N,2.436,K,D*22
$RDENS,8987,5663269,PC
$GPGGA,154354.20,4612.5071750,N,00605.1545917,E,4,09,1.2,367.784,M,49.519,M,0.27,0195*75
$GPVTG,303.4556,T,303.4556,M,1.290,N,2.391,K,D*25
$GPGGA,154354.60,4612.5072558,N,00605.1544198,E,4,09,1.2,367.746,M,49.519,M,0.67,0195*7C
$GPVTG,307.9050,T,307.9050,M,1.339,N,2.482,K,D*22
$GPGGA,154354.80,4612.5072925,N,00605.1543472,E,4,09,1.2,367.744,M,49.519,M,0.87,0195*7E
$GPVTG,306.7299,T,306.7299,M,1.201,N,2.225,K,D*23
$RDENS,8988,5663355,PC
$GPGGA,154355.20,4612.5073716,N,00605.1541802,E,4,09,1.2,367.821,M,49.519,M,1.27,0195*74
$GPVTG,301.7951,T,301.7951,M,1.241,N,2.300,K,D*21
$GPGGA,154355.40,4612.5074133,N,00605.1541108,E,4,09,1.2,367.836,M,49.519,M,1.47,0195*77
$GPVTG,307.4717,T,307.4717,M,1.273,N,2.359,K,D*2C
$GPGGA,154355.80,4612.5074969,N,00605.1539508,E,4,09,1.2,367.859,M,49.519,M,0.14,0195*79
$GPVTG,303.8510,T,303.8510,M,1.187,N,2.199,K,D*2A
$RDENS,8989,5663441,PC
$GPGGA,154356.00,4612.5075304,N,00605.1538753,E,4,09,1.2,367.851,M,49.519,M,0.34,0195*75
$GPVTG,302.8117,T,302.8117,M,1.152,N,2.134,K,D*25
$GPGGA,154356.40,4612.5076095,N,00605.1537224,E,4,09,1.2,367.843,M,49.519,M,0.05,0195*72
$GPVTG,308.4660,T,308.4660,M,1.107,N,2.051,K,D*27
$GPGGA,154356.60,4612.5076393,N,00605.1536561,E,4,09,1.2,367.809,M,49.519,M,0.10,0195*78
$GPVTG,306.5098,T,306.5098,M,1.083,N,2.008,K,D*26
$RDENS,8990,5663527,PC
$GPGGA,154357.00,4612.5077133,N,00605.1535196,E,4,09,1.2,367.799,M,49.519,M,0.30,0195*7D
$GPVTG,306.8273,T,306.8273,M,1.043,N,1.933,K,D*28
$GPGGA,154357.20,4612.5077450,N,00605.1534535,E,4,09,1.2,367.802,M,49.519,M,0.50,0195*78
$GPVTG,310.3159,T,310.3159,M,1.026,N,1.901,K,D*2A
$GPGGA,154357.60,4612.5078231,N,00605.1533237,E,4,09,1.2,367.837,M,49.519,M,0.90,0195*7A
$GPVTG,309.5165,T,309.5165,M,1.092,N,2.023,K,D*2F
$RDENS,8991,5663614,PC
$GPGGA,154357.80,4612.5078585,N,00605.1532594,E,4,09,1.2,367.824,M,49.519,M,1.10,0195*78
$GPVTG,306.9413,T,306.9413,M,1.164,N,2.158,K,D*2A
$GPGGA,154358.00,4612.5079059,N,00605.1531832,E,4,09,1.2,367.862,M,49.519,M,1.30,0195*78
$GPVTG,315.1494,T,315.1494,M,1.202,N,2.228,K,D*2D
$GPGGA,154358.40,4612.5079960,N,00605.1530405,E,4,09,1.2,367.830,M,49.519,M,1.70,0195*75
$GPVTG,311.4506,T,311.4506,M,1.292,N,2.394,K,D*22
$RDENS,8992,5663701,PC
$GPGGA,154358.60,4612.5080451,N,00605.1529651,E,4,09,1.2,367.811,M,49.519,M,1.90,0195*78
$GPVTG,315.7722,T,315.7722,M,1.311,N,2.430,K,D*21
$GPGGA,154359.00,4612.5081551,N,00605.1528098,E,4,09,1.2,367.811,M,49.519,M,2.30,0195*74
$GPVTG,315.8555,T,315.8555,M,1.417,N,2.626,K,D*25
$GPGGA,154359.20,4612.5082118,N,00605.1527346,E,4,09,1.2,367.823,M,49.519,M,2.50,0195*74
$GPVTG,320.6371,T,320.6371,M,1.341,N,2.484,K,D*2B
$RDENS,8993,5663788,PC
$GPGGA,154359.60,4612.5083245,N,00605.1525938,E,4,09,1.2,367.820,M,49.519,M,2.90,0195*74
$GPVTG,318.6833,T,318.6833,M,1.406,N,2.607,K,D*26
$GPGGA,154359.80,4612.5083830,N,00605.1525279,E,4,09,1.2,367.820,M,49.519,M,3.10,0195*75
$GPVTG,321.1917,T,321.1917,M,1.405,N,2.603,K,D*21
$GPGGA,154400.20,4612.5085056,N,00605.1523825,E,4,09,1.2,367.816,M,49.519,M,3.50,0195*7E
$GPVTG,319.4488,T,319.4488,M,1.446,N,2.680,K,D*2D
$RDENS,8994,5663875,PC
$GPGGA,154400.40,4612.5085703,N,00605.1523071,E,4,09,1.2,367.816,M,49.519,M,3.70,0195*74
$GPVTG,320.5782,T,320.5782,M,1.424,N,2.639,K,D*2B
$GPGGA,154400.80,4612.5087029,N,00605.1521591,E,4,09,1.2,367.791,M,49.519,M,4.10,0195*7D
$GPVTG,323.8436,T,323.8436,M,1.464,N,2.713,K,D*26
$GPGGA,154401.00,4612.5087691,N,00605.1520914,E,4,09,1.2,367.794,M,49.519,M,4.30,0195*76
$RDENS,8995,5663962,PC
$GPVTG,322.5150,T,322.5150,M,1.520,N,2.818,K,D*23
$GPGGA,154401.40,4612.5089025,N,00605.1519552,E,4,09,1.2,367.795,M,49.519,M,4.70,0195*74
$GPVTG,326.6027,T,326.6027,M,1.467,N,2.719,K,D*2F
$GPGGA,154401.60,4612.5089741,N,00605.1518833,E,4,09,1.2,367.806,M,49.519,M,4.90,0195*73
$GPVTG,325.1913,T,325.1913,M,1.526,N,2.829,K,D*27
$GPGGA,154402.00,4612.5091173,N,00605.1517311,E,4,09,1.2,367.828,M,49.519,M,5.30,0195*7B
$RDENS,8996,5664049,PC
$GPVTG,322.8249,T,322.8249,M,1.605,N,2.974,K,D*2C
$GPGGA,154402.20,4612.5091888,N,00605.1516661,E,4,09,1.2,367.807,M,49.519,M,5.50,0195*7C
$GPVTG,323.8381,T,323.8381,M,1.584,N,2.936,K,D*20
$GPGGA,154402.40,4612.5092597,N,00605.1515910,E,4,09,1.2,367.806,M,49.519,M,5.70,0195*73
$GPVTG,323.9295,T,323.9295,M,1.631,N,3.023,K,D*21
$GPGGA,154402.80,4612.5094096,N,00605.1514307,E,4,09,1.2,367.803,M,49.519,M,6.10,0195*70
$RDENS,8997,5664136,PC
$GPVTG,324.1457,T,324.1457,M,1.753,N,3.249,K,D*2A
$GPGGA,154403.00,4612.5094863,N,00605.1513475,E,4,09,1.2,367.817,M,49.519,M,6.30,0195*79
$GPVTG,322.0314,T,322.0314,M,1.688,N,3.129,K,D*28
$GPGGA,154403.40,4612.5096385,N,00605.1511751,E,4,09,1.2,367.833,M,49.519,M,6.70,0195*79
$GPVTG,322.1319,T,322.1319,M,1.712,N,3.172,K,D*24
$GPGGA,154403.60,4612.5097167,N,00605.1510924,E,4,09,1.2,367.825,M,49.519,M,6.90,0195*70
$RDENS,8998,5664223,PC
$GPVTG,320.7828,T,320.7828,M,1.702,N,3.154,K,D*21
$GPGGA,154404.00,4612.5098776,N,00605.1509054,E,4,09,1.2,367.822,M,49.519,M,0.02,0195*74
$GPVTG,321.5239,T,321.5239,M,1.922,N,3.562,K,D*2C
$GPGGA,154404.20,4612.5099582,N,00605.1508121,E,4,09,1.2,367.807,M,49.519,M,0.18,0195*70
$GPVTG,318.9561,T,318.9561,M,1.912,N,3.543,K,D*2C
$GPGGA,154404.60,4612.5101238,N,00605.1506104,E,4,09,1.2,367.816,M,49.519,M,0.58,0195*7F
$RDENS,8999,5664310,PC
$GPVTG,318.6297,T,318.6297,M,1.960,N,3.632,K,D*2C
$GPGGA,154404.80,4612.5102044,N,00605.1505054,E,4,09,1.2,367.823,M,49.519,M,0.78,0195*78
$GPVTG,323.4447,T,323.4447,M,2.049,N,3.797,K,D*23
$GPGGA,154405.20,4612.5103777,N,00605.1502939,E,4,09,1.2,367.783,M,49.519,M,1.18,0195*72
$GPVTG,317.4091,T,317.4091,M,2.090,N,3.872,K,D*23
$GPGGA,154405.40,4612.5104656,N,00605.1501749,E,4,09,1.2,367.795,M,49.519,M,1.38,0195*7E
$RDENS,9000,5664398,PC
$GPVTG,314.2710,T,314.2710,M,2.132,N,3.952,K,D*29
$GPGGA,154405.80,4612.5106356,N,00605.1499597,E,4,09,1.2,367.757,M,49.519,M,1.78,0195*7E
$GPVTG,323.2536,T,323.2536,M,1.999,N,3.705,K,D*2F
$GPGGA,154406.00,4612.5107254,N,00605.1498251,E,4,09,1.2,367.821,M,49.519,M,0.07,0195*7C
$GPVTG,315.5768,T,315.5768,M,2.132,N,3.952,K,D*29
$GPGGA,154406.40,4612.5108970,N,00605.1495790,E,4,09,1.2,367.828,M,49.519,M,0.23,0195*70
$RDENS,9001,5664486,PC
$GPVTG,315.6322,T,315.6322,M,2.242,N,4.155,K,D*25
$GPGGA,154406.60,4612.5109894,N,00605.1494616,E,4,09,1.2,367.812,M,49.519,M,0.43,0195*79
$GPVTG,316.5172,T,316.5172,M,2.217,N,4.108,K,D*2D
$GPGGA,154407.00,4612.5111682,N,00605.1492145,E,4,09,1.2,367.799,M,49.519,M,0.83,0195*79
$GPVTG,315.9084,T,315.9084,M,2.175,N,4.030,K,D*20
$GPGGA,154407.20,4612.5112584,N,00605.1491038,E,4,09,1.2,367.757,M,49.519,M,1.03,0195*7E
$RDENS,9002,5664574,PC
$GPVTG,316.6792,T,316.6792,M,2.264,N,4.195,K,D*2D
$GPGGA,154407.40,4612.5113522,N,00605.1489743,E,4,09,1.2,367.774,M,49.519,M,1.23,0195*74
$GPVTG,315.4089,T,315.4089,M,2.234,N,4.140,K,D*20
$GPGGA,154407.80,4612.5115300,N,00605.1487184,E,4,09,1.2,367.794,M,49.519,M,1.63,0195*71
$GPVTG,315.1910,T,315.1910,M,2.268,N,4.202,K,D*2C
$GPGGA,154408.00,4612.5116218,N,00605.1485990,E,4,09,1.2,367.783,M,49.519,M,0.08,0195*78
$RDENS,9003,5664662,PC
$GPVTG,315.7436,T,315.7436,M,2.330,N,4.318,K,D*2A
$GPGGA,154408.40,4612.5118025,N,00605.1483487,E,4,09,1.2,367.788,M,49.519,M,0.48,0195*7C
$GPVTG,316.0323,T,316.0323,M,2.217,N,4.109,K,D*2C
$GPGGA,154408.60,4612.5118929,N,00605.1482162,E,4,09,1.2,367.792,M,49.519,M,0.68,0195*7D
$GPVTG,316.8023,T,316.8023,M,2.271,N,4.210,K,D*27
$GPGGA,154409.00,4612.5120853,N,00605.1479614,E,4,09,1.2,367.783,M,49.519,M,1.08,0195*78
$RDENS,9004,5664750,PC
$GPVTG,317.5013,T,317.5013,M,2.378,N,4.407,K,D*2F
$GPGGA,154409.20,4612.5121756,N,00605.1478360,E,4,09,1.2,367.775,M,49.519,M,1.28,0195*7D
$GPVTG,317.2163,T,317.2163,M,2.424,N,4.492,K,D*2D
$GPGGA,154409.60,4612.5123644,N,00605.1475797,E,4,09,1.2,367.783,M,49.519,M,0.00,0195*7A
$GPVTG,315.7773,T,315.7773,M,2.260,N,4.189,K,D*24
$GPGGA,154409.80,4612.5124561,N,00605.1474548,E,4,09,1.2,367.770,M,49.519,M,0.12,0195*79
$RDENS,9005,5664838,PC
$GPVTG,316.0183,T,316.0183,M,2.376,N,4.402,K,D*24
$GPGGA,154410.20,4612.5126451,N,00605.1471915,E,4,09,1.2,367.790,M,49.519,M,0.52,0195*70
$GPVTG,315.7488,T,315.7488,M,2.313,N,4.286,K,D*2D
$GPGGA,154410.40,4612.5127365,N,00605.1470648,E,4,09,1.2,367.773,M,49.519,M,0.72,0195*7E
$GPVTG,315.2570,T,315.2570,M,2.435,N,4.512,K,D*24
$GPGGA,154410.80,4612.5129261,N,00605.1468056,E,4,09,1.2,367.765,M,49.519,M,1.12,0195*79
$RDENS,9006,5664926,PC
$GPVTG,317.4825,T,317.4825,M,2.305,N,4.272,K,D*21
$GPGGA,154411.00,4612.5130125,N,00605.1466688,E,4,09,1.2,367.771,M,49.519,M,1.32,0195*77
$GPVTG,317.2477,T,317.2477,M,2.371,N,4.393,K,D*2C
$GPGGA,154411.40,4612.5132012,N,00605.1463974,E,4,09,1.2,367.785,M,49.519,M,1.72,0195*72
$GPVTG,312.9293,T,312.9293,M,2.443,N,4.527,K,D*23
$GPGGA,154411.60,4612.5132962,N,00605.1462698,E,4,09,1.2,367.772,M,49.519,M,1.92,0195*74
$RDENS,9007,5665014,PC
$GPVTG,314.1330,T,314.1330,M,2.371,N,4.394,K,D*2B
$GPGGA,154412.00,4612.5134797,N,00605.1459939,E,4,09,1.2,367.773,M,49.519,M,2.32,0195*77
$GPVTG,313.6107,T,313.6107,M,2.426,N,4.496,K,D*2B
$GPGGA,154412.20,4612.5135723,N,00605.1458570,E,4,09,1.2,367.766,M,49.519,M,2.52,0195*79
$GPVTG,312.9909,T,312.9909,M,2.414,N,4.473,K,D*21
$GPGGA,154412.40,4612.5136639,N,00605.1457129,E,4,09,1.2,367.779,M,49.519,M,2.72,0195*7D
$RDENS,9008,5665102,PC
$GPVTG,310.5474,T,310.5474,M,2.375,N,4.402,K,D*27
$GPGGA,154412.80,4612.5138439,N,00605.1454159,E,4,09,1.2,367.803,M,49.519,M,3.12,0195*7C
$GPVTG,311.6642,T,311.6642,M,2.415,N,4.476,K,D*25
$GPGGA,154413.00,4612.5139319,N,00605.1452705,E,4,09,1.2,367.797,M,49.519,M,3.32,0195*78
$GPVTG,311.0324,T,311.0324,M,2.439,N,4.520,K,D*29
$GPGGA,154413.40,4612.5141097,N,00605.1449723,E,4,09,1.2,367.795,M,49.519,M,3.72,0195*7E
$RDENS,9009,5665190,PC
$GPVTG,310.3929,T,310.3929,M,2.461,N,4.561,K,D*21
$GPGGA,154413.60,4612.5141982,N,00605.1448203,E,4,09,1.2,367.805,M,49.519,M,3.92,0195*7F
$GPVTG,309.5096,T,309.5096,M,2.495,N,4.623,K,D*2F
$GPGGA,154414.00,4612.5143760,N,00605.1445103,E,4,09,1.2,367.809,M,49.519,M,4.32,0195*71
$GPVTG,308.8655,T,308.8655,M,2.471,N,4.579,K,D*29
$GPGGA,154414.20,4612.5144618,N,00605.1443564,E,4,09,1.2,367.813,M,49.519,M,4.52,0195*74
$RDENS,9010,5665278,PC
$GPVTG,307.5142,T,307.5142,M,2.555,N,4.734,K,D*25
$GPGGA,154414.60,4612.5146333,N,00605.1440355,E,4,09,1.2,367.833,M,49.519,M,4.92,0195*77
$GPVTG,308.1788,T,308.1788,M,2.535,N,4.698,K,D*24
$GPGGA,154414.80,4612.5147212,N,00605.1438788,E,4,09,1.2,367.827,M,49.519,M,5.12,0195*7D
$GPVTG,306.8020,T,306.8020,M,2.535,N,4.697,K,D*2B
$GPGGA,154415.20,4612.5148907,N,00605.1435525,E,4,09,1.2,367.806,M,49.519,M,5.52,0195*79
$RDENS,9011,5665366,PC
$GPVTG,306.5893,T,306.5893,M,2.534,N,4.697,K,D*2A
$GPVTG,306.9892,T,306.9892,M,2.631,N,4.875,K,D*2E
$GPGGA,154415.60,4612.5150623,N,00605.1432147,E,4,09,1.2,367.811,M,49.519,M,5.92,0195*70
$GPVTG,305.5043,T,305.5043,M,2.599,N,4.816,K,D*2A
$GPGGA,154416.00,4612.5152298,N,00605.1428766,E,4,09,1.2,367.805,M,49.519,M,6.32,0195*71
$GPVTG,306.5215,T,306.5215,M,2.633,N,4.880,K,D*26
$RDENS,9012,5665454,PC
$GPGGA,154416.20,4612.5153126,N,00605.1427081,E,4,09,1.2,367.785,M,49.519,M,6.52,0195*74
$GPVTG,305.1884,T,305.1884,M,2.674,N,4.956,K,D*2F
$GPGGA,154416.40,4612.5153985,N,00605.1425331,E,4,09,1.2,367.794,M,49.519,M,6.72,0195*7B
$GPVTG,305.9474,T,305.9474,M,2.624,N,4.863,K,D*2D
$GPGGA,154416.80,4612.5155677,N,00605.1421884,E,4,09,1.2,367.778,M,49.519,M,7.12,0195*77
$GPVTG,305.2449,T,305.2449,M,2.656,N,4.923,K,D*2D
$RDENS,9013,5665542,PC
$GPGGA,154417.00,4612.5156550,N,00605.1420131,E,4,09,1.2,367.781,M,49.519,M,7.32,0195*79
$GPVTG,304.6868,T,304.6868,M,2.678,N,4.963,K,D*25
$GPGGA,154417.40,4612.5158264,N,00605.1416630,E,4,09,1.2,367.778,M,49.519,M,7.72,0195*72
$GPVTG,305.8563,T,305.8563,M,2.653,N,4.917,K,D*2F
$GPGGA,154417.60,4612.5159126,N,00605.1414867,E,4,09,1.2,367.775,M,49.519,M,7.92,0195*79
$GPVTG,305.2466,T,305.2466,M,2.691,N,4.987,K,D*28
$RDENS,9014,5665630,PC
$GPGGA,154418.00,4612.5160854,N,00605.1411326,E,4,09,1.2,367.773,M,49.519,M,8.32,0195*7E
$GPVTG,304.7940,T,304.7940,M,2.654,N,4.918,K,D*27
$GPGGA,154418.20,4612.5161690,N,00605.1409580,E,4,09,1.2,367.769,M,49.519,M,8.52,0195*75
$GPVTG,305.8519,T,305.8519,M,2.687,N,4.980,K,D*28
$GPGGA,154418.60,4612.5163418,N,00605.1406082,E,4,09,1.2,367.776,M,49.519,M,8.92,0195*7B
$GPVTG,305.1668,T,305.1668,M,2.701,N,5.005,K,D*22
$RDENS,9015,5665718,PC
$GPGGA,154418.80,4612.5164277,N,00605.1404361,E,4,09,1.2,367.773,M,49.519,M,9.12,0195*7D
$GPVTG,305.1256,T,305.1256,M,2.646,N,4.904,K,D*29
$GPGGA,154419.20,4612.5166017,N,00605.1400883,E,4,09,1.2,367.790,M,49.519,M,9.52,0195*7A
$GPVTG,305.2867,T,305.2867,M,2.635,N,4.883,K,D*23
$GPGGA,154419.40,4612.5166914,N,00605.1399201,E,4,09,1.2,367.779,M,49.519,M,9.72,0195*74
$GPVTG,308.2415,T,308.2415,M,2.715,N,5.031,K,D*20
$RDENS,9016,5665806,PC
$GPGGA,154419.80,4612.5168697,N,00605.1395736,E,4,09,1.2,367.790,M,49.519,M,10.12,0195*46
$GPVTG,305.4239,T,305.4239,M,2.635,N,4.883,K,D*23
$GPGGA,154420.00,4612.5169595,N,00605.1394027,E,4,09,1.2,367.790,M,49.519,M,10.32,0195*40
$GPVTG,307.9102,T,307.9102,M,2.667,N,4.943,K,D*29
$GPGGA,154420.40,4612.5171418,N,00605.1390616,E,4,09,1.2,367.799,M,49.519,M,10.72,0195*44
$GPVTG,306.4970,T,306.4970,M,2.665,N,4.938,K,D*27
$RDENS,9017,5665894,PC
$GPGGA,154420.60,4612.5172330,N,00605.1388953,E,4,09,1.2,367.791,M,49.519,M,10.92,0195*49
$GPVTG,307.7062,T,307.7062,M,2.632,N,4.877,K,D*2F
$GPGGA,154421.00,4612.5174160,N,00605.1385590,E,4,09,1.2,367.809,M,49.519,M,11.32,0195*44
$GPVTG,308.2195,T,308.2195,M,2.646,N,4.904,K,D*29
$GPGGA,154421.20,4612.5175043,N,00605.1383980,E,4,09,1.2,367.792,M,49.519,M,11.52,0195*47
$GPVTG,309.3201,T,309.3201,M,2.693,N,4.990,K,D*2C
$RDENS,9018,5665982,PC
$GPGGA,154421.40,4612.5175982,N,00605.1382308,E,4,09,1.2,367.789,M,49.519,M,11.72,0195*46
$GPVTG,308.8231,T,308.8231,M,2.705,N,5.013,K,D*21
$GPGGA,154421.80,4612.5177877,N,00605.1378998,E,4,09,1.2,367.819,M,49.519,M,12.12,0195*46
$GPVTG,309.4000,T,309.4000,M,2.602,N,4.822,K,D*2C
$GPGGA,154422.00,4612.5178804,N,00605.1377407,E,4,09,1.2,367.829,M,49.519,M,12.32,0195*43
$GPVTG,310.9073,T,310.9073,M,2.660,N,4.929,K,D*22
$RDENS,9019,5666070,PC
$GPGGA,154422.40,4612.5180674,N,00605.1374168,E,4,09,1.2,367.827,M,49.519,M,12.72,0195*4C
$GPVTG,310.0964,T,310.0964,M,2.654,N,4.919,K,D*26
$GPGGA,154422.60,4612.5181600,N,00605.1372580,E,4,09,1.2,367.810,M,49.519,M,12.92,0195*42
$GPVTG,308.2342,T,308.2342,M,2.605,N,4.827,K,D*2E
$GPGGA,154423.00,4612.5183383,N,00605.1369400,E,4,09,1.2,367.790,M,49.519,M,13.32,0195*46
$GPVTG,310.5414,T,310.5414,M,2.618,N,4.851,K,D*23
$RDENS,9020,5666158,PC
$GPGGA,154423.20,4612.5184309,N,00605.1367812,E,2,09,1.2,367.811,M,49.519,M,13.52,0195*46
$GPVTG,309.4161,T,309.4161,M,2.520,N,4.670,K,D*26
$GPGGA,154423.60,4612.5186119,N,00605.1364710,E,2,09,1.2,367.852,M,49.519,M,13.92,0195*46
$GPVTG,310.4406,T,310.4406,M,2.514,N,4.659,K,D*2A
$GPGGA,154423.80,4612.5186993,N,00605.1363158,E,2,09,1.2,367.850,M,49.519,M,14.12,0195*42
$GPVTG,310.8265,T,310.8265,M,2.495,N,4.624,K,D*28
$RDENS,9021,5666246,PC
$GPGGA,154424.20,4612.5188854,N,00605.1359989,E,2,09,1.2,367.826,M,49.519,M,14.52,0195*43
$GPVTG,309.4221,T,309.4221,M,2.595,N,4.809,K,D*28
$GPGGA,154424.40,4612.5189777,N,00605.1358432,E,2,09,1.2,367.814,M,49.519,M,14.72,0195*45
$GPVTG,309.5054,T,309.5054,M,2.538,N,4.703,K,D*2A
$GPGGA,154424.80,4612.5191590,N,00605.1355397,E,2,09,1.2,367.805,M,49.519,M,15.12,0195*49
$GPVTG,310.9628,T,310.9628,M,2.535,N,4.698,K,D*24
$RDENS,9022,5666334,PC
$GPGGA,154425.00,4612.5192513,N,00605.1353844,E,2,09,1.2,367.806,M,49.519,M,15.32,0195*4A
$GPVTG,309.1345,T,309.1345,M,2.503,N,4.638,K,D*2B
$GPGGA,154425.40,4612.5194320,N,00605.1350756,E,2,09,1.2,367.808,M,49.519,M,15.72,0195*4B
$GPVTG,309.4461,T,309.4461,M,2.513,N,4.658,K,D*2C
$GPGGA,154425.60,4612.5195188,N,00605.1349256,E,2,09,1.2,367.791,M,49.519,M,15.92,0195*44
$GPVTG,309.7332,T,309.7332,M,2.593,N,4.805,K,D*22
$RDENS,9023,5666422,PC
$GPGGA,154426.00,4612.5197020,N,00605.1346132,E,2,09,1.2,367.778,M,49.519,M,16.32,0195*40
$GPVTG,308.7546,T,308.7546,M,2.560,N,4.744,K,D*24
$GPGGA,154426.20,4612.5197923,N,00605.1344501,E,2,09,1.2,367.805,M,49.519,M,16.52,0195*4D
$GPVTG,310.2289,T,310.2289,M,2.551,N,4.728,K,D*2C
$GPGGA,154426.60,4612.5199734,N,00605.1341411,E,2,09,1.2,367.802,M,49.519,M,16.92,0195*41
$GPVTG,310.3478,T,310.3478,M,2.548,N,4.722,K,D*2E
$RDENS,9024,5666510,PC
$GPGGA,154426.80,4612.5200623,N,00605.1339840,E,2,09,1.2,367.815,M,49.519,M,17.12,0195*43
$GPVTG,310.9705,T,310.9705,M,2.579,N,4.779,K,D*22
$GPGGA,154427.20,4612.5202451,N,00605.1336650,E,2,09,1.2,367.818,M,49.519,M,17.52,0195*44
$GPVTG,308.9446,T,308.9446,M,2.528,N,4.684,K,D*25
$GPGGA,154427.40,4612.5203373,N,00605.1335098,E,2,09,1.2,367.805,M,49.519,M,17.72,0195*4B
$GPVTG,309.7990,T,309.7990,M,2.566,N,4.755,K,D*22
$RDENS,9025,5666598,PC
$GPGGA,154427.80,4612.5205187,N,00605.1331966,E,2,09,1.2,367.802,M,49.519,M,18.12,0195*4A
$GPVTG,310.6560,T,310.6560,M,2.547,N,4.720,K,D*23
$GPGGA,154428.00,4612.5206058,N,00605.1330367,E,2,09,1.2,367.812,M,49.519,M,18.32,0195*44
$GPVTG,309.7063,T,309.7063,M,2.589,N,4.797,K,D*2D
$GPGGA,154428.20,4612.5206987,N,00605.1328775,E,2,09,1.2,367.823,M,49.519,M,18.52,0195*47
$RDENS,9026,5666686,PC
$GPVTG,309.3089,T,309.3089,M,2.521,N,4.672,K,D*25
$GPGGA,154428.60,4612.5208780,N,00605.1325667,E,2,09,1.2,367.817,M,49.519,M,18.92,0195*40
$GPVTG,309.1917,T,309.1917,M,2.553,N,4.731,K,D*26
$GPGGA,154428.80,4612.5209680,N,00605.1324060,E,2,09,1.2,367.817,M,49.519,M,19.12,0195*47
$GPVTG,309.4403,T,309.4403,M,2.563,N,4.750,K,D*22
$GPGGA,154429.20,4612.5211526,N,00605.1320873,E,4,09,1.2,367.792,M,49.519,M,0.05,0195*7E
$RDENS,9027,5666775,PC
$GPVTG,309.8226,T,309.8226,M,2.529,N,4.688,K,D*28
$GPGGA,154429.40,4612.5212420,N,00605.1319284,E,4,09,1.2,367.794,M,49.519,M,0.25,0195*70
$GPVTG,308.0641,T,308.0641,M,2.540,N,4.707,K,D*21
$GPGGA,154429.80,4612.5214201,N,00605.1316064,E,4,09,1.2,367.808,M,49.519,M,0.65,0195*72
$GPVTG,308.9346,T,308.9346,M,2.556,N,4.736,K,D*24
$GPGGA,154430.00,4612.5215079,N,00605.1314487,E,4,09,1.2,367.810,M,49.519,M,0.85,0195*72
$GPVTG,308.7453,T,308.7453,M,2.514,N,4.660,K,D*20
$RDENS,9028,5666864,PC
$GPGGA,154430.40,4612.5216862,N,00605.1311341,E,4,09,1.2,367.806,M,49.519,M,1.25,0195*73
$GPVTG,309.6414,T,309.6414,M,2.554,N,4.733,K,D*23
$GPGGA,154430.60,4612.5217728,N,00605.1309704,E,4,09,1.2,367.806,M,49.519,M,1.45,0195*7B
$GPVTG,308.9500,T,308.9500,M,2.543,N,4.713,K,D*27
$GPGGA,154431.00,4612.5219504,N,00605.1306542,E,4,09,1.2,367.791,M,49.519,M,0.10,0195*71
$GPVTG,308.1844,T,308.1844,M,2.541,N,4.710,K,D*26
$RDENS,9029,5666953,PC
$GPGGA,154431.20,4612.5220369,N,00605.1304956,E,4,09,1.2,367.783,M,49.519,M,0.19,0195*75
$GPVTG,307.4344,T,307.4344,M,2.543,N,4.714,K,D*20
$GPGGA,154431.60,4612.5222079,N,00605.1301744,E,4,09,1.2,367.780,M,49.519,M,0.11,0195*72
$GPVTG,308.1419,T,308.1419,M,2.534,N,4.696,K,D*2B
$GPGGA,154431.80,4612.5222956,N,00605.1300160,E,4,09,1.2,367.778,M,49.519,M,0.10,0195*7F
$GPVTG,307.5606,T,307.5606,M,2.507,N,4.645,K,D*25
$RDENS,9030,5667042,PC
$GPGGA,154432.20,4612.5224659,N,00605.1296938,E,4,09,1.2,367.772,M,49.519,M,0.30,0195*73
$GPVTG,307.6604,T,307.6604,M,2.589,N,4.798,K,D*22
$GPGGA,154432.40,4612.5225554,N,00605.1295367,E,4,11,0.8,367.765,M,49.519,M,0.50,0195*7B
$GPVTG,307.3578,T,307.3578,M,2.536,N,4.699,K,D*26
$GPGGA,154432.80,4612.5227290,N,00605.1292122,E,4,11,0.8,367.761,M,49.519,M,0.13,0195*7D
$GPVTG,308.4968,T,308.4968,M,2.565,N,4.753,K,D*27
$RDENS,9031,5667131,PC
$GPGGA,154433.00,4612.5228168,N,00605.1290454,E,4,11,0.8,367.768,M,49.519,M,0.33,0195*72
$GPVTG,306.9489,T,306.9489,M,2.582,N,4.784,K,D*24
$GPGGA,154433.20,4612.5229031,N,00605.1288828,E,4,11,0.8,367.769,M,49.519,M,0.21,0195*70
$GPVTG,307.8487,T,307.8487,M,2.607,N,4.832,K,D*28
$GPGGA,154433.60,4612.5230788,N,00605.1285561,E,4,11,0.8,367.756,M,49.519,M,0.19,0195*73
$GPVTG,308.5428,T,308.5428,M,2.604,N,4.827,K,D*2F
$RDENS,9032,5667220,PC
$GPGGA,154433.80,4612.5231631,N,00605.1283883,E,4,11,0.8,367.774,M,49.520,M,0.39,0195*70
$GPVTG,306.7563,T,306.7563,M,2.627,N,4.869,K,D*24
$GPGGA,154434.20,4612.5233403,N,00605.1280538,E,4,11,0.8,367.783,M,49.520,M,0.79,0195*7E
$GPVTG,307.5986,T,307.5986,M,2.660,N,4.929,K,D*22
$GPGGA,154434.40,4612.5234320,N,00605.1278863,E,4,11,0.8,367.783,M,49.520,M,0.10,0195*72
$GPVTG,306.4439,T,306.4439,M,2.681,N,4.969,K,D*29
$RDENS,9033,5667309,PC
$GPGGA,154434.80,4612.5236113,N,00605.1275439,E,4,11,0.8,367.778,M,49.520,M,0.30,0195*76
$GPVTG,307.4256,T,307.4256,M,2.680,N,4.967,K,D*26
$GPGGA,154435.00,4612.5237043,N,00605.1273721,E,4,11,0.8,367.776,M,49.520,M,0.50,0195*7E
$GPVTG,306.4743,T,306.4743,M,2.682,N,4.971,K,D*23
$GPGGA,154435.40,4612.5238851,N,00605.1270282,E,4,11,0.8,367.781,M,49.520,M,0.90,0195*75
$GPVTG,307.6178,T,307.6178,M,2.687,N,4.980,K,D*28
$RDENS,9034,5667398,PC
$GPGGA,154435.60,4612.5239799,N,00605.1268557,E,4,11,0.8,367.780,M,49.520,M,0.06,0195*75
$GPVTG,308.9443,T,308.9443,M,2.782,N,5.155,K,D*2D
$GPGGA,154436.00,4612.5241700,N,00605.1265093,E,4,11,0.8,367.777,M,49.520,M,0.46,0195*73
$GPVTG,308.0748,T,308.0748,M,2.735,N,5.069,K,D*2F
$GPGGA,154436.20,4612.5242655,N,00605.1263362,E,4,11,0.8,367.774,M,49.520,M,0.66,0195*79
$GPVTG,308.9335,T,308.9335,M,2.746,N,5.088,K,D*24
$RDENS,9035,5667487,PC
$GPGGA,154436.60,4612.5244561,N,00605.1259946,E,4,11,0.8,367.777,M,49.520,M,0.04,0195*7D
$GPVTG,308.7601,T,308.7601,M,2.733,N,5.066,K,D*26
$GPGGA,154436.80,4612.5245499,N,00605.1258201,E,4,11,0.8,367.773,M,49.520,M,0.24,0195*7B
$GPVTG,309.7194,T,309.7194,M,2.755,N,5.106,K,D*21
$GPGGA,154437.20,4612.5247457,N,00605.1254794,E,4,11,0.8,367.776,M,49.520,M,0.64,0195*74
$GPVTG,309.7360,T,309.7360,M,2.749,N,5.096,K,D*24
$RDENS,9036,5667576,PC
$GPVTG,309.5317,T,309.5317,M,2.796,N,5.182,K,D*22
$GPGGA,154437.60,4612.5249397,N,00605.1251380,E,4,11,0.8,367.768,M,49.520,M,0.07,0195*7B
$GPVTG,310.2652,T,310.2652,M,2.769,N,5.131,K,D*2A
$GPGGA,154437.80,4612.5250400,N,00605.1249692,E,4,11,0.8,367.776,M,49.520,M,0.27,0195*76
$GPVTG,310.7007,T,310.7007,M,2.726,N,5.052,K,D*25
$GPGGA,154438.20,4612.5252395,N,00605.1246328,E,4,11,0.8,367.776,M,49.520,M,0.67,0195*75
$RDENS,9037,5667665,PC
$GPVTG,311.2759,T,311.2759,M,2.744,N,5.086,K,D*28
$GPGGA,154438.40,4612.5253416,N,00605.1244681,E,4,11,0.8,367.777,M,49.520,M,0.87,0195*75
$GPVTG,311.8709,T,311.8709,M,2.728,N,5.055,K,D*2C
$GPGGA,154438.80,4612.5255455,N,00605.1241399,E,4,11,0.8,367.781,M,49.520,M,1.27,0195*73
$GPVTG,312.3805,T,312.3805,M,2.752,N,5.100,K,D*20
$GPGGA,154439.00,4612.5256506,N,00605.1239782,E,4,11,0.8,367.782,M,49.520,M,1.47,0195*7A
$RDENS,9038,5667754,PC
$GPVTG,313.2122,T,313.2122,M,2.738,N,5.074,K,D*2E
$GPGGA,154439.40,4612.5258594,N,00605.1236541,E,4,11,0.8,367.772,M,49.520,M,1.87,0195*7A
$GPVTG,312.2439,T,312.2439,M,2.769,N,5.132,K,D*29
$GPGGA,154439.60,4612.5259582,N,00605.1234901,E,4,11,0.8,367.765,M,49.520,M,0.01,0195*7D
$GPVTG,313.6501,T,313.6501,M,2.697,N,4.998,K,D*20
$GPGGA,154440.00,4612.5261643,N,00605.1231816,E,4,11,0.8,367.785,M,49.520,M,0.39,0195*77
$RDENS,9039,5667843,PC
$GPVTG,313.9924,T,313.9924,M,2.639,N,4.891,K,D*2C
$GPGGA,154440.20,4612.5262700,N,00605.1230296,E,4,11,0.8,367.782,M,49.520,M,0.59,0195*72
$GPVTG,314.9140,T,314.9140,M,2.685,N,4.976,K,D*23
$GPGGA,154440.60,4612.5264837,N,00605.1227256,E,4,11,0.8,367.777,M,49.520,M,0.99,0195*77
$GPVTG,315.5117,T,315.5117,M,2.705,N,5.013,K,D*21
$GPGGA,154440.80,4612.5265888,N,00605.1225764,E,4,11,0.8,367.767,M,49.520,M,0.07,0195*7C
$RDENS,9040,5667932,PC
$GPVTG,315.6724,T,315.6724,M,2.658,N,4.926,K,D*26
$GPGGA,154441.20,4612.5267967,N,00605.1222843,E,4,11,0.8,367.752,M,49.520,M,0.33,0195*79
$GPVTG,316.1704,T,316.1704,M,2.615,N,4.846,K,D*28
$GPGGA,154441.40,4612.5269040,N,00605.1221402,E,4,11,0.8,367.747,M,49.520,M,0.53,0195*75
$GPVTG,316.8757,T,316.8757,M,2.635,N,4.884,K,D*24
$GPGGA,154441.80,4612.5271187,N,00605.1218558,E,4,11,0.8,367.751,M,49.520,M,0.93,0195*75
$RDENS,9041,5668021,PC
$GPVTG,317.4582,T,317.4582,M,2.607,N,4.832,K,D*28
$GPGGA,154442.00,4612.5272275,N,00605.1217169,E,4,11,0.8,367.749,M,49.520,M,1.13,0195*7A
$GPVTG,317.6601,T,317.6601,M,2.611,N,4.838,K,D*25
$GPGGA,154442.20,4612.5273340,N,00605.1215767,E,4,11,0.8,367.754,M,49.520,M,1.33,0195*7A
$GPVTG,318.5844,T,318.5844,M,2.560,N,4.744,K,D*24
$GPGGA,154442.60,4612.5275488,N,00605.1213023,E,4,11,0.8,367.752,M,49.520,M,1.73,0195*78
$RDENS,9042,5668110,PC
$GPVTG,318.2323,T,318.2323,M,2.578,N,4.779,K,D*23
$GPGGA,154442.80,4612.5276566,N,00605.1211678,E,4,11,0.8,367.754,M,49.520,M,1.93,0195*76
$GPVTG,319.4747,T,319.4747,M,2.571,N,4.765,K,D*27
$GPGGA,154443.20,4612.5278747,N,00605.1209027,E,4,11,0.8,367.749,M,49.520,M,2.33,0195*72
$GPVTG,319.9482,T,319.9482,M,2.557,N,4.739,K,D*2A
$GPGGA,154443.40,4612.5279826,N,00605.1207707,E,4,11,0.8,367.747,M,49.520,M,2.53,0195*7E
$RDENS,9043,5668199,PC
$GPVTG,320.5679,T,320.5679,M,2.549,N,4.724,K,D*29
$GPGGA,154443.80,4612.5281997,N,00605.1205133,E,4,11,0.8,367.757,M,49.520,M,2.93,0195*70
$GPVTG,320.6303,T,320.6303,M,2.501,N,4.636,K,D*27
$GPGGA,154444.00,4612.5283096,N,00605.1203865,E,4,11,0.8,367.769,M,49.520,M,3.13,0195*7D
$GPVTG,321.1770,T,321.1770,M,2.500,N,4.634,K,D*24
$GPGGA,154444.40,4612.5285269,N,00605.1201347,E,4,11,0.8,367.769,M,49.520,M,3.53,0195*70
$RDENS,9044,5668288,PC
$GPVTG,321.0146,T,321.0146,M,2.514,N,4.658,K,D*2B
$GPGGA,154444.60,4612.5286378,N,00605.1200092,E,4,11,0.8,367.761,M,49.520,M,3.73,0195*70
$GPVTG,321.0934,T,321.0934,M,2.526,N,4.681,K,D*2E
$GPGGA,154445.00,4612.5288564,N,00605.1197573,E,4,11,0.8,367.762,M,49.520,M,4.13,0195*77
$GPVTG,321.7526,T,321.7526,M,2.489,N,4.613,K,D*21
$GPGGA,154445.20,4612.5289662,N,00605.1196317,E,4,11,0.8,367.755,M,49.520,M,0.04,0195*72
$RDENS,9045,5668377,PC
$GPVTG,321.2830,T,321.2830,M,2.512,N,4.656,K,D*23
$GPGGA,154445.60,4612.5291825,N,00605.1193835,E,4,11,0.8,367.756,M,49.520,M,0.44,0195*7B
$GPVTG,321.7965,T,321.7965,M,2.479,N,4.595,K,D*23
$GPGGA,154445.80,4612.5292911,N,00605.1192620,E,4,11,0.8,367.763,M,49.520,M,0.64,0195*7F
$GPVTG,321.7888,T,321.7888,M,2.488,N,4.611,K,D*22
$GPGGA,154446.20,4612.5295082,N,00605.1190127,E,4,11,0.8,367.765,M,49.520,M,1.04,0195*71
$RDENS,9046,5668466,PC
$GPVTG,321.1035,T,321.1035,M,2.517,N,4.664,K,D*27
$GPGGA,154446.40,4612.5296159,N,00605.1188899,E,4,11,0.8,367.765,M,49.520,M,1.24,0195*74
$GPVTG,321.5537,T,321.5537,M,2.494,N,4.623,K,D*2E
$GPGGA,154446.80,4612.5298339,N,00605.1186441,E,4,11,0.8,367.764,M,49.520,M,1.64,0195*70
$GPVTG,322.1196,T,322.1196,M,2.478,N,4.592,K,D*25
$GPGGA,154447.00,4612.5299438,N,00605.1185196,E,4,11,0.8,367.762,M,49.520,M,1.84,0195*7A
$RDENS,9047,5668555,PC
$GPVTG,322.0682,T,322.0682,M,2.524,N,4.678,K,D*2A
$GPGGA,154447.20,4612.5300518,N,00605.1183972,E,4,11,0.8,367.764,M,49.520,M,2.04,0195*73
$GPVTG,321.5794,T,321.5794,M,2.493,N,4.620,K,D*2A
$GPGGA,154447.60,4612.5302690,N,00605.1181488,E,4,11,0.8,367.767,M,49.520,M,2.44,0195*7B
$GPVTG,321.5094,T,321.5094,M,2.482,N,4.601,K,D*29
$GPGGA,154447.80,4612.5303786,N,00605.1180223,E,4,11,0.8,367.768,M,49.520,M,2.64,0195*79
$RDENS,9048,5668644,PC
$GPVTG,321.1792,T,321.1792,M,2.532,N,4.693,K,D*28
$GPGGA,154448.20,4612.5305986,N,00605.1177709,E,4,11,0.8,367.761,M,49.520,M,3.04,0195*7F
$GPVTG,321.4854,T,321.4854,M,2.515,N,4.661,K,D*20
$GPGGA,154448.40,4612.5307084,N,00605.1176449,E,4,11,0.8,367.756,M,49.520,M,3.24,0195*70
$GPVTG,321.2392,T,321.2392,M,2.505,N,4.642,K,D*20
$GPGGA,154448.80,4612.5309249,N,00605.1173915,E,4,11,0.8,367.752,M,49.520,M,3.64,0195*70
$GPVTG,320.7458,T,320.7458,M,2.533,N,4.695,K,D*2F
$RDENS,9049,5668733,PC
$GPGGA,154449.00,4612.5310362,N,00605.1172651,E,4,11,0.8,367.757,M,49.520,M,3.84,0195*7C
$GPVTG,321.1933,T,321.1933,M,2.507,N,4.647,K,D*27
$GPGGA,154449.40,4612.5312559,N,00605.1170132,E,4,11,0.8,367.765,M,49.520,M,4.24,0195*78
$GPVTG,321.9138,T,321.9138,M,2.537,N,4.702,K,D*24
$GPGGA,154449.60,4612.5313648,N,00605.1168861,E,4,11,0.8,367.768,M,49.520,M,4.44,0195*75
$GPVTG,321.6937,T,321.6937,M,2.556,N,4.738,K,D*2A
$RDENS,9050,5668822,PC
$GPGGA,154450.00,4612.5315854,N,00605.1166327,E,4,11,0.8,367.766,M,49.520,M,4.84,0195*7B
$GPVTG,321.2739,T,321.2739,M,2.522,N,4.675,K,D*21
$GPGGA,154450.20,4612.5316942,N,00605.1165069,E,4,11,0.8,367.762,M,49.520,M,5.04,0195*7B
$GPVTG,321.0899,T,321.0899,M,2.509,N,4.650,K,D*2F
$GPGGA,154450.60,4612.5319138,N,00605.1162546,E,4,11,0.8,367.763,M,49.520,M,5.44,0195*7F
$GPVTG,321.5949,T,321.5949,M,2.519,N,4.668,K,D*25
$RDENS,9051,5668911,PC
$GPGGA,154450.80,4612.5320241,N,00605.1161279,E,4,11,0.8,367.768,M,49.520,M,5.64,0195*77
$GPVTG,322.3734,T,322.3734,M,2.494,N,4.623,K,D*2E
$GPGGA,154451.20,4612.5322449,N,00605.1158794,E,4,11,0.8,367.773,M,49.520,M,6.04,0195*73
$GPVTG,321.5753,T,321.5753,M,2.526,N,4.681,K,D*2E
$GPGGA,154451.40,4612.5323574,N,00605.1157534,E,4,11,0.8,367.778,M,49.520,M,6.24,0195*75
$GPVTG,321.0930,T,321.0930,M,2.568,N,4.759,K,D*20
$RDENS,9052,5669000,PC
$GPGGA,154451.60,4612.5324682,N,00605.1156249,E,4,11,0.8,367.779,M,49.520,M,6.44,0195*71
$GPVTG,322.0691,T,322.0691,M,2.606,N,4.829,K,D*23
$GPGGA,154452.00,4612.5326931,N,00605.1153695,E,4,11,0.8,367.775,M,49.520,M,6.84,0195*71
$GPVTG,322.2581,T,322.2581,M,2.536,N,4.701,K,D*26
$GPGGA,154452.20,4612.5328069,N,00605.1152444,E,4,11,0.8,367.772,M,49.520,M,7.04,0195*78
$GPVTG,321.8334,T,321.8334,M,2.576,N,4.773,K,D*27
$RDENS,9053,5669089,PC
$GPGGA,154452.60,4612.5330319,N,00605.1149920,E,4,11,0.8,367.774,M,49.520,M,7.44,0195*76
$GPVTG,321.8033,T,321.8033,M,2.570,N,4.763,K,D*20
$GPGGA,154452.80,4612.5331443,N,00605.1148666,E,4,11,0.8,367.775,M,49.520,M,7.64,0195*7E
$GPVTG,321.7512,T,321.7512,M,2.550,N,4.726,K,D*23
$GPGGA,154453.20,4612.5333681,N,00605.1146139,E,4,11,0.8,367.772,M,49.520,M,8.04,0195*76
$GPVTG,322.7561,T,322.7561,M,2.579,N,4.780,K,D*24
$RDENS,9054,5669178,PC
$GPGGA,154453.40,4612.5334817,N,00605.1144879,E,4,11,0.8,367.776,M,49.520,M,8.24,0195*7F
$GPVTG,322.3657,T,322.3657,M,2.591,N,4.801,K,D*24
$GPGGA,154453.80,4612.5337059,N,00605.1142371,E,4,11,0.8,367.775,M,49.520,M,8.64,0195*70
$GPVTG,321.5634,T,321.5634,M,2.532,N,4.692,K,D*29
$GPGGA,154454.00,4612.5338184,N,00605.1141102,E,4,11,0.8,367.780,M,49.520,M,8.84,0195*70
$GPVTG,321.4040,T,321.4040,M,2.553,N,4.732,K,D*25
$RDENS,9055,5669267,PC
$GPGGA,154454.40,4612.5340407,N,00605.1138569,E,4,11,0.8,367.782,M,49.520,M,9.24,0195*7B
$GPVTG,322.0127,T,322.0127,M,2.540,N,4.707,K,D*21
$GPGGA,154454.60,4612.5341518,N,00605.1137316,E,4,11,0.8,367.779,M,49.520,M,9.44,0195*74
$GPVTG,321.8997,T,321.8997,M,2.556,N,4.737,K,D*25
$GPGGA,154455.00,4612.5343754,N,00605.1134802,E,4,11,0.8,367.778,M,49.520,M,9.84,0195*7B
$GPVTG,321.9886,T,321.9886,M,2.555,N,4.734,K,D*25
$RDENS,9056,5669356,PC
$GPGGA,154455.20,4612.5344882,N,00605.1133572,E,4,11,0.8,367.780,M,49.520,M,10.04,0195*40
$GPVTG,321.7845,T,321.7845,M,2.569,N,4.761,K,D*2A
$GPGGA,154455.60,4612.5347132,N,00605.1131050,E,4,11,0.8,367.783,M,49.520,M,10.44,0195*45
$GPVTG,322.4439,T,322.4439,M,2.541,N,4.710,K,D*26
$GPGGA,154455.80,4612.5348249,N,00605.1129810,E,4,11,0.8,367.783,M,49.520,M,10.64,0195*4C
$GPVTG,321.7917,T,321.7917,M,2.521,N,4.671,K,D*26
$RDENS,9057,5669445,PC
$GPGGA,154456.20,4612.5350491,N,00605.1127315,E,4,11,0.8,367.783,M,49.520,M,11.04,0195*48
$GPVTG,322.5283,T,322.5283,M,2.583,N,4.786,K,D*27
$GPGGA,154456.40,4612.5351597,N,00605.1126084,E,4,11,0.8,367.788,M,49.520,M,11.24,0195*4B
$GPVTG,322.5719,T,322.5719,M,2.540,N,4.708,K,D*2E
$GPGGA,154456.60,4612.5352720,N,00605.1124846,E,4,11,0.8,367.783,M,49.520,M,11.44,0195*4D
$GPVTG,322.1833,T,322.1833,M,2.557,N,4.739,K,D*2A
$RDENS,9058,5669534,PC
$GPGGA,154457.00,4612.5354955,N,00605.1122357,E,4,11,0.8,367.791,M,49.520,M,11.84,0195*42
$GPVTG,322.0486,T,322.0486,M,2.532,N,4.693,K,D*28
$GPGGA,154457.20,4612.5356063,N,00605.1121085,E,2,11,0.8,367.783,M,49.520,M,12.04,0195*4F
$GPVTG,321.9602,T,321.9602,M,2.547,N,4.721,K,D*22
$GPGGA,154457.60,4612.5358318,N,00605.1118587,E,2,11,0.8,367.792,M,49.520,M,12.44,0195*43
$GPVTG,322.5480,T,322.5480,M,2.566,N,4.756,K,D*21
$RDENS,9059,5669623,PC
$GPGGA,154457.80,4612.5359462,N,00605.1117298,E,4,11,0.8,367.783,M,49.520,M,0.08,0195*7D
$GPVTG,321.8001,T,321.8001,M,2.538,N,4.704,K,D*2D
$GPGGA,154458.20,4612.5361703,N,00605.1114774,E,4,11,0.8,367.785,M,49.520,M,0.03,0195*7E
$GPVTG,322.3911,T,322.3911,M,2.542,N,4.711,K,D*24
$GPGGA,154458.40,4612.5362828,N,00605.1113464,E,4,11,0.8,367.769,M,49.520,M,0.23,0195*78
$GPVTG,322.4020,T,322.4020,M,2.522,N,4.674,K,D*20
$RDENS,9060,5669712,PC
$GPGGA,154458.80,4612.5365071,N,00605.1110886,E,4,10,0.9,367.754,M,49.520,M,0.06,0195*7D
$GPVTG,320.5908,T,320.5908,M,2.567,N,4.758,K,D*2E
$GPGGA,154459.00,4612.5366177,N,00605.1109616,E,4,10,0.9,367.755,M,49.520,M,0.10,0195*79
$GPVTG,320.8598,T,320.8598,M,2.558,N,4.741,K,D*2A
$GPGGA,154459.40,4612.5368385,N,00605.1107075,E,4,10,0.9,367.763,M,49.520,M,0.50,0195*70
$GPVTG,321.0373,T,321.0373,M,2.562,N,4.748,K,D*2A
$RDENS,9061,5669801,PC
$GPVTG,320.9720,T,320.9720,M,2.590,N,4.801,K,D*25
$GPGGA,154459.80,4612.5370587,N,00605.1104471,E,4,10,0.9,367.770,M,49.520,M,0.22,0195*75
$GPVTG,320.4449,T,320.4449,M,2.560,N,4.745,K,D*25
$GPGGA,154500.00,4612.5371695,N,00605.1103155,E,4,10,0.9,367.771,M,49.520,M,0.42,0195*72
$GPVTG,320.3146,T,320.3146,M,2.567,N,4.757,K,D*21
$GPGGA,154500.40,4612.5373886,N,00605.1100474,E,4,10,0.9,367.762,M,49.520,M,0.82,0195*73
$RDENS,9062,5669890,PC
$GPVTG,319.5188,T,319.5188,M,2.584,N,4.789,K,D*2F
$GPGGA,154500.60,4612.5375000,N,00605.1099133,E,4,10,0.9,367.762,M,49.520,M,0.01,0195*7D
$GPVTG,319.2737,T,319.2737,M,2.576,N,4.775,K,D*21
$GPGGA,154501.00,4612.5377184,N,00605.1096405,E,4,10,0.9,367.767,M,49.520,M,0.41,0195*7B
$GPVTG,318.7150,T,318.7150,M,2.615,N,4.846,K,D*28
$GPGGA,154501.20,4612.5378277,N,00605.1095020,E,4,10,0.9,367.767,M,49.520,M,0.61,0195*7B
$RDENS,9063,5669979,PC
$GPVTG,318.9530,T,318.9530,M,2.617,N,4.850,K,D*2D
$GPGGA,154501.60,4612.5380440,N,00605.1092264,E,4,10,0.9,367.767,M,49.520,M,1.01,0195*78
$GPVTG,317.8078,T,317.8078,M,2.589,N,4.799,K,D*23
$GPGGA,154501.80,4612.5381505,N,00605.1090890,E,4,10,0.9,367.767,M,49.520,M,1.21,0195*76
$GPVTG,317.7210,T,317.7210,M,2.596,N,4.811,K,D*22
$GPGGA,154502.20,4612.5383621,N,00605.1088039,E,4,10,0.9,367.768,M,49.520,M,1.61,0195*71
$RDENS,9064,5670068,PC
$GPVTG,317.1234,T,317.1234,M,2.565,N,4.754,K,D*20
$GPGGA,154502.40,4612.5384685,N,00605.1086632,E,4,10,0.9,367.763,M,49.520,M,0.05,0195*75
$GPVTG,316.5136,T,316.5136,M,2.584,N,4.788,K,D*2E
$GPGGA,154502.80,4612.5386756,N,00605.1083773,E,4,10,0.9,367.757,M,49.520,M,0.35,0195*71
$GPVTG,316.2120,T,316.2120,M,2.602,N,4.822,K,D*2C
$GPGGA,154503.00,4612.5387823,N,00605.1082341,E,4,10,0.9,367.752,M,49.520,M,0.12,0195*70
$RDENS,9065,5670157,PC
$GPVTG,315.5671,T,315.5671,M,2.624,N,4.863,K,D*2D
$GPGGA,154503.40,4612.5389907,N,00605.1079430,E,4,10,0.9,367.757,M,49.520,M,0.52,0195*79
$GPVTG,316.2513,T,316.2513,M,2.594,N,4.807,K,D*27
$GPGGA,154503.60,4612.5390939,N,00605.1077952,E,4,10,0.9,367.741,M,49.520,M,0.05,0195*7C
$GPVTG,315.4116,T,315.4116,M,2.648,N,4.907,K,D*24
$GPGGA,154504.00,4612.5393017,N,00605.1074968,E,4,10,0.9,367.748,M,49.520,M,0.45,0195*7C
$RDENS,9066,5670246,PC
$GPVTG,314.7944,T,314.7944,M,2.598,N,4.815,K,D*28
$GPGGA,154504.20,4612.5394035,N,00605.1073504,E,4,10,0.9,367.752,M,49.520,M,0.65,0195*71
